     2.10           OBSERVATION DATA    G (GPS)             RINEX VERSION / TYPE
Convert v1.8.0                          09-Jun-2016 14:46   PGM / RUN BY / DATE 
Signal Strength values S1,S2 are in dBHz                    COMMENT             
                                                            MARKER NAME         
                                                            MARKER NUMBER       
                                                            OBSERVER / AGENCY   
                    NovAtel GPSCard                         REC # / TYPE / VERS 
                                                            ANT # / TYPE        
0.0000        0.0000        0.0000                          APPROX POSITION XYZ 
        0.0000        0.0000        0.0000                  ANTENNA: DELTA H/E/N
     1     0                                                WAVELENGTH FACT L1/2
     1     0     3   G04   G05   G21                        WAVELENGTH FACT L1/2
                                                            COMMENT             
                                                            COMMENT             
                                                            COMMENT             
                                                            COMMENT             
                                                            COMMENT             
                                                            COMMENT             
     4    C1    L1    D1    S1                              # / TYPES OF OBSERV 
     0.100                                                  INTERVAL            
  2016    04    02    14    30    37.2000000    GPS         TIME OF FIRST OBS   
  2016    04    02    14    32     1.9000000    GPS         TIME OF LAST OBS    
Leap Seconds Unknown                                        COMMENT             
                                                            END OF HEADER       
 16 04 02 14 30 37.2000000  0  1G21                                             
  22512912.32049 118306152.40659     -2058.61749        50.000  
 16 04 02 14 30 37.3000000  0  2G05G21                                          
  21940049.69549 115295738.42659     -5007.66849        50.000  
  22512951.53949 118306358.50449     -2062.73449        50.000  
 16 04 02 14 30 37.4000000  0  2G05G21                                          
  21940145.05549 115296239.53149     -5013.97749        50.000  
  22512990.82849 118306564.98449     -2066.78549        50.000  
 16 04 02 14 30 37.5000000  0  2G05G21                                          
  21940240.53149 115296741.18849     -5019.53949        50.000  
  22513030.18849 118306771.82449     -2070.32449        50.000  
 16 04 02 14 30 37.6000000  0  2G05G21                                          
  21940336.10249 115297243.41849     -5025.25449        50.000  
  22513069.62549 118306979.02749     -2074.08249        50.000  
 16 04 02 14 30 37.7000000  0  2G05G21                                          
  21940431.77349 115297746.25849     -5031.24249        50.000  
  22513109.12549 118307186.60949     -2077.69149        50.000  
 16 04 02 14 30 37.8000000  0  2G05G21                                          
  21940527.57049 115298249.70349     -5037.39849        50.000  
  22513148.69549 118307394.61749     -2082.08249        50.000  
 16 04 02 14 30 37.9000000  0  2G05G21                                          
  21940623.49249 115298753.78149     -5043.81249        50.000  
  22513188.35249 118307603.02749     -2086.22749        50.000  
 16 04 02 14 30 38.0000000  0  2G05G21                                          
  21940719.53949 115299258.50849     -5050.16449        50.000  
  22513228.09449 118307811.86349     -2090.38749        50.000  
 16 04 02 14 30 38.1000000  0  2G05G21                                          
  21940815.68049 115299763.74649     -5055.51649        50.000  
  22513267.89149 118308021.02049     -2093.55549        50.000  
 16 04 02 14 30 38.2000000  0  2G05G21                                          
  21940911.94549 115300269.62549     -5061.80549        49.000  
  22513307.78149 118308230.61349     -2097.92249        50.000  
 16 04 02 14 30 38.3000000  0  2G05G21                                          
  21941008.33649 115300776.10949     -5067.98449        49.000  
  22513347.73449 118308440.59849     -2101.93049        50.000  
 16 04 02 14 30 38.4000000  0  2G05G21                                          
  21941104.82849 115301283.18049     -5073.68449        50.000  
  22513387.76649 118308650.93849     -2105.26249        50.000  
 16 04 02 14 30 38.5000000  0  2G05G21                                          
  21941201.43849 115301790.82049     -5079.41449        50.000  
  22513427.86749 118308861.65649     -2109.09049        50.000  
 16 04 02 14 30 38.6000000  0  2G05G21                                          
  21941298.15649 115302299.09849     -5085.56249        50.000  
  22513468.05549 118309072.83249     -2113.61749        50.000  
 16 04 02 14 30 38.7000000  0  2G05G21                                          
  21941394.98449 115302807.96149     -5091.61349        50.000  
  22513508.29749 118309284.33249     -2117.25449        50.000  
 16 04 02 14 30 38.8000000  0  2G05G21                                          
  21941491.94549 115303317.47749     -5098.18049        49.000  
  22513548.63349 118309496.28949     -2121.54349        50.000  
 16 04 02 14 30 38.9000000  0  2G05G21                                          
  21941589.00049 115303827.51649     -5103.43449        49.000  
  22513589.03149 118309708.59049     -2125.03949        50.000  
 16 04 02 14 30 39.0000000  0  2G05G21                                          
  21941686.17249 115304338.18049     -5109.37949        49.000  
  22513629.50849 118309921.25449     -2128.53949        50.000  
 16 04 02 14 30 39.1000000  0  2G05G21                                          
  21941783.46949 115304849.46949     -5116.09449        49.000  
  22513670.06249 118310134.38749     -2133.42249        50.000  
 16 04 02 14 30 39.2000000  0  2G05G21                                          
  21941880.88349 115305361.39149     -5122.07449        50.000  
  22513710.68849 118310347.89549     -2137.04349        50.000  
 16 04 02 14 30 39.3000000  0  2G05G21                                          
  21941978.39149 115305873.87549     -5127.65249        50.000  
  22513751.39149 118310561.79749     -2140.80949        50.000  
 16 04 02 14 30 39.4000000  0  2G05G21                                          
  21942076.02349 115306386.94149     -5133.49649        50.000  
  22513792.16449 118310776.05949     -2144.59049        50.000  
 16 04 02 14 30 39.5000000  0  2G05G21                                          
  21942173.78149 115306900.61749     -5139.73849        50.000  
  22513833.00849 118310990.71549     -2148.67649        50.000  
 16 04 02 14 30 39.6000000  0  2G05G21                                          
  21942271.64149 115307414.91049     -5145.74249        50.000  
  22513873.92249 118311205.77749     -2152.58649        50.000  
 16 04 02 14 30 39.7000000  0  2G05G21                                          
  21942369.62549 115307929.78549     -5151.83249        50.000  
  22513914.92249 118311421.21949     -2156.61349        50.000  
 16 04 02 14 30 39.8000000  0  2G05G21                                          
  21942467.73449 115308445.35949     -5158.74249        50.000  
  22513956.00849 118311637.14549     -2161.33649        50.000  
 16 04 02 14 30 39.9000000  0  2G05G21                                          
  21942565.94549 115308961.45349     -5163.96149        50.000  
  22513997.15649 118311853.37149     -2164.35549        50.000  
 16 04 02 14 30 40.0000000  0  2G05G21                                          
  21942664.26649 115309478.13349     -5169.62149        50.000  
  22514038.36749 118312069.98449     -2167.91049        50.000  
 16 04 02 14 30 40.1000000  0  2G05G21                                          
  21942762.70349 115309995.43049     -5176.09849        50.000  
  22514079.67249 118312287.02049     -2172.44549        50.000  
 16 04 02 14 30 40.2000000  0  2G05G21                                          
  21942861.26649 115310513.37949     -5182.44949        50.000  
  22514121.06249 118312504.47749     -2176.64549        50.000  
 16 04 02 14 30 40.3000000  0  2G05G21                                          
  21942959.93049 115311031.86349     -5187.77049        50.000  
  22514162.50849 118312722.26249     -2179.78549        50.000  
 16 04 02 14 30 40.4000000  0  2G05G21                                          
  21943058.69549 115311550.87549     -5192.80949        50.000  
  22514204.00849 118312940.38749     -2183.02049        50.000  
 16 04 02 14 30 40.5000000  0  2G05G21                                          
  21943157.60249 115312070.58649     -5199.85949        50.000  
  22514245.60249 118313158.96549     -2187.61749        50.000  
 16 04 02 14 30 40.6000000  0  2G05G21                                          
  21943256.60949 115312590.85549     -5205.71949        50.000  
  22514287.27349 118313377.93049     -2191.60949        50.000  
 16 04 02 14 30 40.7000000  0  2G05G21                                          
  21943355.71149 115313111.66449     -5210.94549        50.000  
  22514329.00049 118313597.20749     -2194.75849        50.000  
 16 04 02 14 30 40.8000000  0  2G05G21                                          
  21943454.93849 115313633.10949     -5217.28949        50.000  
  22514370.80549 118313816.91849     -2199.02049        50.000  
 16 04 02 14 30 40.9000000  0  2G05G21                                          
  21943554.28149 115314155.14549     -5223.16449        50.000  
  22514412.68849 118314036.98849     -2202.68049        50.000  
 16 04 02 14 30 41.0000000  0  2G05G21                                          
  21943653.74249 115314677.79749     -5229.60249        50.000  
  22514454.63349 118314257.48849     -2206.98449        50.000  
 16 04 02 14 30 41.1000000  0  2G05G21                                          
  21943753.30549 115315201.02749     -5235.33649        50.000  
  22514496.66449 118314478.35549     -2210.76649        50.000  
 16 04 02 14 30 41.2000000  0  2G05G21                                          
  21943852.98449 115315724.83249     -5240.68449        50.000  
  22514538.75849 118314699.58249     -2214.03149        50.000  
 16 04 02 14 30 41.3000000  0  2G05G21                                          
  21943952.77349 115316249.21949     -5246.71149        50.000  
  22514580.92249 118314921.18849     -2218.01249        50.000  
 16 04 02 14 30 41.4000000  0  2G05G21                                          
  21944052.68849 115316774.25049     -5253.26649        50.000  
  22514623.16449 118315143.21949     -2222.28549        50.000  
 16 04 02 14 30 41.5000000  0  2G05G21                                          
  21944152.70349 115317299.86749     -5259.26649        50.000  
  22514665.49249 118315365.64149     -2226.39149        50.000  
 16 04 02 14 30 41.6000000  0  2G05G21                                          
  21944252.84449 115317826.08249     -5265.12149        50.000  
  22514707.89149 118315588.44549     -2230.11349        50.000  
 16 04 02 14 30 41.7000000  0  2G05G21                                          
  21944353.09449 115318352.88349     -5270.77349        50.000  
  22514750.35949 118315811.62549     -2233.68849        50.000  
 16 04 02 14 30 41.8000000  0  2G05G21                                          
  21944453.45349 115318880.27749     -5276.91049        50.000  
  22514792.89849 118316035.18049     -2237.53949        50.000  
 16 04 02 14 30 41.9000000  0  2G05G21                                          
  21944553.93049 115319408.26649     -5282.80149        50.000  
  22514835.51649 118316259.12949     -2241.42649        50.000  
 16 04 02 14 30 42.0000000  0  2G05G21                                          
  21944654.51649 115319936.84849     -5288.78149        50.000  
  22514878.20349 118316483.48049     -2245.44949        50.000  
 16 04 02 14 30 42.1000000  0  2G05G21                                          
  21944755.21949 115320466.01249     -5294.57449        50.000  
  22514920.96949 118316708.18849     -2249.11749        50.000  
 16 04 02 14 30 42.2000000  0  2G05G21                                          
  21944856.03949 115320995.83249     -5301.35949        50.000  
  22514963.80549 118316933.32449     -2253.50849        50.000  
 16 04 02 14 30 42.3000000  0  2G05G21                                          
  21944956.96949 115321526.21549     -5306.83249        50.000  
  22515006.71949 118317158.84049     -2257.05949        50.000  
 16 04 02 14 30 42.4000000  0  2G05G21                                          
  21945058.01649 115322057.19949     -5312.98449        50.000  
  22515049.71149 118317384.75049     -2261.19549        50.000  
 16 04 02 14 30 42.5000000  0  2G05G21                                          
  21945159.17249 115322588.77049     -5318.54749        50.000  
  22515092.76649 118317611.02749     -2264.80149        50.000  
 16 04 02 14 30 42.6000000  0  2G05G21                                          
  21945260.44549 115323120.95749     -5324.98049        50.000  
  22515135.90649 118317837.70749     -2268.97749        50.000  
 16 04 02 14 30 42.7000000  0  2G05G21                                          
  21945361.84449 115323653.80549     -5331.44949        50.000  
  22515179.12549 118318064.85949     -2273.43049        50.000  
 16 04 02 14 30 42.8000000  0  2G05G21                                          
  21945463.33649 115324187.14149     -5336.39549        50.000  
  22515222.41449 118318292.28549     -2276.37149        50.000  
 16 04 02 14 30 42.9000000  0  2G05G21                                          
  21945564.95349 115324721.15649     -5342.92249        50.000  
  22515265.77349 118318520.17249     -2280.86349        50.000  
 16 04 02 14 30 43.0000000  0  2G05G21                                          
  21945666.68849 115325255.76249     -5349.02349        50.000  
  22515309.20349 118318748.43849     -2284.74249        50.000  
 16 04 02 14 30 43.1000000  0  2G05G21                                          
  21945768.50849 115325790.91449     -5354.30549        50.000  
  22515352.71149 118318977.04349     -2287.96949        50.000  
 16 04 02 14 30 43.2000000  0  2G05G21                                          
  21945870.45349 115326326.64549     -5360.19949        50.000  
  22515396.29749 118319206.03149     -2291.74649        50.000  
 16 04 02 14 30 43.3000000  0  2G05G21                                          
  21945972.53149 115326863.04749     -5366.98849        50.000  
  22515439.95349 118319435.46149     -2296.33649        50.000  
 16 04 02 14 30 43.4000000  0  2G05G21                                          
  21946074.71149 115327400.01649     -5372.60949        50.000  
  22515483.69549 118319665.27049     -2299.96549        50.000  
 16 04 02 14 30 43.5000000  0  3G05G04G21                                       
  21946177.01649 115327937.57049     -5378.45349        50.000  
  23661742.73449 124343296.94159    -11195.77349        49.000  
  22515527.49249 118319895.44949     -2303.84849        50.000  
 16 04 02 14 30 43.6000000  0  3G05G04G21                                       
  21946279.42249 115328475.68849     -5384.00049        50.000  
  23661955.79749 124344416.59449    -11197.60949        49.000  
  22515571.37549 118320125.98049     -2307.19949        50.000  
 16 04 02 14 30 43.7000000  0  3G05G04G21                                       
  21946381.93049 115329014.41849     -5390.19549        50.000  
  23662168.93849 124345536.48849    -11200.28949        49.000  
  22515615.32049 118320356.92649     -2311.43849        50.000  
 16 04 02 14 30 43.8000000  0  3G05G04G21                                       
  21946484.56249 115329553.75449     -5396.14149        50.000  
  23662382.09449 124346656.63749    -11202.64849        49.000  
  22515659.34449 118320588.25849     -2315.23049        50.000  
 16 04 02 14 30 43.9000000  0  3G05G04G21                                       
  21946587.30549 115330093.66049     -5402.05549        50.000  
  23662595.28149 124347776.99249    -11204.93049        49.000  
  22515703.43849 118320819.95749     -2318.97749        50.000  
 16 04 02 14 30 44.0000000  0  3G05G04G21                                       
  21946690.14849 115330634.12949     -5407.38349        50.000  
  23662808.51649 124348897.55549    -11206.76249        49.000  
  22515747.59449 118321052.00449     -2322.33249        50.000  
 16 04 02 14 30 44.1000000  0  3G05G04G21                                       
  21946793.10949 115331175.18449     -5413.32049        50.000  
  23663021.80549 124350018.33649    -11209.01649        49.000  
  22515791.82849 118321284.43449     -2326.11749        50.000  
 16 04 02 14 30 44.2000000  0  3G05G04G21                                       
  21946896.17249 115331716.75449     -5418.46949        50.000  
  23663235.10949 124351139.27049    -11210.55549        49.000  
  22515836.12549 118321517.16449     -2329.11749        50.000  
 16 04 02 14 30 44.3000000  0  3G05G04G21                                       
  21946999.35249 115332258.98449     -5425.09049        50.000  
  23663448.46949 124352260.52349    -11213.61749        49.000  
  22515880.50049 118321750.35549     -2333.80149        50.000  
 16 04 02 14 30 44.4000000  0  3G05G04G21                                       
  21947102.64149 115332801.76249     -5430.74649        50.000  
  23663661.86749 124353381.94949    -11215.59849        49.000  
  22515924.93849 118321983.88349     -2337.21549        50.000  
 16 04 02 14 30 44.5000000  0  3G05G04G21                                       
  21947206.04749 115333345.12549     -5436.59849        50.000  
  23663875.32049 124354503.60949    -11217.89549        49.000  
  22515969.45349 118322217.79749     -2341.07449        50.000  
 16 04 02 14 30 44.6000000  0  3G05G04G21                                       
  21947309.56249 115333889.10249     -5442.75049        50.000  
  23664088.81249 124355625.52049    -11220.47749        49.000  
  22516014.03149 118322452.10549     -2345.18849        50.000  
 16 04 02 14 30 44.7000000  0  3G05G04G21                                       
  21947413.20349 115334433.72749     -5449.08649        50.000  
  23664302.35249 124356747.72349    -11223.23449        49.000  
  22516058.70349 118322686.85949     -2349.41449        50.000  
 16 04 02 14 30 44.8000000  0  3G05G04G21                                       
  21947516.94549 115334978.90649     -5454.69549        50.000  
  23664515.93849 124357870.12149    -11225.27049        49.000  
  22516103.43849 118322921.95349     -2352.98849        50.000  
 16 04 02 14 30 44.9000000  0  3G05G04G21                                       
  21947620.81249 115335524.73449     -5461.07849        50.000  
  23664729.57049 124358992.79749    -11227.91849        49.000  
  22516148.25849 118323157.48849     -2357.16449        50.000  
 16 04 02 14 30 45.0000000  0  3G05G04G21                                       
  21947724.78949 115336071.12949     -5467.02049        50.000  
  23664943.25049 124360115.69149    -11230.36749        49.000  
  22516193.14149 118323393.37949     -2361.02049        50.000  
 16 04 02 14 30 45.1000000  0  3G05G04G21                                       
  21947828.86749 115336618.08249     -5472.31249        50.000  
  23665156.97749 124361238.78949    -11232.09449        49.000  
  22516238.10249 118323629.63349     -2364.34849        50.000  
 16 04 02 14 30 45.2000000  0  3G05G04G21                                       
  21947933.05549 115337165.59849     -5477.91449        50.000  
  23665370.73449 124362362.08249    -11234.03149        49.000  
  22516283.12549 118323866.23449     -2367.87149        50.000  
 16 04 02 14 30 45.3000000  0  3G05G04G21                                       
  21948037.35949 115337713.71149     -5483.85549        50.000  
  23665584.56249 124363485.60549    -11236.31249        49.000  
  22516328.21949 118324103.21549     -2371.60249        50.000  
 16 04 02 14 30 45.4000000  0  3G05G04G21                                       
  21948141.78149 115338262.47349     -5490.77049        50.000  
  23665798.41449 124364609.43449    -11239.74649        49.000  
  22516373.40649 118324340.65649     -2376.54749        50.000  
 16 04 02 14 30 45.5000000  0  3G05G04G21                                       
  21948246.32049 115338811.83249     -5496.73049        50.000  
  23666012.32849 124365733.50049    -11242.08249        49.000  
  22516418.66449 118324578.47749     -2380.37949        50.000  
 16 04 02 14 30 45.6000000  0  3G05G04G21                                       
  21948350.96949 115339361.74249     -5501.94549        50.000  
  23666226.26649 124366857.74649    -11243.58249        49.000  
  22516463.98449 118324816.64149     -2383.44949        50.000  
 16 04 02 14 30 45.7000000  0  3G05G04G21                                       
  21948455.71949 115339912.25449     -5508.23049        50.000  
  23666440.24249 124367982.23849    -11246.50449        49.000  
  22516509.38349 118325055.18849     -2387.71549        50.000  
 16 04 02 14 30 45.8000000  0  3G05G04G21                                       
  21948560.60249 115340463.43449     -5514.71149        50.000  
  23666654.28149 124369107.03949    -11249.22349        49.000  
  22516554.85949 118325294.21549     -2392.11349        50.000  
 16 04 02 14 30 45.9000000  0  3G05G04G21                                       
  21948665.60249 115341015.21149     -5520.83649        50.000  
  23666868.36749 124370232.09049    -11251.94949        49.000  
  22516600.42249 118325533.62149     -2396.16849        50.000  
 16 04 02 14 30 46.0000000  0  3G05G04G21                                       
  21948770.70349 115341567.54349     -5526.20349        50.000  
  23667082.50049 124371357.32849    -11253.50049        49.000  
  22516646.04749 118325773.38349     -2399.42649        50.000  
 16 04 02 14 30 46.1000000  0  3G05G04G21                                       
  21948875.92249 115342120.45749     -5531.99249        50.000  
  23667296.67249 124372482.78949    -11255.86349        49.000  
  22516691.73449 118326013.50449     -2403.13349        50.000  
 16 04 02 14 30 46.2000000  0  3G05G04G21                                       
  21948981.25049 115342673.95749     -5537.80949        50.000  
  23667510.88349 124373608.47349    -11258.11349        49.000  
  22516737.50849 118326254.02349     -2406.98449        50.000  
 16 04 02 14 30 46.3000000  0  3G05G04G21                                       
  21949086.70349 115343228.06649     -5543.80949        50.000  
  23667725.14849 124374734.41049    -11260.35249        49.000  
  22516783.35249 118326494.92649     -2410.80549        50.000  
 16 04 02 14 30 46.4000000  0  3G05G04G21                                       
  21949192.25049 115343782.71549     -5549.57049        49.000  
  23667939.43849 124375860.52749    -11262.68449        49.000  
  22516829.25849 118326736.16449     -2414.49249        50.000  
 16 04 02 14 30 46.5000000  0  3G05G04G21                                       
  21949297.91449 115344337.98849     -5555.59049        49.000  
  23668153.80549 124376986.90249    -11264.94149        49.000  
  22516875.24249 118326977.82049     -2418.36349        50.000  
 16 04 02 14 30 46.6000000  0  3G05G04G21                                       
  21949403.68049 115344893.81249     -5561.17249        49.000  
  23668368.18849 124378113.49249    -11267.24249        49.000  
  22516921.29749 118327219.82849     -2422.06649        50.000  
 16 04 02 14 30 46.7000000  0  3G05G04G21                                       
  21949509.57049 115345450.28149     -5567.53949        49.000  
  23668582.59449 124379240.34849    -11269.79349        49.000  
  22516967.43049 118327462.26649     -2426.24649        50.000  
 16 04 02 14 30 46.8000000  0  3G05G04G21                                       
  21949615.57049 115346007.32049     -5573.28949        49.000  
  23668797.06249 124380367.40649    -11271.93049        49.000  
  22517013.62549 118327705.06649     -2430.06649        50.000  
 16 04 02 14 30 46.9000000  0  3G05G04G21                                       
  21949721.68049 115346564.96149     -5579.34849        49.000  
  23669011.58649 124381494.73049    -11274.58649        49.000  
  22517059.90649 118327948.26649     -2434.04349        50.000  
 16 04 02 14 30 47.0000000  0  3G05G04G21                                       
  21949827.92249 115347123.28149     -5586.23449        49.000  
  23669226.16449 124382622.35249    -11277.59449        49.000  
  22517106.28149 118328191.92249     -2438.64849        50.000  
 16 04 02 14 30 47.1000000  0  3G05G04G21                                       
  21949934.28149 115347682.14149     -5591.62549        49.000  
  23669440.76649 124383750.17249    -11279.57849        49.000  
  22517152.71149 118328435.92649     -2442.08249        50.000  
 16 04 02 14 30 47.2000000  0  3G05G04G21                                       
  21950040.74249 115348241.59449     -5597.26649        50.000  
  23669655.42249 124384878.21949    -11281.54349        49.000  
  22517199.22749 118328680.32049     -2445.72749        50.000  
 16 04 02 14 30 47.3000000  0  3G05G04G21                                       
  21950147.30549 115348801.59449     -5602.75849        50.000  
  23669870.10949 124386006.45349    -11283.50449        49.000  
  22517245.78949 118328925.04349     -2449.00849        50.000  
 16 04 02 14 30 47.4000000  0  3G05G04G21                                       
  21950253.98449 115349362.17649     -5608.69949        49.000  
  23670084.84449 124387134.91049    -11285.77349        49.000  
  22517292.43849 118329170.14149     -2452.92249        50.000  
 16 04 02 14 30 47.5000000  0  3G05G04G21                                       
  21950360.76649 115349923.34049     -5614.51649        49.000  
  23670299.60249 124388263.58649    -11287.96549        49.000  
  22517339.14849 118329415.60949     -2456.62949        50.000  
 16 04 02 14 30 47.6000000  0  3G05G04G21                                       
  21950467.66449 115350485.10949     -5620.65249        50.000  
  23670514.43049 124389392.52049    -11290.51649        49.000  
  22517385.94549 118329661.48849     -2460.76249        50.000  
 16 04 02 14 30 47.7000000  0  3G05G04G21                                       
  21950574.68049 115351047.44549     -5626.25049        50.000  
  23670729.30549 124390521.64849    -11292.84449        49.000  
  22517432.79749 118329907.72349     -2464.40249        50.000  
 16 04 02 14 30 47.8000000  0  3G05G04G21                                       
  21950681.81249 115351610.39149     -5632.21149        49.000  
  23670944.21949 124391651.03949    -11295.05549        49.000  
  22517479.72749 118330154.35549     -2468.13349        50.000  
 16 04 02 14 30 47.9000000  0  3G05G04G21                                       
  21950789.04749 115352173.92249     -5638.30949        49.000  
  23671159.16449 124392780.64549    -11297.47749        49.000  
  22517526.73449 118330401.36349     -2472.19149        50.000  
 16 04 02 14 30 48.0000000  0  3G05G04G21                                       
  21950896.39149 115352737.99649     -5643.58249        50.000  
  23671374.15649 124393910.44149    -11299.02049        49.000  
  22517573.78949 118330648.71549     -2475.31249        50.000  
 16 04 02 14 30 48.1000000  0  3G05G04G21                                       
  21951003.83649 115353302.61349     -5649.09449        49.000  
  23671589.18849 124395040.42249    -11301.22749        49.000  
  22517620.92249 118330896.40249     -2478.84849        50.000  
 16 04 02 14 30 48.2000000  0  3G05G04G21                                       
  21951111.39849 115353867.85249     -5655.24249        49.000  
  23671804.26649 124396170.66049    -11303.74249        49.000  
  22517668.14149 118331144.49649     -2482.89149        50.000  
 16 04 02 14 30 48.3000000  0  3G05G04G21                                       
  21951219.07849 115354433.69949     -5661.45749        49.000  
  23672019.40649 124397301.15249    -11306.35949        49.000  
  22517715.43049 118331393.00449     -2487.12149        50.000  
 16 04 02 14 30 48.4000000  0  3G05G04G21                                       
  21951326.87549 115355000.17249     -5667.87149        49.000  
  23672234.57849 124398431.90649    -11308.96149        49.000  
  22517762.78149 118331641.91449     -2491.26249        50.000  
 16 04 02 14 30 48.5000000  0  3G05G04G21                                       
  21951434.78949 115355567.24649     -5673.94549        49.000  
  23672449.78949 124399562.90249    -11311.54349        49.000  
  22517810.22749 118331891.23449     -2495.48449        50.000  
 16 04 02 14 30 48.6000000  0  3G05G04G21                                       
  21951542.81249 115356134.93849     -5679.94149        49.000  
  23672665.06249 124400694.16449    -11313.96149        49.000  
  22517857.74249 118332140.95349     -2499.23449        50.000  
 16 04 02 14 30 48.7000000  0  3G05G04G21                                       
  21951650.95349 115356703.20349     -5685.47749        50.000  
  23672880.39849 124401825.63749    -11316.03149        49.000  
  22517905.33649 118332391.04749     -2502.84449        50.000  
 16 04 02 14 30 48.8000000  0  3G05G04G21                                       
  21951759.19549 115357272.03549     -5691.23449        50.000  
  23673095.75049 124402957.31649    -11318.04749        49.000  
  22517953.00049 118332641.49649     -2506.45749        50.000  
 16 04 02 14 30 48.9000000  0  3G05G04G21                                       
  21951867.54749 115357841.43849     -5696.68449        50.000  
  23673311.14849 124404089.21149    -11320.04749        49.000  
  22518000.72749 118332892.30949     -2509.93049        50.000  
 16 04 02 14 30 49.0000000  0  3G05G04G21                                       
  21951976.01649 115358411.42249     -5702.75849        50.000  
  23673526.57849 124405221.31249    -11322.48049        49.000  
  22518048.52349 118333143.49649     -2513.86749        50.000  
 16 04 02 14 30 49.1000000  0  3G05G04G21                                       
  21952084.60249 115358982.04349     -5709.08249        50.000  
  23673742.06249 124406353.70749    -11325.21949        49.000  
  22518096.40649 118333395.11749     -2518.11749        50.000  
 16 04 02 14 30 49.2000000  0  3G05G04G21                                       
  21952193.29749 115359553.23449     -5714.85249        50.000  
  23673957.58649 124407486.29349    -11327.32449        49.000  
  22518144.35249 118333647.09849     -2521.84049        50.000  
 16 04 02 14 30 49.3000000  0  3G05G04G21                                       
  21952302.11749 115360125.05949     -5721.32049        50.000  
  23674173.16449 124408619.18049    -11330.28949        49.000  
  22518192.38349 118333899.50449     -2526.15249        50.000  
 16 04 02 14 30 49.4000000  0  3G05G04G21                                       
  21952411.03949 115360697.45349     -5726.88749        50.000  
  23674388.78149 124409752.27049    -11332.19149        49.000  
  22518240.48449 118334152.27749     -2529.75449        50.000  
 16 04 02 14 30 49.5000000  0  3G05G04G21                                       
  21952520.07049 115361270.42649     -5732.44949        50.000  
  23674604.46949 124410885.57449    -11334.15649        49.000  
  22518288.65649 118334405.42249     -2533.20749        50.000  
 16 04 02 14 30 49.6000000  0  3G05G04G21                                       
  21952629.21949 115361844.00449     -5738.60949        50.000  
  23674820.18049 124412019.12549    -11336.73049        49.000  
  22518336.91449 118334658.96949     -2537.38749        50.000  
 16 04 02 14 30 49.7000000  0  3G05G04G21                                       
  21952738.46949 115362418.10549     -5743.99649        50.000  
  23675035.92249 124413152.84449    -11338.47349        49.000  
  22518385.21949 118334912.82849     -2540.68049        50.000  
 16 04 02 14 30 49.8000000  0  3G05G04G21                                       
  21952847.84449 115362992.87149     -5750.53949        50.000  
  23675251.71949 124414286.85949    -11341.44149        49.000  
  22518433.61749 118335167.13749     -2545.05149        50.000  
 16 04 02 14 30 49.9000000  0  3G05G04G21                                       
  21952957.32049 115363568.20349     -5756.14549        50.000  
  23675467.54749 124415421.09049    -11343.41849        49.000  
  22518482.08649 118335421.81249     -2548.63749        50.000  
 16 04 02 14 30 50.0000000  0  3G05G04G21                                       
  21953066.90649 115364144.05549     -5761.32449        49.000  
  23675683.40649 124416555.48049    -11345.03149        49.000  
  22518530.61749 118335676.80149     -2551.69149        50.000  
 16 04 02 14 30 50.1000000  0  3G05G04G21                                       
  21953176.59449 115364720.46949     -5766.96949        50.000  
  23675899.31249 124417690.07049    -11347.18049        49.000  
  22518579.21149 118335932.16049     -2555.45749        50.000  
 16 04 02 14 30 50.2000000  0  3G05G04G21                                       
  21953286.39849 115365297.53149     -5773.28949        50.000  
  23676115.27349 124418824.94949    -11349.66849        49.000  
  22518627.88349 118336187.93449     -2559.56249        50.000  
 16 04 02 14 30 50.3000000  0  3G05G04G21                                       
  21953396.30549 115365875.11749     -5778.79349        49.000  
  23676331.25849 124419960.00049    -11352.00849        49.000  
  22518676.61749 118336444.03949     -2563.14149        50.000  
 16 04 02 14 30 50.4000000  0  3G05G04G21                                       
  21953506.34449 115366453.38749     -5785.46149        50.000  
  23676547.31249 124421095.35549    -11354.71949        49.000  
  22518725.44549 118336700.61349     -2567.62149        50.000  
 16 04 02 14 30 50.5000000  0  3G05G04G21                                       
  21953616.49249 115367032.19949     -5791.05149        50.000  
  23676763.39849 124422230.92249    -11356.84449        49.000  
  22518774.33649 118336957.53549     -2571.23049        50.000  
 16 04 02 14 30 50.6000000  0  3G05G04G21                                       
  21953726.75049 115367611.59449     -5796.76249        50.000  
  23676979.52349 124423366.69549    -11359.02749        49.000  
  22518823.29749 118337214.82849     -2574.78949        50.000  
 16 04 02 14 30 50.7000000  0  3G05G04G21                                       
  21953837.12549 115368191.60549     -5803.17649        50.000  
  23677195.71149 124424502.73049    -11361.82849        49.000  
  22518872.33649 118337472.53549     -2579.24249        50.000  
 16 04 02 14 30 50.8000000  0  3G05G04G21                                       
  21953947.61749 115368772.24249     -5809.25049        50.000  
  23677411.93849 124425639.02349    -11364.16449        49.000  
  22518921.45349 118337730.64849     -2583.13349        50.000  
 16 04 02 14 30 50.9000000  0  3G05G04G21                                       
  21954058.21949 115369353.44149     -5815.03949        50.000  
  23677628.21149 124426775.52349    -11366.31249        49.000  
  22518970.64149 118337989.13349     -2586.86749        50.000  
 16 04 02 14 30 51.0000000  0  3G05G04G21                                       
  21954168.93049 115369935.21949     -5820.71549        50.000  
  23677844.51649 124427912.23849    -11368.50049        49.000  
  22519019.89149 118338247.96549     -2590.39849        50.000  
 16 04 02 14 30 51.1000000  0  3G05G04G21                                       
  21954279.75049 115370517.53549     -5826.08249        50.000  
  23678060.85249 124429049.14849    -11370.37549        49.000  
  22519069.21149 118338507.16449     -2593.93849        50.000  
 16 04 02 14 30 51.2000000  0  3G05G04G21                                       
  21954390.68049 115371100.48849     -5832.35949        50.000  
  23678277.25049 124430186.33649    -11373.07449        49.000  
  22519118.60949 118338766.76249     -2597.88749        50.000  
 16 04 02 14 30 51.3000000  0  3G05G04G21                                       
  21954501.71949 115371683.99249     -5837.91049        50.000  
  23678493.69549 124431323.69949    -11374.77049        49.000  
  22519168.07849 118339026.73049     -2601.47749        50.000  
 16 04 02 14 30 51.4000000  0  3G05G04G21                                       
  21954612.85949 115372268.06249     -5843.73049        50.000  
  23678710.17249 124432461.28549    -11377.38349        49.000  
  22519217.61749 118339287.05149     -2605.34049        50.000  
 16 04 02 14 30 51.5000000  0  3G05G04G21                                       
  21954724.13349 115372852.78549     -5850.05549        50.000  
  23678926.68849 124433599.14149    -11379.74249        49.000  
  22519267.23449 118339547.80149     -2609.38749        50.000  
 16 04 02 14 30 51.6000000  0  3G05G04G21                                       
  21954835.51649 115373438.11749     -5856.43049        50.000  
  23679143.26649 124434737.27049    -11382.75449        49.000  
  22519316.94549 118339808.96949     -2613.89549        50.000  
 16 04 02 14 30 51.7000000  0  3G05G04G21                                       
  21954947.02349 115374024.05549     -5862.43049        50.000  
  23679359.89149 124435875.63749    -11384.98449        49.000  
  22519366.71949 118340070.53949     -2617.70349        50.000  
 16 04 02 14 30 51.8000000  0  3G05G04G21                                       
  21955058.64149 115374610.57449     -5868.16049        50.000  
  23679576.56249 124437014.23049    -11387.19949        49.000  
  22519416.56249 118340332.47749     -2621.41849        50.000  
 16 04 02 14 30 51.9000000  0  3G05G04G21                                       
  21955170.35949 115375197.67249     -5873.90649        50.000  
  23679793.27349 124438153.04749    -11389.51649        49.000  
  22519466.48449 118340594.80149     -2625.19149        50.000  
 16 04 02 14 30 52.0000000  0  3G05G04G21                                       
  21955282.18849 115375785.32849     -5879.35249        49.000  
  23680010.02349 124439292.05949    -11391.27749        49.000  
  22519516.46949 118340857.46949     -2628.49249        50.000  
 16 04 02 14 30 52.1000000  0  3G05G04G21                                       
  21955394.12549 115376373.58649     -5885.46549        50.000  
  23680226.82849 124440431.29749    -11393.66849        49.000  
  22519566.52349 118341120.52749     -2632.49249        50.000  
 16 04 02 14 30 52.2000000  0  3G05G04G21                                       
  21955506.17249 115376962.39849     -5890.95749        50.000  
  23680443.66449 124441570.76249    -11395.68849        49.000  
  22519616.64849 118341383.94149     -2635.95349        50.000  
 16 04 02 14 30 52.3000000  0  3G05G04G21                                       
  21955618.32049 115377551.76249     -5896.46549        50.000  
  23680660.51649 124442710.39149    -11397.68049        49.000  
  22519666.83649 118341647.69549     -2639.48049        50.000  
 16 04 02 14 30 52.4000000  0  3G05G04G21                                       
  21955730.60249 115378141.77749     -5902.85949        50.000  
  23680877.43849 124443850.32449    -11400.37149        49.000  
  22519717.11749 118341911.89549     -2643.82449        50.000  
 16 04 02 14 30 52.5000000  0  3G05G04G21                                       
  21955842.98449 115378732.35249     -5908.64849        50.000  
  23681094.39849 124444990.46149    -11402.51649        49.000  
  22519767.46149 118342176.44949     -2647.47749        50.000  
 16 04 02 14 30 52.6000000  0  3G05G04G21                                       
  21955955.46949 115379323.47749     -5914.24649        50.000  
  23681311.39149 124446130.78949    -11404.86749        49.000  
  22519817.87549 118342441.35549     -2651.18449        50.000  
 16 04 02 14 30 52.7000000  0  3G05G04G21                                       
  21956068.09449 115379915.28949     -5920.88749        50.000  
  23681528.44549 124447271.43049    -11407.53949        49.000  
  22519868.37549 118342706.73449     -2655.59449        50.000  
 16 04 02 14 30 52.8000000  0  3G05G04G21                                       
  21956180.80549 115380507.59049     -5926.09049        50.000  
  23681745.53149 124448412.21149    -11409.27049        49.000  
  22519918.92249 118342972.39549     -2658.71949        50.000  
 16 04 02 14 30 52.9000000  0  3G05G04G21                                       
  21956293.64149 115381100.54349     -5932.34049        50.000  
  23681962.66449 124449553.29349    -11411.86349        49.000  
  22519969.56249 118343238.51649     -2663.03949        50.000  
 16 04 02 14 30 53.0000000  0  3G05G04G21                                       
  21956406.58649 115381694.09449     -5938.45349        50.000  
  23682179.85249 124450694.59849    -11414.35949        49.000  
  22520020.27349 118343505.00849     -2667.01649        50.000  
 16 04 02 14 30 53.1000000  0  3G05G04G21                                       
  21956519.64849 115382288.21149     -5944.19149        50.000  
  23682397.07049 124451836.12149    -11416.56249        49.000  
  22520071.05549 118343771.86349     -2670.59449        50.000  
 16 04 02 14 30 53.2000000  0  3G05G04G21                                       
  21956632.81249 115382882.90249     -5949.73849        50.000  
  23682614.33649 124452977.85549    -11418.53949        49.000  
  22520121.90649 118344039.10549     -2674.25049        50.000  
 16 04 02 14 30 53.3000000  0  3G05G04G21                                       
  21956746.09449 115383478.21949     -5956.23849        50.000  
  23682831.66449 124454119.85949    -11421.46149        49.000  
  22520172.83649 118344306.75449     -2678.63349        50.000  
 16 04 02 14 30 53.4000000  0  3G05G04G21                                       
  21956859.49249 115384074.13749     -5961.96949        50.000  
  23683049.03149 124455262.10249    -11423.59849        49.000  
  22520223.84449 118344574.79749     -2682.30549        50.000  
 16 04 02 14 30 53.5000000  0  3G05G04G21                                       
  21956973.00049 115384670.60249     -5967.52049        50.000  
  23683266.41449 124456404.53549    -11425.50449        49.000  
  22520274.92249 118344843.18849     -2685.76649        50.000  
 16 04 02 14 30 53.6000000  0  3G05G04G21                                       
  21957086.60249 115385267.60249     -5972.80949        50.000  
  23683483.84449 124457547.14549    -11427.37149        49.000  
  22520326.06249 118345111.90649     -2689.11749        50.000  
 16 04 02 14 30 53.7000000  0  3G05G04G21                                       
  21957200.32049 115385865.23049     -5979.02049        50.000  
  23683701.32849 124458690.00849    -11429.78149        49.000  
  22520377.28149 118345381.05149     -2693.30149        50.000  
 16 04 02 14 30 53.8000000  0  3G05G04G21                                       
  21957314.16449 115386463.48049     -5985.55949        50.000  
  23683918.86749 124459833.16849    -11432.98849        49.000  
  22520428.57849 118345650.60549     -2697.72749        50.000  
 16 04 02 14 30 53.9000000  0  3G05G04G21                                       
  21957428.11749 115387062.34049     -5991.55949        50.000  
  23684136.44549 124460976.54749    -11435.25849        49.000  
  22520479.95349 118345920.56249     -2701.63749        50.000  
 16 04 02 14 30 54.0000000  0  3G05G04G21                                       
  21957542.18049 115387661.73849     -5996.75849        50.000  
  23684354.05549 124462120.11749    -11436.77749        49.000  
  22520531.39149 118346190.85949     -2704.73849        50.000  
 16 04 02 14 30 54.1000000  0  3G05G04G21                                       
  21957656.35249 115388261.66449     -6002.03149        50.000  
  23684571.70349 124463263.85549    -11438.62949        49.000  
  22520582.88349 118346461.47749     -2708.10949        50.000  
 16 04 02 14 30 54.2000000  0  3G05G04G21                                       
  21957770.64149 115388862.25049     -6008.64549        50.000  
  23684789.40649 124464407.89549    -11441.48849        49.000  
  22520634.46949 118346732.54349     -2712.52749        50.000  
 16 04 02 14 30 54.3000000  0  3G05G04G21                                       
  21957885.03149 115389463.39149     -6014.27749        50.000  
  23685007.14849 124465552.12949    -11443.66449        49.000  
  22520686.11749 118347003.96149     -2716.11349        50.000  
 16 04 02 14 30 54.4000000  0  3G05G04G21                                       
  21957999.53149 115390065.09449     -6019.77749        50.000  
  23685224.93049 124466696.56649    -11445.43449        49.000  
  22520737.83649 118347275.73449     -2719.55949        50.000  
 16 04 02 14 30 54.5000000  0  3G05G04G21                                       
  21958114.14849 115390667.39149     -6025.98449        50.000  
  23685442.75849 124467841.23449    -11448.12949        49.000  
  22520789.62549 118347547.89549     -2723.64849        50.000  
 16 04 02 14 30 54.6000000  0  3G05G04G21                                       
  21958228.87549 115391270.28949     -6032.03149        50.000  
  23685660.63349 124468986.15649    -11450.59049        49.000  
  22520841.49249 118347820.46549     -2727.67649        50.000  
 16 04 02 14 30 54.7000000  0  3G05G04G21                                       
  21958343.72749 115391873.79349     -6037.99649        50.000  
  23685878.53149 124470131.31649    -11452.98449        49.000  
  22520893.43849 118348093.42649     -2731.71149        50.000  
 16 04 02 14 30 54.8000000  0  3G05G04G21                                       
  21958458.68849 115392477.93049     -6044.34849        50.000  
  23686096.50049 124471276.75049    -11455.71149        49.000  
  22520945.46149 118348366.80949     -2735.79749        50.000  
 16 04 02 14 30 54.9000000  0  3G05G04G21                                       
  21958573.75849 115393082.63749     -6049.93849        50.000  
  23686314.50049 124472422.39549    -11457.80949        49.000  
  22520997.56249 118348640.57449     -2739.57849        50.000  
 16 04 02 14 30 55.0000000  0  3G05G04G21                                       
  21958688.93049 115393687.85949     -6054.96549        50.000  
  23686532.53949 124473568.20349    -11459.04349        49.000  
  22521049.71149 118348914.63349     -2742.44549        50.000  
 16 04 02 14 30 55.1000000  0  3G05G04G21                                       
  21958804.21949 115394293.75049     -6061.85949        50.000  
  23686750.62549 124474714.31649    -11462.55149        49.000  
  22521101.95349 118349189.15249     -2747.24649        50.000  
 16 04 02 14 30 55.2000000  0  3G05G04G21                                       
  21958919.63349 115394900.24649     -6067.85549        50.000  
  23686968.77349 124475860.68049    -11464.87549        49.000  
  22521154.27349 118349464.09049     -2751.37149        50.000  
 16 04 02 14 30 55.3000000  0  3G05G04G21                                       
  21959035.14849 115395507.29749     -6073.45349        50.000  
  23687186.96149 124477007.22749    -11466.96949        49.000  
  22521206.64849 118349739.35249     -2754.64549        50.000  
 16 04 02 14 30 55.4000000  0  3G05G04G21                                       
  21959150.78949 115396114.96949     -6079.61749        50.000  
  23687405.18849 124478154.03949    -11469.43049        49.000  
  22521259.11749 118350015.05149     -2758.87149        50.000  
 16 04 02 14 30 55.5000000  0  3G05G04G21                                       
  21959266.53949 115396723.30949     -6086.30549        50.000  
  23687623.48449 124479301.16849    -11472.51649        49.000  
  22521311.66449 118350291.20749     -2763.46549        50.000  
 16 04 02 14 30 55.6000000  0  3G05G04G21                                       
  21959382.39149 115397332.09849     -6090.78949        50.000  
  23687841.78949 124480448.38349    -11473.41849        49.000  
  22521364.26649 118350567.61349     -2766.01649        50.000  
 16 04 02 14 30 55.7000000  0  3G05G04G21                                       
  21959498.37549 115397941.56249     -6097.51649        50.000  
  23688060.17249 124481595.91849    -11476.57849        49.000  
  22521416.95349 118350844.48049     -2770.59049        50.000  
 16 04 02 14 30 55.8000000  0  3G05G04G21                                       
  21959614.46949 115398551.63749     -6103.85549        50.000  
  23688278.58649 124482743.69549    -11479.31649        49.000  
  22521469.71949 118351121.76249     -2774.98449        50.000  
 16 04 02 14 30 55.9000000  0  3G05G04G21                                       
  21959730.67249 115399162.26649     -6109.12549        50.000  
  23688497.06249 124483891.66849    -11480.92249        49.000  
  22521522.54749 118351399.37949     -2778.14549        50.000  
 16 04 02 14 30 56.0000000  0  3G05G04G21                                       
  21959846.97749 115399773.44549     -6114.65249        50.000  
  23688715.55549 124485039.84049    -11482.83249        49.000  
  22521575.45349 118351677.34849     -2781.49649        50.000  
 16 04 02 14 30 56.1000000  0  3G05G04G21                                       
  21959963.38349 115400385.17249     -6120.03949        50.000  
  23688934.07049 124486188.20349    -11484.74249        49.000  
  22521628.41449 118351955.66449     -2785.02749        50.000  
 16 04 02 14 30 56.2000000  0  3G05G04G21                                       
  21960079.89149 115400997.43449     -6125.52749        50.000  
  23689152.62549 124487336.74249    -11486.76649        49.000  
  22521681.44549 118352234.31249     -2788.49649        50.000  
 16 04 02 14 30 56.3000000  0  3G05G04G21                                       
  21960196.53149 115401610.37949     -6132.27749        50.000  
  23689371.22749 124488485.59449    -11489.78949        49.000  
  22521734.56249 118352513.43049     -2793.13749        50.000  
 16 04 02 14 30 56.4000000  0  3G05G04G21                                       
  21960313.28149 115402223.89149     -6138.02349        50.000  
  23689589.88349 124489634.66049    -11491.87949        49.000  
  22521787.74249 118352792.91849     -2796.76649        50.000  
 16 04 02 14 30 56.5000000  0  3G05G04G21                                       
  21960430.12549 115402837.93049     -6143.30549        50.000  
  23689808.57049 124490783.89149    -11493.64149        49.000  
  22521840.99249 118353072.71549     -2799.98049        50.000  
 16 04 02 14 30 56.6000000  0  3G05G04G21                                       
  21960547.09449 115403452.59849     -6149.51649        50.000  
  23690027.31249 124491933.38749    -11496.17649        49.000  
  22521894.31249 118353352.94149     -2804.09049        50.000  
 16 04 02 14 30 56.7000000  0  3G05G04G21                                       
  21960664.17249 115404067.88349     -6155.77049        50.000  
  23690246.10949 124493083.16049    -11498.78549        49.000  
  22521947.71949 118353633.58649     -2808.30149        50.000  
 16 04 02 14 30 56.8000000  0  3G05G04G21                                       
  21960781.35249 115404683.69149     -6161.02349        50.000  
  23690464.93849 124494233.09449    -11500.75449        49.000  
  22522001.18049 118353914.55949     -2811.77049        50.000  
 16 04 02 14 30 56.9000000  0  3G05G04G21                                       
  21960898.65649 115405300.14549     -6167.40249        50.000  
  23690683.82049 124495383.30149    -11503.37949        49.000  
  22522054.72749 118354195.95349     -2815.82449        50.000  
 16 04 02 14 30 57.0000000  0  3G05G04G21                                       
  21961016.07849 115405917.17249     -6173.16049        50.000  
  23690902.73449 124496533.72749    -11505.48849        49.000  
  22522108.34449 118354477.73049     -2819.71149        50.000  
 16 04 02 14 30 57.1000000  0  3G05G04G21                                       
  21961133.60249 115406534.77049     -6178.95749        50.000  
  23691121.70349 124497684.36349    -11507.84049        49.000  
  22522162.03149 118354759.85949     -2823.44149        50.000  
 16 04 02 14 30 57.2000000  0  3G05G04G21                                       
  21961251.25049 115407153.00849     -6185.22349        50.000  
  23691340.71149 124498835.28549    -11510.37949        49.000  
  22522215.80549 118355042.43849     -2827.69549        50.000  
 16 04 02 14 30 57.3000000  0  3G05G04G21                                       
  21961369.00049 115407771.77349     -6190.64149        50.000  
  23691559.75049 124499986.37149    -11512.23049        49.000  
  22522269.64149 118355325.32449     -2830.99649        50.000  
 16 04 02 14 30 57.4000000  0  3G05G04G21                                       
  21961486.85949 115408391.13349     -6196.41049        50.000  
  23691778.83649 124501137.69949    -11514.46149        49.000  
  22522323.53949 118355608.62549     -2834.85249        50.000  
 16 04 02 14 30 57.5000000  0  3G05G04G21                                       
  21961604.84449 115409011.10549     -6202.62949        50.000  
  23691997.99249 124502289.27749    -11517.18049        49.000  
  22522377.52349 118355892.30549     -2838.87549        50.000  
 16 04 02 14 30 57.6000000  0  3G05G04G21                                       
  21961722.93849 115409631.69549     -6208.74649        50.000  
  23692217.17249 124503441.10249    -11519.44149        49.000  
  22522431.57849 118356176.41049     -2842.98049        50.000  
 16 04 02 14 30 57.7000000  0  3G05G04G21                                       
  21961841.14149 115410252.84049     -6214.37549        50.000  
  23692436.39149 124504593.14549    -11521.62149        49.000  
  22522485.71149 118356460.86749     -2846.52349        50.000  
 16 04 02 14 30 57.8000000  0  3G05G04G21                                       
  21961959.44549 115410874.54749     -6219.87549        50.000  
  23692655.65649 124505745.37949    -11523.54749        49.000  
  22522539.91449 118356745.69149     -2850.10949        50.000  
 16 04 02 14 30 57.9000000  0  3G05G04G21                                       
  21962077.87549 115411496.89549     -6226.45749        50.000  
  23692874.98449 124506897.89149    -11526.42249        49.000  
  22522594.18849 118357030.92649     -2854.40249        50.000  
 16 04 02 14 30 58.0000000  0  3G05G04G21                                       
  21962196.40649 115412119.78149     -6231.89149        50.000  
  23693094.33649 124508050.59049    -11528.33249        49.000  
  22522648.53949 118357316.51649     -2857.94949        50.000  
 16 04 02 14 30 58.1000000  0  3G05G04G21                                       
  21962315.06249 115412743.31649     -6238.32049        50.000  
  23693313.74249 124509203.57449    -11531.14149        49.000  
  22522702.96149 118357602.53949     -2862.30949        50.000  
 16 04 02 14 30 58.2000000  0  3G05G04G21                                       
  21962433.82049 115413367.38749     -6243.56249        50.000  
  23693533.18049 124510356.74249    -11533.01649        49.000  
  22522757.46149 118357888.90649     -2865.65249        50.000  
 16 04 02 14 30 58.3000000  0  3G05G04G21                                       
  21962552.68849 115413992.02749     -6249.22749        50.000  
  23693752.64149 124511510.12149    -11534.96149        49.000  
  22522812.02349 118358175.63349     -2869.20749        50.000  
 16 04 02 14 30 58.4000000  0  3G05G04G21                                       
  21962671.64849 115414617.17649     -6254.07449        50.000  
  23693972.14849 124512663.62949    -11536.17649        49.000  
  22522866.63349 118358462.66049     -2871.95749        50.000  
 16 04 02 14 30 58.5000000  0  3G05G04G21                                       
  21962790.73449 115415242.99249     -6261.02049        50.000  
  23694191.71149 124513817.46949    -11539.62949        49.000  
  22522921.34449 118358750.15249     -2876.87149        50.000  
 16 04 02 14 30 58.6000000  0  3G05G04G21                                       
  21962909.93849 115415869.41849     -6267.31649        50.000  
  23694411.32849 124514971.55149    -11542.19149        49.000  
  22522976.12549 118359038.05549     -2881.05949        50.000  
 16 04 02 14 30 58.7000000  0  3G05G04G21                                       
  21963029.25049 115416496.38749     -6272.44149        50.000  
  23694630.97749 124516125.82049    -11543.80149        49.000  
  22523030.96949 118359326.28549     -2884.18849        50.000  
 16 04 02 14 30 58.8000000  0  3G05G04G21                                       
  21963148.67249 115417123.94949     -6278.58249        50.000  
  23694850.66449 124517280.32049    -11546.43049        49.000  
  22523085.89849 118359614.91849     -2888.30149        50.000  
 16 04 02 14 30 58.9000000  0  3G05G04G21                                       
  21963268.18849 115417752.03549     -6283.57049        50.000  
  23695070.39149 124518434.98449    -11547.68049        49.000  
  22523140.88349 118359903.86349     -2891.19149        50.000  
 16 04 02 14 30 59.0000000  0  3G05G04G21                                       
  21963387.82049 115418380.69149     -6289.55549        50.000  
  23695290.15649 124519589.86349    -11550.13349        49.000  
  22523195.94549 118360193.17649     -2895.10249        50.000  
 16 04 02 14 30 59.1000000  0  3G05G04G21                                       
  21963507.57049 115419009.98849     -6295.82849        50.000  
  23695509.98449 124520745.01649    -11552.75049        49.000  
  22523251.07849 118360482.92249     -2899.40649        50.000  
 16 04 02 14 30 59.2000000  0  3G05G04G21                                       
  21963627.43049 115419639.87149     -6301.92649        50.000  
  23695729.85249 124521900.40249    -11555.39849        49.000  
  22523306.28949 118360773.05149     -2903.53149        50.000  
 16 04 02 14 30 59.3000000  0  3G05G04G21                                       
  21963747.41449 115420270.36349     -6307.82449        50.000  
  23695949.77349 124523056.03549    -11557.53149        49.000  
  22523361.57849 118361063.58649     -2907.25449        50.000  
 16 04 02 14 30 59.4000000  0  3G05G04G21                                       
