     2.10           OBSERVATION DATA    G (GPS)             RINEX VERSION / TYPE
Convert v1.8.0                          09-Jun-2016 14:21   PGM / RUN BY / DATE 
Signal Strength values S1,S2 are in dBHz                    COMMENT             
                                                            MARKER NAME         
                                                            MARKER NUMBER       
                                                            OBSERVER / AGENCY   
                    NovAtel GPSCard                         REC # / TYPE / VERS 
                                                            ANT # / TYPE        
0.0000        0.0000        0.0000                          APPROX POSITION XYZ 
        0.0000        0.0000        0.0000                  ANTENNA: DELTA H/E/N
     1     0                                                WAVELENGTH FACT L1/2
     1     0     2   G04   G23                              WAVELENGTH FACT L1/2
                                                            COMMENT             
                                                            COMMENT             
                                                            COMMENT             
                                                            COMMENT             
                                                            COMMENT             
                                                            COMMENT             
     4    C1    L1    D1    S1                              # / TYPES OF OBSERV 
     0.100                                                  INTERVAL            
  2016    04    02    12    40    36.8000000    GPS         TIME OF FIRST OBS   
  2016    04    02    12    42     2.3000000    GPS         TIME OF LAST OBS    
Leap Seconds Unknown                                        COMMENT             
                                                            END OF HEADER       
 16 04 02 12 40 36.8000000  0  1G04                                             
  21383803.26649 112372644.10559     -7627.94549        50.000  
 16 04 02 12 40 36.9000000  0  1G04                                             
  21383948.47749 112373407.21149     -7633.20349        50.000  
 16 04 02 12 40 37.0000000  0  2G04G23                                          
  21384093.78149 112374170.76249     -7637.83649        50.000  
  22523787.18849 118363300.46959      2245.22749        50.000  
 16 04 02 12 40 37.1000000  0  2G04G23                                          
  21384239.16449 112374934.73449     -7641.86349        50.000  
  22523744.50049 118363076.16849      2240.16049        50.000  
 16 04 02 12 40 37.2000000  0  2G04G23                                          
  21384384.64149 112375699.25849     -7647.51649        50.000  
  22523701.94549 118362852.52049      2233.44949        50.000  
 16 04 02 12 40 37.3000000  0  2G04G23                                          
  21384530.22749 112376464.30549     -7652.91849        50.000  
  22523659.50849 118362629.51649      2226.89549        50.000  
 16 04 02 12 40 37.4000000  0  2G04G23                                          
  21384675.92249 112377229.89549     -7658.41449        50.000  
  22523617.17249 118362407.14849      2220.44149        50.000  
 16 04 02 12 40 37.5000000  0  2G04G23                                          
  21384821.71149 112377996.01649     -7663.65249        50.000  
  22523574.98449 118362185.41849      2214.05949        50.000  
 16 04 02 12 40 37.6000000  0  2G04G23                                          
  21384967.59449 112378762.59849     -7668.20749        50.000  
  22523532.87549 118361964.26649      2208.36749        50.000  
 16 04 02 12 40 37.7000000  0  2G04G23                                          
  21385113.56249 112379529.67649     -7673.02749        50.000  
  22523490.89849 118361743.70749      2202.56249        50.000  
 16 04 02 12 40 37.8000000  0  2G04G23                                          
  21385259.64149 112380297.32849     -7678.80149        50.000  
  22523449.05549 118361523.82049      2195.74249        50.000  
 16 04 02 12 40 37.9000000  0  2G04G23                                          
  21385405.80549 112381065.40649     -7683.20749        50.000  
  22523407.32049 118361304.48449      2190.24249        50.000  
 16 04 02 12 40 38.0000000  0  2G04G23                                          
  21385552.08649 112381834.04349     -7688.64849        50.000  
  22523365.71949 118361085.80149      2183.76249        50.000  
 16 04 02 12 40 38.1000000  0  2G04G23                                          
  21385698.44549 112382603.18449     -7693.88749        50.000  
  22523324.21949 118360867.73049      2177.46149        50.000  
 16 04 02 12 40 38.2000000  0  2G04G23                                          
  21385844.91449 112383372.78549     -7698.39149        50.000  
  22523282.81249 118360650.22349      2172.03949        50.000  
 16 04 02 12 40 38.3000000  0  2G04G23                                          
  21385991.47749 112384142.98049     -7704.45349        50.000  
  22523241.55549 118360433.41849      2164.80149        50.000  
 16 04 02 12 40 38.4000000  0  2G04G23                                          
  21386138.14149 112384913.71149     -7709.79349        50.000  
  22523200.40649 118360217.26649      2158.38349        50.000  
 16 04 02 12 40 38.5000000  0  2G04G23                                          
  21386284.89149 112385684.89549     -7714.32849        50.000  
  22523159.38349 118360001.66049      2152.81649        50.000  
 16 04 02 12 40 38.6000000  0  2G04G23                                          
  21386431.72749 112386456.52349     -7718.59449        50.000  
  22523118.45349 118359786.60949      2147.50049        50.000  
 16 04 02 12 40 38.7000000  0  2G04G23                                          
  21386578.66449 112387228.71549     -7724.13349        50.000  
  22523077.66449 118359572.23449      2140.73849        50.000  
 16 04 02 12 40 38.8000000  0  2G04G23                                          
  21386725.69549 112388001.38349     -7729.10949        50.000  
  22523036.97749 118359358.42649      2134.87949        50.000  
 16 04 02 12 40 38.9000000  0  2G04G23                                          
  21386872.82849 112388774.57449     -7734.32449        50.000  
  22522996.41449 118359145.27349      2128.43449        50.000  
 16 04 02 12 40 39.0000000  0  2G04G23                                          
  21387020.05549 112389548.25449     -7739.17249        50.000  
  22522955.95349 118358932.69149      2122.68849        50.000  
 16 04 02 12 40 39.1000000  0  2G04G23                                          
  21387167.36749 112390322.40649     -7743.87949        50.000  
  22522915.60949 118358720.70349      2116.86349        50.000  
 16 04 02 12 40 39.2000000  0  2G04G23                                          
  21387314.77349 112391097.07849     -7749.03149        49.000  
  22522875.38349 118358509.33249      2110.57049        50.000  
 16 04 02 12 40 39.3000000  0  2G04G23                                          
  21387462.28949 112391872.25049     -7754.18849        49.000  
  22522835.27349 118358298.56649      2104.43849        50.000  
 16 04 02 12 40 39.4000000  0  2G04G23                                          
  21387609.88349 112392647.97749     -7759.82849        49.000  
  22522795.28949 118358088.47349      2097.61749        50.000  
 16 04 02 12 40 39.5000000  0  2G04G23                                          
  21387757.60249 112393424.22349     -7764.87949        49.000  
  22522755.43049 118357879.00449      2091.52349        50.000  
 16 04 02 12 40 39.6000000  0  2G04G23                                          
  21387905.40649 112394200.90249     -7769.17649        49.000  
  22522715.65649 118357670.06649      2086.12949        50.000  
 16 04 02 12 40 39.7000000  0  2G04G23                                          
  21388053.30549 112394978.10949     -7774.32449        49.000  
  22522676.02349 118357461.76649      2080.00049        50.000  
 16 04 02 12 40 39.8000000  0  2G04G23                                          
  21388201.31249 112395755.89549     -7780.33649        49.000  
  22522636.50849 118357254.15649      2072.85249        50.000  
 16 04 02 12 40 39.9000000  0  2G04G23                                          
  21388349.41449 112396534.15649     -7785.08649        49.000  
  22522597.11749 118357047.12949      2066.95349        50.000  
 16 04 02 12 40 40.0000000  0  2G04G23                                          
  21388497.60249 112397312.89149     -7789.73849        49.000  
  22522557.82849 118356840.66849      2061.46549        50.000  
 16 04 02 12 40 40.1000000  0  2G04G23                                          
  21388645.88349 112398092.10549     -7794.45349        49.000  
  22522518.64849 118356634.80949      2055.58649        50.000  
 16 04 02 12 40 40.2000000  0  2G04G23                                          
  21388794.27349 112398871.85249     -7799.77049        49.000  
  22522479.59449 118356429.57849      2049.21949        50.000  
 16 04 02 12 40 40.3000000  0  2G04G23                                          
  21388942.75049 112399652.12149     -7805.06649        49.000  
  22522440.66449 118356224.98849      2042.75849        50.000  
 16 04 02 12 40 40.4000000  0  2G04G23                                          
  21389091.32049 112400432.87149     -7810.05149        49.000  
  22522401.85249 118356020.98849      2036.64149        50.000  
 16 04 02 12 40 40.5000000  0  2G04G23                                          
  21389240.00049 112401214.18049     -7815.60949        49.000  
  22522363.14849 118355817.64149      2030.16849        50.000  
 16 04 02 12 40 40.6000000  0  2G04G23                                          
  21389388.77349 112401995.99249     -7820.44149        49.000  
  22522324.57049 118355614.90249      2024.40649        50.000  
 16 04 02 12 40 40.7000000  0  2G04G23                                          
  21389537.61749 112402778.19549     -7824.50849        49.000  
  22522286.09449 118355412.67649      2019.09849        50.000  
 16 04 02 12 40 40.8000000  0  2G04G23                                          
  21389686.57049 112403560.98049     -7830.16849        49.000  
  22522247.72749 118355211.13749      2012.38749        50.000  
 16 04 02 12 40 40.9000000  0  2G04G23                                          
  21389835.63349 112404344.28149     -7835.38749        49.000  
  22522209.49249 118355010.20749      2006.21949        50.000  
 16 04 02 12 40 41.0000000  0  2G04G23                                          
  21389984.78149 112405128.06249     -7840.46149        49.000  
  22522171.37549 118354809.89149      1999.76249        50.000  
 16 04 02 12 40 41.1000000  0  2G04G23                                          
  21390134.03149 112405912.35949     -7845.18449        49.000  
  22522133.36749 118354610.16849      1994.24249        50.000  
 16 04 02 12 40 41.2000000  0  2G04G23                                          
  21390283.35949 112406697.08249     -7849.57049        49.000  
  22522095.46149 118354410.99249      1988.64149        50.000  
 16 04 02 12 40 41.3000000  0  2G04G23                                          
  21390432.79749 112407482.35549     -7855.14849        49.000  
  22522057.68849 118354212.46549      1982.11349        50.000  
 16 04 02 12 40 41.4000000  0  2G04G23                                          
  21390582.32049 112408268.14549     -7860.14549        49.000  
  22522020.02349 118354014.57049      1976.01249        50.000  
 16 04 02 12 40 41.5000000  0  2G04G23                                          
  21390731.93849 112409054.41449     -7865.19549        49.000  
  22521982.47749 118353817.27349      1969.72349        50.000  
 16 04 02 12 40 41.6000000  0  2G04G23                                          
  21390881.66449 112409841.20749     -7870.24249        49.000  
  22521945.05549 118353620.59049      1963.75449        50.000  
 16 04 02 12 40 41.7000000  0  2G04G23                                          
  21391031.48449 112410628.50049     -7875.23449        49.000  
  22521907.74249 118353424.51249      1957.81649        50.000  
 16 04 02 12 40 41.8000000  0  2G04G23                                          
  21391181.39149 112411416.23849     -7879.82449        49.000  
  22521870.53949 118353229.00449      1952.04349        50.000  
 16 04 02 12 40 41.9000000  0  2G04G23                                          
  21391331.39149 112412204.50049     -7884.93449        49.000  
  22521833.46149 118353034.12149      1945.73049        50.000  
 16 04 02 12 40 42.0000000  0  2G04G23                                          
  21391481.49249 112412993.29749     -7890.28549        49.000  
  22521796.50049 118352839.87549      1939.36749        50.000  
 16 04 02 12 40 42.1000000  0  2G04G23                                          
  21391631.69549 112413782.62949     -7895.76249        49.000  
  22521759.65649 118352646.27349      1932.75849        50.000  
 16 04 02 12 40 42.2000000  0  2G04G23                                          
  21391781.99249 112414572.38749     -7899.92249        49.000  
  22521722.91449 118352453.20349      1927.59449        50.000  
 16 04 02 12 40 42.3000000  0  2G04G23                                          
  21391932.37549 112415362.65249     -7904.92649        49.000  
  22521686.28949 118352260.75449      1921.43849        50.000  
 16 04 02 12 40 42.4000000  0  2G04G23                                          
  21392082.86749 112416153.45349     -7910.28149        49.000  
  22521649.78949 118352068.94149      1915.09449        50.000  
 16 04 02 12 40 42.5000000  0  2G04G23                                          
  21392233.44549 112416944.73049     -7915.22749        49.000  
  22521613.40649 118351877.71949      1909.05149        50.000  
 16 04 02 12 40 42.6000000  0  2G04G23                                          
  21392384.11749 112417736.49249     -7920.08249        49.000  
  22521577.11749 118351687.07849      1903.20349        50.000  
 16 04 02 12 40 42.7000000  0  2G04G23                                          
  21392534.89149 112418528.80949     -7925.51249        49.000  
  22521540.96949 118351497.11749      1896.54749        50.000  
 16 04 02 12 40 42.8000000  0  2G04G23                                          
  21392685.75049 112419321.59049     -7930.19549        49.000  
  22521504.92249 118351307.71549      1890.93849        50.000  
 16 04 02 12 40 42.9000000  0  2G04G23                                          
  21392836.70349 112420114.88349     -7935.32049        49.000  
  22521468.99249 118351118.93449      1884.71549        50.000  
 16 04 02 12 40 43.0000000  0  2G04G23                                          
  21392987.76649 112420908.69549     -7940.56249        49.000  
  22521433.20349 118350930.79349      1878.21149        50.000  
 16 04 02 12 40 43.1000000  0  2G04G23                                          
  21393138.91449 112421702.95749     -7944.96549        49.000  
  22521397.50049 118350743.19549      1872.80149        50.000  
 16 04 02 12 40 43.2000000  0  2G04G23                                          
  21393290.14849 112422497.75049     -7950.24249        49.000  
  22521361.92249 118350556.23849      1866.42249        50.000  
 16 04 02 12 40 43.3000000  0  2G04G23                                          
  21393441.48449 112423293.05549     -7955.53549        49.000  
  22521326.46149 118350369.89849      1860.21949        50.000  
 16 04 02 12 40 43.4000000  0  2G04G23                                          
  21393592.93849 112424088.82849     -7960.12149        49.000  
  22521291.11749 118350184.14549      1854.37149        50.000  
 16 04 02 12 40 43.5000000  0  2G04G23                                          
  21393744.46149 112424885.10949     -7965.12949        49.000  
  22521255.89149 118349999.00449      1848.32049        50.000  
 16 04 02 12 40 43.6000000  0  2G04G23                                          
  21393896.10249 112425681.94949     -7970.88349        49.000  
  22521220.77349 118349814.52349      1841.60249        50.000  
 16 04 02 12 40 43.7000000  0  2G04G23                                          
  21394047.83649 112426479.30149     -7976.05149        49.000  
  22521185.78949 118349630.66449      1835.35549        50.000  
 16 04 02 12 40 43.8000000  0  2G04G23                                          
  21394199.66449 112427277.16449     -7981.11749        49.000  
  22521150.93849 118349447.43449      1829.11749        50.000  
 16 04 02 12 40 43.9000000  0  2G04G23                                          
  21394351.59449 112428075.53949     -7986.12549        49.000  
  22521116.18049 118349264.81249      1823.12949        50.000  
 16 04 02 12 40 44.0000000  0  2G04G23                                          
  21394503.60949 112428874.42649     -7991.31649        49.000  
  22521081.55549 118349082.81649      1816.68049        50.000  
 16 04 02 12 40 44.1000000  0  2G04G23                                          
  21394655.73449 112429673.82849     -7996.41849        49.000  
  22521047.03949 118348901.44149      1810.69949        50.000  
 16 04 02 12 40 44.2000000  0  2G04G23                                          
  21394807.93849 112430473.70749     -8001.21149        49.000  
  22521012.64149 118348720.65649      1804.74249        50.000  
 16 04 02 12 40 44.3000000  0  2G04G23                                          
  21394960.25049 112431274.09049     -8006.13749        49.000  
  22520978.35949 118348540.48449      1798.67249        50.000  
 16 04 02 12 40 44.4000000  0  2G04G23                                          
  21395112.64849 112432074.96549     -8011.03149        49.000  
  22520944.18049 118348360.89849      1792.77749        50.000  
 16 04 02 12 40 44.5000000  0  2G04G23                                          
  21395265.12549 112432876.23049     -8014.91849        49.000  
  22520910.10949 118348181.83249      1787.67249        50.000  
 16 04 02 12 40 44.6000000  0  2G04G23                                          
  21395417.71149 112433678.09849     -8020.89549        49.000  
  22520876.16449 118348003.46149      1780.67249        50.000  
 16 04 02 12 40 44.7000000  0  2G04G23                                          
  21395570.39849 112434480.45749     -8025.94949        49.000  
  22520842.33649 118347825.69149      1774.57849        50.000  
 16 04 02 12 40 44.8000000  0  2G04G23                                          
  21395723.18049 112435283.27349     -8030.55149        49.000  
  22520808.62549 118347648.49649      1768.76649        50.000  
 16 04 02 12 40 44.9000000  0  2G04G23                                          
  21395876.07049 112436086.71149     -8036.84049        49.000  
  22520775.03949 118347472.02049      1761.61349        50.000  
 16 04 02 12 40 45.0000000  0  2G04G23                                          
  21396029.04749 112436890.57849     -8041.18849        49.000  
  22520741.54749 118347296.08249      1756.08649        50.000  
 16 04 02 12 40 45.1000000  0  2G04G23                                          
  21396182.11749 112437694.97349     -8046.27349        49.000  
  22520708.19549 118347120.79349      1749.82049        50.000  
 16 04 02 12 40 45.2000000  0  2G04G23                                          
  21396335.28949 112438499.89849     -8051.66049        49.000  
  22520674.93849 118346946.13349      1743.39149        50.000  
 16 04 02 12 40 45.3000000  0  2G04G23                                          
  21396488.55549 112439305.30149     -8056.56649        49.000  
  22520641.81249 118346772.06249      1737.43449        50.000  
 16 04 02 12 40 45.4000000  0  2G04G23                                          
  21396641.91449 112440111.19949     -8061.12149        49.000  
  22520608.79749 118346598.59449      1731.75049        50.000  
 16 04 02 12 40 45.5000000  0  2G04G23                                          
  21396795.35249 112440917.53949     -8065.62149        49.000  
  22520575.89149 118346425.66849      1726.23449        50.000  
 16 04 02 12 40 45.6000000  0  2G04G23                                          
  21396948.89149 112441724.38349     -8070.74249        49.000  
  22520543.10249 118346253.37549      1719.98049        50.000  
 16 04 02 12 40 45.7000000  0  2G04G23                                          
  21397102.52349 112442531.73849     -8075.79349        49.000  
  22520510.43049 118346081.68449      1713.86349        50.000  
 16 04 02 12 40 45.8000000  0  2G04G23                                          
  21397256.25049 112443339.62149     -8081.34049        49.000  
  22520477.87549 118345910.63749      1707.21949        50.000  
 16 04 02 12 40 45.9000000  0  2G04G23                                          
  21397410.09449 112444148.05149     -8086.68849        49.000  
  22520445.44549 118345740.23449      1700.86349        50.000  
 16 04 02 12 40 46.0000000  0  2G04G23                                          
  21397564.02349 112444956.96549     -8091.60949        49.000  
  22520413.14849 118345570.44549      1694.73449        50.000  
 16 04 02 12 40 46.1000000  0  2G04G23                                          
  21397718.04749 112445766.38349     -8096.71549        49.000  
  22520380.95349 118345401.25449      1688.65249        50.000  
 16 04 02 12 40 46.2000000  0  2G04G23                                          
  21397872.16449 112446576.27349     -8101.27349        49.000  
  22520348.86749 118345232.65249      1682.98449        50.000  
 16 04 02 12 40 46.3000000  0  2G04G23                                          
  21398026.38349 112447386.67249     -8106.37549        49.000  
  22520316.89849 118345064.66049      1676.69549        50.000  
 16 04 02 12 40 46.4000000  0  2G04G23                                          
  21398180.71149 112448197.65649     -8112.30549        49.000  
  22520285.06249 118344897.35949      1669.80949        50.000  
 16 04 02 12 40 46.5000000  0  2G04G23                                          
  21398335.11749 112449009.05549     -8116.36749        49.000  
  22520253.32849 118344730.59449      1664.62149        50.000  
 16 04 02 12 40 46.6000000  0  2G04G23                                          
  21398489.61749 112449820.93049     -8120.96149        49.000  
  22520221.71149 118344564.41049      1658.82049        50.000  
 16 04 02 12 40 46.7000000  0  2G04G23                                          
  21398644.22749 112450633.39149     -8126.98849        49.000  
  22520190.21949 118344398.91049      1651.85549        50.000  
 16 04 02 12 40 46.8000000  0  2G04G23                                          
  21398798.93849 112451446.34049     -8132.04749        49.000  
  22520158.82849 118344234.02349      1645.53149        50.000  
 16 04 02 12 40 46.9000000  0  2G04G23                                          
  21398953.74249 112452259.81249     -8137.04349        49.000  
  22520127.57049 118344069.75849      1639.63749        50.000  
 16 04 02 12 40 47.0000000  0  2G04G23                                          
  21399108.61749 112453073.70349     -8141.37549        49.000  
  22520096.40649 118343906.02749      1634.08249        50.000  
 16 04 02 12 40 47.1000000  0  2G04G23                                          
  21399263.60249 112453888.14549     -8146.69149        49.000  
  22520065.37549 118343742.94949      1627.77749        50.000  
 16 04 02 12 40 47.2000000  0  2G04G23                                          
  21399418.66449 112454703.05949     -8151.32449        49.000  
  22520034.44549 118343580.46149      1621.95349        50.000  
 16 04 02 12 40 47.3000000  0  2G04G23                                          
  21399573.82849 112455518.44149     -8156.12549        49.000  
  22520003.63349 118343418.53549      1616.16849        50.000  
 16 04 02 12 40 47.4000000  0  2G04G23                                          
  21399729.10949 112456334.42649     -8162.40249        49.000  
  22519972.95349 118343257.33649      1608.78149        50.000  
 16 04 02 12 40 47.5000000  0  2G04G23                                          
  21399884.47749 112457150.89549     -8167.22749        49.000  
  22519942.39149 118343096.72349      1602.90649        50.000  
 16 04 02 12 40 47.6000000  0  2G04G23                                          
  21400039.93049 112457967.78949     -8171.27749        49.000  
  22519911.94549 118342936.65249      1597.70349        50.000  
 16 04 02 12 40 47.7000000  0  2G04G23                                          
  21400195.47749 112458785.17249     -8175.93049        49.000  
  22519881.59449 118342777.17249      1591.94149        50.000  
 16 04 02 12 40 47.8000000  0  2G04G23                                          
  21400351.12549 112459603.07849     -8181.30149        49.000  
  22519851.35949 118342618.32849      1585.56249        50.000  
 16 04 02 12 40 47.9000000  0  2G04G23                                          
  21400506.85949 112460421.44949     -8186.18849        49.000  
  22519821.24249 118342460.05149      1579.54349        50.000  
 16 04 02 12 40 48.0000000  0  2G04G23                                          
  21400662.70349 112461240.41049     -8191.97749        49.000  
  22519791.26649 118342302.48849      1572.54349        50.000  
 16 04 02 12 40 48.1000000  0  2G04G23                                          
  21400818.63349 112462059.81649     -8196.51249        49.000  
  22519761.38349 118342145.46949      1566.95349        50.000  
 16 04 02 12 40 48.2000000  0  2G04G23                                          
  21400974.65649 112462879.69549     -8201.08649        49.000  
  22519731.61749 118341989.03949      1561.24649        50.000  
 16 04 02 12 40 48.3000000  0  2G04G23                                          
  21401130.77349 112463700.07849     -8206.02349        49.000  
  22519701.96149 118341833.21149      1555.36749        50.000  
 16 04 02 12 40 48.4000000  0  2G04G23                                          
  21401286.98449 112464520.93849     -8210.87949        49.000  
  22519672.43849 118341677.97749      1549.35549        50.000  
 16 04 02 12 40 48.5000000  0  2G04G23                                          
  21401443.28149 112465342.32049     -8216.19949        49.000  
  22519643.01649 118341523.37149      1543.03549        50.000  
 16 04 02 12 40 48.6000000  0  2G04G23                                          
  21401599.66449 112466164.14549     -8220.52049        49.000  
  22519613.69549 118341369.32449      1537.41849        50.000  
 16 04 02 12 40 48.7000000  0  2G04G23                                          
  21401756.15649 112466986.50849     -8225.85549        49.000  
  22519584.50849 118341215.92249      1531.03949        50.000  
 16 04 02 12 40 48.8000000  0  2G04G23                                          
  21401912.73449 112467809.33249     -8230.52749        49.000  
  22519555.42249 118341063.09849      1525.25049        50.000  
 16 04 02 12 40 48.9000000  0  2G04G23                                          
  21402069.40649 112468632.63749     -8235.39849        49.000  
  22519526.44549 118340910.83649      1519.43049        50.000  
 16 04 02 12 40 49.0000000  0  2G04G23                                          
  21402226.17249 112469456.44549     -8240.30149        49.000  
  22519497.58649 118340759.21949      1513.22749        50.000  
 16 04 02 12 40 49.1000000  0  2G04G23                                          
  21402383.03949 112470280.77349     -8245.68449        49.000  
  22519468.85249 118340608.21549      1506.83249        50.000  
 16 04 02 12 40 49.2000000  0  2G04G23                                          
  21402540.00849 112471105.66049     -8251.30149        49.000  
  22519440.25049 118340457.89149      1500.15249        50.000  
 16 04 02 12 40 49.3000000  0  2G04G23                                          
  21402697.07049 112471931.00449     -8255.76649        49.000  
  22519411.75049 118340308.12149      1494.58649        50.000  
 16 04 02 12 40 49.4000000  0  2G04G23                                          
  21402854.21949 112472756.80149     -8260.30949        49.000  
  22519383.35249 118340158.91449      1489.02749        50.000  
 16 04 02 12 40 49.5000000  0  2G04G23                                          
  21403011.46149 112473583.11749     -8265.48849        49.000  
  22519355.08649 118340010.35549      1482.54749        50.000  
 16 04 02 12 40 49.6000000  0  2G04G23                                          
  21403168.81249 112474409.94149     -8270.46949        49.000  
  22519326.93849 118339862.39549      1476.57449        50.000  
 16 04 02 12 40 49.7000000  0  2G04G23                                          
  21403326.25849 112475237.29349     -8275.96149        49.000  
  22519298.89849 118339715.07449      1469.97349        50.000  
 16 04 02 12 40 49.8000000  0  2G04G23                                          
  21403483.78149 112476065.10549     -8280.51249        49.000  
  22519270.96949 118339568.33649      1464.27749        50.000  
 16 04 02 12 40 49.9000000  0  2G04G23                                          
  21403641.40649 112476893.43049     -8285.41449        49.000  
  22519243.15649 118339422.20749      1458.39849        50.000  
 16 04 02 12 40 50.0000000  0  2G04G23                                          
  21403799.12549 112477722.23849     -8290.38749        49.000  
  22519215.46949 118339276.67649      1452.21949        50.000  
 16 04 02 12 40 50.1000000  0  2G04G23                                          
  21403956.92249 112478551.47749     -8294.51249        49.000  
  22519187.88349 118339131.68849      1447.06249        50.000  
 16 04 02 12 40 50.2000000  0  2G04G23                                          
  21404114.82849 112479381.24649     -8299.93049        49.000  
  22519160.40649 118338987.33649      1440.46949        50.000  
 16 04 02 12 40 50.3000000  0  2G04G23                                          
  21404272.82049 112480211.48449     -8304.74249        49.000  
  22519133.04749 118338843.55549      1434.73449        50.000  
 16 04 02 12 40 50.4000000  0  2G04G23                                          
  21404430.89849 112481042.19949     -8309.60949        49.000  
  22519105.79749 118338700.38749      1428.47749        50.000  
 16 04 02 12 40 50.5000000  0  2G04G23                                          
  21404589.08649 112481873.47749     -8315.22349        49.000  
  22519078.68049 118338557.87149      1421.90649        50.000  
 16 04 02 12 40 50.6000000  0  2G04G23                                          
  21404747.36749 112482705.26249     -8320.32049        49.000  
  22519051.68849 118338415.97749      1415.78549        50.000  
 16 04 02 12 40 50.7000000  0  2G04G23                                          
  21404905.72749 112483537.41849     -8323.89849        49.000  
  22519024.77349 118338274.56649      1411.03549        50.000  
 16 04 02 12 40 50.8000000  0  2G04G23                                          
  21405064.16449 112484370.11349     -8328.93049        49.000  
  22518997.99249 118338133.80149      1404.89149        50.000  
 16 04 02 12 40 50.9000000  0  2G04G23                                          
  21405222.71949 112485203.29749     -8334.16049        49.000  
  22518971.32049 118337993.63749      1398.53149        50.000  
 16 04 02 12 40 51.0000000  0  2G04G23                                          
  21405381.37549 112486037.05949     -8340.06249        49.000  
  22518944.77349 118337854.16849      1391.55949        50.000  
 16 04 02 12 40 51.1000000  0  2G04G23                                          
  21405540.11749 112486871.24649     -8344.41449        49.000  
  22518918.32849 118337715.22349      1386.13349        50.000  
 16 04 02 12 40 51.2000000  0  2G04G23                                          
  21405698.96149 112487706.02049     -8350.12549        49.000  
  22518892.03149 118337576.98049      1379.25849        50.000  
 16 04 02 12 40 51.3000000  0  2G04G23                                          
  21405857.90649 112488541.25849     -8354.84049        49.000  
  22518865.83649 118337439.30949      1373.53549        50.000  
 16 04 02 12 40 51.4000000  0  2G04G23                                          
  21406016.93849 112489377.00849     -8359.92649        49.000  
  22518839.75049 118337302.26249      1367.28549        50.000  
 16 04 02 12 40 51.5000000  0  2G04G23                                          
  21406176.06249 112490213.21949     -8364.43049        49.000  
  22518813.78149 118337165.79749      1361.67649        50.000  
 16 04 02 12 40 51.6000000  0  2G04G23                                          
  21406335.27349 112491049.89149     -8368.89149        49.000  
  22518787.92249 118337029.89149      1356.10249        50.000  
 16 04 02 12 40 51.7000000  0  2G04G23                                          
  21406494.59449 112491887.09449     -8374.21549        49.000  
  22518762.18049 118336894.62549      1349.74649        50.000  
 16 04 02 12 40 51.8000000  0  2G04G23                                          
  21406653.99249 112492724.76249     -8379.05149        49.000  
  22518736.55549 118336759.94549      1343.69949        50.000  
 16 04 02 12 40 51.9000000  0  2G04G23                                          
  21406813.48449 112493562.92249     -8383.88349        49.000  
  22518711.03949 118336625.85549      1337.81249        50.000  
 16 04 02 12 40 52.0000000  0  2G04G23                                          
  21406973.07049 112494401.56649     -8388.80149        49.000  
  22518685.64149 118336492.36749      1331.73849        50.000  
 16 04 02 12 40 52.1000000  0  2G04G23                                          
  21407132.74249 112495240.62549     -8392.75449        49.000  
  22518660.33649 118336359.41049      1326.68049        50.000  
 16 04 02 12 40 52.2000000  0  2G04G23                                          
  21407292.50849 112496080.18049     -8397.76649        49.000  
  22518635.15649 118336227.05149      1320.58649        50.000  
 16 04 02 12 40 52.3000000  0  2G04G23                                          
  21407452.37549 112496920.28149     -8403.39849        49.000  
  22518610.09449 118336095.34449      1313.94949        50.000  
 16 04 02 12 40 52.4000000  0  2G04G23                                          
  21407612.34449 112497760.89549     -8408.65649        49.000  
  22518585.15649 118335964.28149      1307.33649        50.000  
 16 04 02 12 40 52.5000000  0  2G04G23                                          
  21407772.40649 112498602.03949     -8413.80549        49.000  
  22518560.33649 118335833.84049      1301.19549        50.000  
 16 04 02 12 40 52.6000000  0  2G04G23                                          
  21407932.55549 112499443.63349     -8418.24249        49.000  
  22518535.62549 118335703.95749      1295.88749        50.000  
 16 04 02 12 40 52.7000000  0  2G04G23                                          
  21408092.79749 112500285.68049     -8422.84449        49.000  
  22518511.02349 118335574.66449      1289.83649        50.000  
 16 04 02 12 40 52.8000000  0  2G04G23                                          
  21408253.12549 112501128.25049     -8428.00849        49.000  
  22518486.53149 118335445.97749      1283.66049        50.000  
 16 04 02 12 40 52.9000000  0  2G04G23                                          
  21408413.56249 112501971.33249     -8433.14849        49.000  
  22518462.15649 118335317.91849      1277.47349        50.000  
 16 04 02 12 40 53.0000000  0  2G04G23                                          
  21408574.08649 112502814.92649     -8438.50449        49.000  
  22518437.90649 118335190.49649      1270.93049        50.000  
 16 04 02 12 40 53.1000000  0  2G04G23                                          
  21408734.71149 112503658.98449     -8442.96949        49.000  
  22518413.76649 118335063.63349      1265.53549        50.000  
 16 04 02 12 40 53.2000000  0  2G04G23                                          
  21408895.41449 112504503.52349     -8447.66449        49.000  
  22518389.73449 118334937.37149      1259.65649        50.000  
 16 04 02 12 40 53.3000000  0  2G04G23                                          
  21409056.21949 112505348.53149     -8452.38349        49.000  
  22518365.82049 118334811.69149      1253.77049        50.000  
 16 04 02 12 40 53.4000000  0  2G04G23                                          
  21409217.14149 112506194.12549     -8458.21549        49.000  
  22518342.03149 118334686.69949      1246.86749        50.000  
 16 04 02 12 40 53.5000000  0  2G04G23                                          
  21409378.14849 112507040.21149     -8463.44549        49.000  
  22518318.36749 118334562.31649      1240.49249        50.000  
 16 04 02 12 40 53.6000000  0  2G04G23                                          
  21409539.24249 112507886.79749     -8468.36349        49.000  
  22518294.82049 118334438.53949      1234.56249        50.000  
 16 04 02 12 40 53.7000000  0  2G04G23                                          
  21409700.43049 112508733.83649     -8472.80949        49.000  
  22518271.36749 118334315.32849      1228.94949        50.000  
 16 04 02 12 40 53.8000000  0  2G04G23                                          
  21409861.71949 112509581.42249     -8478.21549        49.000  
  22518248.04749 118334192.78149      1222.31649        50.000  
 16 04 02 12 40 53.9000000  0  2G04G23                                          
  21410023.10949 112510429.52349     -8483.51249        49.000  
  22518224.84449 118334070.85949      1215.87549        50.000  
 16 04 02 12 40 54.0000000  0  2G04G23                                          
  21410184.60949 112511278.18449     -8489.13349        49.000  
  22518201.78149 118333949.60249      1209.30549        50.000  
 16 04 02 12 40 54.1000000  0  2G04G23                                          
  21410346.18049 112512127.27049     -8493.38749        49.000  
  22518178.81249 118333828.89149      1203.82849        50.000  
 16 04 02 12 40 54.2000000  0  2G04G23                                          
  21410507.85249 112512976.80949     -8497.66049        49.000  
  22518155.93849 118333708.72749      1198.70749        50.000  
 16 04 02 12 40 54.3000000  0  2G04G23                                          
  21410669.60249 112513826.84449     -8502.69549        49.000  
  22518133.19549 118333589.19149      1192.30149        50.000  
 16 04 02 12 40 54.4000000  0  2G04G23                                          
  21410831.46149 112514677.39149     -8507.73849        49.000  
  22518110.55549 118333470.26249      1186.30949        50.000  
 16 04 02 12 40 54.5000000  0  2G04G23                                          
  21410993.39849 112515528.40649     -8512.68049        49.000  
  22518088.03949 118333351.92249      1180.21549        50.000  
 16 04 02 12 40 54.6000000  0  2G04G23                                          
  21411155.43849 112516379.92649     -8517.50849        49.000  
  22518065.63349 118333234.19549      1174.19949        50.000  
 16 04 02 12 40 54.7000000  0  2G04G23                                          
  21411317.56249 112517231.87149     -8521.57049        49.000  
  22518043.32849 118333117.00449      1168.98449        50.000  
 16 04 02 12 40 54.8000000  0  2G04G23                                          
  21411479.76649 112518084.32049     -8526.71949        49.000  
  22518021.14849 118333000.43849      1162.68449        50.000  
 16 04 02 12 40 54.9000000  0  2G04G23                                          
  21411642.08649 112518937.30949     -8532.13749        49.000  
  22517999.08649 118332884.50449      1156.26249        50.000  
 16 04 02 12 40 55.0000000  0  2G04G23                                          
  21411804.50049 112519790.78949     -8537.34449        49.000  
  22517977.14849 118332769.18849      1149.84849        50.000  
 16 04 02 12 40 55.1000000  0  2G04G23                                          
  21411967.01649 112520644.79749     -8542.36749        49.000  
  22517955.32049 118332654.50449      1143.85549        50.000  
 16 04 02 12 40 55.2000000  0  2G04G23                                          
  21412129.60949 112521499.25849     -8547.12549        49.000  
  22517933.61749 118332540.39149      1137.85549        50.000  
 16 04 02 12 40 55.3000000  0  2G04G23                                          
  21412292.30549 112522354.22749     -8551.98049        49.000  
  22517912.01649 118332426.89149      1131.94149        50.000  
 16 04 02 12 40 55.4000000  0  2G04G23                                          
  21412455.09449 112523209.69149     -8557.04349        49.000  
  22517890.53949 118332314.00049      1125.71549        50.000  
 16 04 02 12 40 55.5000000  0  2G04G23                                          
  21412617.97749 112524065.66449     -8562.23449        49.000  
  22517869.18049 118332201.72749      1119.47349        50.000  
 16 04 02 12 40 55.6000000  0  2G04G23                                          
  21412780.95349 112524922.10249     -8566.59849        49.000  
  22517847.92249 118332090.03549      1114.06649        50.000  
 16 04 02 12 40 55.7000000  0  2G04G23                                          
  21412944.01649 112525779.02749     -8571.64849        49.000  
  22517826.78149 118331978.94149      1107.82049        50.000  
 16 04 02 12 40 55.8000000  0  2G04G23                                          
  21413107.18049 112526636.44149     -8576.60949        49.000  
  22517805.75849 118331868.45349      1101.70749        50.000  
 16 04 02 12 40 55.9000000  0  2G04G23                                          
  21413270.44549 112527494.40249     -8581.85249        49.000  
  22517784.85249 118331758.61349      1095.39849        50.000  
 16 04 02 12 40 56.0000000  0  2G04G23                                          
  21413433.80549 112528352.87149     -8587.12549        49.000  
  22517764.07049 118331649.40249      1088.79349        50.000  
 16 04 02 12 40 56.1000000  0  2G04G23                                          
  21413597.24249 112529211.75849     -8591.12549        49.000  
  22517743.39149 118331540.70749      1084.02749        50.000  
 16 04 02 12 40 56.2000000  0  2G04G23                                          
  21413760.77349 112530071.13749     -8596.08249        49.000  
  22517722.82049 118331432.62549      1077.71549        50.000  
 16 04 02 12 40 56.3000000  0  2G04G23                                          
  21413924.40649 112530931.03149     -8601.24649        49.000  
  22517702.37549 118331325.18449      1071.32049        50.000  
 16 04 02 12 40 56.4000000  0  2G04G23                                          
  21414088.13349 112531791.42649     -8606.20349        49.000  
  22517682.04749 118331218.32849      1065.44549        50.000  
 16 04 02 12 40 56.5000000  0  2G04G23                                          
  21414251.95349 112532652.31249     -8611.33649        49.000  
  22517661.83649 118331112.10249      1059.19549        50.000  
 16 04 02 12 40 56.6000000  0  2G04G23                                          
  21414415.86749 112533513.67249     -8615.94949        49.000  
  22517641.74249 118331006.44149      1053.50049        50.000  
 16 04 02 12 40 56.7000000  0  2G04G23                                          
  21414579.87549 112534375.52349     -8620.88749        49.000  
  22517621.75049 118330901.39149      1047.43849        50.000  
 16 04 02 12 40 56.8000000  0  2G04G23                                          
  21414743.96949 112535237.85549     -8625.65649        49.000  
  22517601.86749 118330796.94149      1041.46949        50.000  
 16 04 02 12 40 56.9000000  0  2G04G23                                          
  21414908.15649 112536100.69549     -8630.56649        49.000  
  22517582.10949 118330693.09849      1035.53949        50.000  
 16 04 02 12 40 57.0000000  0  2G04G23                                          
  21415072.43849 112536964.00849     -8635.46149        49.000  
  22517562.46949 118330589.85549      1029.32449        50.000  
 16 04 02 12 40 57.1000000  0  2G04G23                                          
  21415236.82049 112537827.82849     -8640.51649        49.000  
  22517542.93849 118330487.22349      1023.21149        50.000  
 16 04 02 12 40 57.2000000  0  2G04G23                                          
  21415401.29749 112538692.14849     -8645.73849        49.000  
  22517523.52349 118330385.19949      1016.87549        50.000  
 16 04 02 12 40 57.3000000  0  2G04G23                                          
  21415565.86749 112539556.95349     -8650.32849        49.000  
  22517504.22749 118330283.77049      1011.30549        50.000  
 16 04 02 12 40 57.4000000  0  2G04G23                                          
  21415730.51649 112540422.23049     -8655.20749        49.000  
  22517485.03949 118330182.93849      1005.12949        50.000  
 16 04 02 12 40 57.5000000  0  2G04G23                                          
  21415895.27349 112541288.06649     -8660.69949        49.000  
  22517465.97749 118330082.76649       998.54349        50.000  
 16 04 02 12 40 57.6000000  0  2G04G23                                          
  21416060.13349 112542154.41849     -8665.78549        49.000  
  22517447.03149 118329983.23049       992.37549        50.000  
 16 04 02 12 40 57.7000000  0  2G04G23                                          
  21416225.06249 112543021.15249     -8669.64849        49.000  
  22517428.18049 118329884.18849       987.39849        50.000  
 16 04 02 12 40 57.8000000  0  2G04G23                                          
  21416390.08649 112543888.37949     -8674.34849        49.000  
  22517409.45349 118329785.74249       981.68049        50.000  
 16 04 02 12 40 57.9000000  0  2G04G23                                          
  21416555.21149 112544756.10249     -8679.60549        49.000  
  22517390.83649 118329687.91449       975.10949        50.000  
 16 04 02 12 40 58.0000000  0  2G04G23                                          
  21416720.43849 112545624.38349     -8685.27349        49.000  
  22517372.35949 118329590.75449       968.41049        50.000  
 16 04 02 12 40 58.1000000  0  2G04G23                                          
  21416885.75849 112546493.14149     -8690.12149        49.000  
  22517353.97749 118329494.18049       962.46149        50.000  
 16 04 02 12 40 58.2000000  0  2G04G23                                          
  21417051.17249 112547362.38749     -8694.87149        49.000  
  22517335.71149 118329398.21149       956.52749        50.000  
 16 04 02 12 40 58.3000000  0  2G04G23                                          
  21417216.67249 112548232.10549     -8699.46549        49.000  
  22517317.56249 118329302.82849       950.77349        50.000  
 16 04 02 12 40 58.4000000  0  2G04G23                                          
  21417382.28149 112549102.41049     -8705.44549        49.000  
  22517299.53949 118329208.13749       943.71949        50.000  
 16 04 02 12 40 58.5000000  0  2G04G23                                          
  21417547.97749 112549973.13349     -8709.73449        49.000  
  22517281.62549 118329113.98449       938.21549        50.000  
 16 04 02 12 40 58.6000000  0  2G04G23                                          
  21417713.76649 112550844.37549     -8714.73449        49.000  
  22517263.83649 118329020.45749       932.15649        50.000  
 16 04 02 12 40 58.7000000  0  2G04G23                                          
  21417879.64849 112551716.10549     -8719.58649        49.000  
  22517246.14849 118328927.52749       926.28549        50.000  
 16 04 02 12 40 58.8000000  0  2G04G23                                          
  21418045.61749 112552588.27349     -8724.03949        49.000  
  22517228.57049 118328835.15249       920.63749        50.000  
 16 04 02 12 40 58.9000000  0  2G04G23                                          
  21418211.69549 112553460.99249     -8729.48849        49.000  
  22517211.11749 118328743.44549       914.03149        50.000  
 16 04 02 12 40 59.0000000  0  2G04G23                                          
  21418377.85949 112554334.24649     -8735.06649        49.000  
  22517193.78949 118328652.37949       907.41849        50.000  
 16 04 02 12 40 59.1000000  0  2G04G23                                          
  21418544.10949 112555207.89549     -8738.95749        49.000  
  22517176.55549 118328561.82849       902.31249        50.000  
 16 04 02 12 40 59.2000000  0  2G04G23                                          
  21418710.46949 112556082.07449     -8743.91049        49.000  
  22517159.45349 118328471.93049       896.21149        50.000  
 16 04 02 12 40 59.3000000  0  2G04G23                                          
  21418876.89849 112556956.68049     -8748.34849        49.000  
  22517142.44549 118328382.54749       890.70349        50.000  
 16 04 02 12 40 59.4000000  0  2G04G23                                          
  21419043.42249 112557831.78149     -8753.19949        49.000  
  22517125.56249 118328293.78149       884.77349        50.000  
 16 04 02 12 40 59.5000000  0  2G04G23                                          
  21419210.03949 112558707.38349     -8758.41449        49.000  
  22517108.78149 118328205.62549       878.48049        50.000  
 16 04 02 12 40 59.6000000  0  2G04G23                                          
  21419376.76649 112559583.54349     -8763.98049        49.000  
  22517092.14149 118328118.14849       871.62949        50.000  
 16 04 02 12 40 59.7000000  0  2G04G23                                          
  21419543.57849 112560460.14549     -8768.57849        49.000  
  22517075.60249 118328031.22349       865.93049        50.000  
 16 04 02 12 40 59.8000000  0  2G04G23                                          
  21419710.48449 112561337.25449     -8773.43849        49.000  
  22517059.18049 118327944.93049       859.85949        50.000  
 16 04 02 12 40 59.9000000  0  2G04G23                                          
  21419877.48449 112562214.85549     -8778.27349        49.000  
  22517042.87549 118327859.21949       854.05549        50.000  
 16 04 02 12 41  0.0000000  0  2G04G23                                          
  21420044.58649 112563092.93049     -8783.13749        49.000  
  22517026.67249 118327774.12149       848.04349        50.000  
 16 04 02 12 41  0.1000000  0  2G04G23                                          
  21420211.76649 112563971.47349     -8787.63749        49.000  
  22517010.58649 118327689.57849       842.46549        50.000  
 16 04 02 12 41  0.2000000  0  2G04G23                                          
  21420379.04749 112564850.51249     -8792.82049        49.000  
  22516994.61749 118327605.66049       836.01649        50.000  
 16 04 02 12 41  0.3000000  0  2G04G23                                          
  21420546.41449 112565730.06249     -8797.81649        49.000  
  22516978.77349 118327522.36349       829.97349        50.000  
 16 04 02 12 41  0.4000000  0  2G04G23                                          
  21420713.88349 112566610.09049     -8802.55549        49.000  
  22516963.03149 118327439.64849       824.12949        50.000  
 16 04 02 12 41  0.5000000  0  2G04G23                                          
  21420881.42249 112567490.53149     -8806.84849        49.000  
  22516947.39149 118327357.48049       818.37149        50.000  
 16 04 02 12 41  0.6000000  0  2G04G23                                          
  21421049.07849 112568371.55549     -8812.58649        49.000  
  22516931.88349 118327275.98049       811.91449        50.000  
 16 04 02 12 41  0.7000000  0  2G04G23                                          
  21421216.81249 112569253.01649     -8816.92649        49.000  
  22516916.48449 118327195.05949       806.14549        50.000  
 16 04 02 12 41  0.8000000  0  2G04G23                                          
  21421384.64849 112570134.98449     -8821.92649        49.000  
  22516901.20349 118327114.73849       800.13749        50.000  
 16 04 02 12 41  0.9000000  0  2G04G23                                          
  21421552.57849 112571017.45349     -8826.91049        49.000  
  22516886.03149 118327035.03549       794.16849        50.000  
 16 04 02 12 41  1.0000000  0  2G04G23                                          
  21421720.60249 112571900.39849     -8831.98849        49.000  
  22516870.98449 118326955.92649       787.78949        50.000  
 16 04 02 12 41  1.1000000  0  2G04G23                                          
  21421888.71149 112572783.84449     -8836.69549        49.000  
  22516856.04749 118326877.42649       782.01649        50.000  
 16 04 02 12 41  1.2000000  0  2G04G23                                          
  21422056.91449 112573667.74249     -8841.40249        49.000  
  22516841.21149 118326799.49649       776.14149        50.000  
 16 04 02 12 41  1.3000000  0  2G04G23                                          
  21422225.19549 112574552.09049     -8845.60549        49.000  
  22516826.49249 118326722.12549       770.82449        50.000  
 16 04 02 12 41  1.4000000  0  2G04G23                                          
  21422393.56249 112575436.89149     -8850.14849        49.000  
  22516811.88349 118326645.32849       765.09449        50.000  
 16 04 02 12 41  1.5000000  0  2G04G23                                          
  21422562.04749 112576322.26649     -8856.13749        49.000  
  22516797.39849 118326569.21949       757.97349        50.000  
 16 04 02 12 41  1.6000000  0  2G04G23                                          
  21422730.61749 112577208.08649     -8860.69549        49.000  
  22516783.02349 118326493.65249       752.51249        50.000  
 16 04 02 12 41  1.7000000  0  2G04G23                                          
  21422899.26649 112578094.35949     -8865.14149        49.000  
  22516768.75849 118326418.67649       746.68849        50.000  
 16 04 02 12 41  1.8000000  0  2G04G23                                          
  21423068.00849 112578981.11349     -8869.83649        49.000  
  22516754.60249 118326344.27749       740.83249        50.000  
 16 04 02 12 41  1.9000000  0  2G04G23                                          
  21423236.84449 112579868.35949     -8874.68049        49.000  
  22516740.56249 118326270.49249       734.87149        50.000  
 16 04 02 12 41  2.0000000  0  2G04G23                                          
  21423405.78949 112580756.12949     -8880.08649        49.000  
  22516726.64149 118326197.33649       728.39849        50.000  
 16 04 02 12 41  2.1000000  0  2G04G23                                          
  21423574.82049 112581644.41849     -8885.30149        49.000  
  22516712.84449 118326124.82049       721.96149        50.000  
 16 04 02 12 41  2.2000000  0  2G04G23                                          
  21423743.95349 112582533.20349     -8890.28549        49.000  
  22516699.16449 118326052.91049       715.87149        50.000  
 16 04 02 12 41  2.3000000  0  2G04G23                                          
  21423913.17249 112583422.48449     -8895.15249        49.000  
  22516685.59449 118325981.61349       709.88749        50.000  
 16 04 02 12 41  2.4000000  0  2G04G23                                          
  21424082.48449 112584312.22749     -8899.61749        49.000  
  22516672.13349 118325910.88349       704.34049        50.000  
 16 04 02 12 41  2.5000000  0  2G04G23                                          
  21424251.88349 112585202.43049     -8904.32849        49.000  
  22516658.78149 118325840.73849       698.30949        50.000  
 16 04 02 12 41  2.6000000  0  2G04G23                                          
  21424421.38349 112586093.14149     -8909.32849        49.000  
  22516645.55549 118325771.21149       692.22349        50.000  
 16 04 02 12 41  2.7000000  0  2G04G23                                          
  21424590.96949 112586984.34849     -8914.39149        49.000  
  22516632.44549 118325702.28549       686.07049        50.000  
 16 04 02 12 41  2.8000000  0  2G04G23                                          
  21424760.64149 112587876.00849     -8919.04349        49.000  
  22516619.43849 118325633.93849       680.33249        50.000  
 16 04 02 12 41  2.9000000  0  2G04G23                                          
  21424930.42249 112588768.21949     -8924.44149        49.000  
  22516606.55549 118325566.25849       673.62949        50.000  
 16 04 02 12 41  3.0000000  0  2G04G23                                          
  21425100.30549 112589660.93449     -8929.54349        49.000  
  22516593.79749 118325499.18049       667.55949        50.000  
 16 04 02 12 41  3.1000000  0  2G04G23                                          
  21425270.28149 112590554.12549     -8934.38749        49.000  
  22516581.14849 118325432.70749       661.46149        50.000  
 16 04 02 12 41  3.2000000  0  2G04G23                                          
  21425440.34449 112591447.80949     -8939.20349        49.000  
  22516568.60949 118325366.82449       655.77749        50.000  
 16 04 02 12 41  3.3000000  0  2G04G23                                          
  21425610.48449 112592341.91849     -8943.33249        49.000  
  22516556.18049 118325301.48849       650.39149        50.000  
 16 04 02 12 41  3.4000000  0  2G04G23                                          
  21425780.71949 112593236.53149     -8948.55549        49.000  
  22516543.86749 118325236.78949       643.82849        50.000  
 16 04 02 12 41  3.5000000  0  2G04G23                                          
  21425951.04749 112594131.58249     -8952.75449        49.000  
  22516531.65649 118325172.61749       638.71549        50.000  
 16 04 02 12 41  3.6000000  0  2G04G23                                          
  21426121.47749 112595027.18849     -8958.23049        49.000  
  22516519.57049 118325109.12149       631.98849        50.000  
 16 04 02 12 41  3.7000000  0  2G04G23                                          
  21426291.98449 112595923.22749     -8962.65249        49.000  
  22516507.59449 118325046.18449       626.31649        50.000  
 16 04 02 12 41  3.8000000  0  2G04G23                                          
  21426462.59449 112596819.82049     -8968.34449        49.000  
  22516495.75849 118324983.90649       619.57849        50.000  
 16 04 02 12 41  3.9000000  0  2G04G23                                          
  21426633.29749 112597716.87149     -8972.97349        49.000  
