     2.10           OBSERVATION DATA    G (GPS)             RINEX VERSION / TYPE
Convert v1.8.0                          09-Jun-2016 14:45   PGM / RUN BY / DATE 
Signal Strength values S1,S2 are in dBHz                    COMMENT             
                                                            MARKER NAME         
                                                            MARKER NUMBER       
                                                            OBSERVER / AGENCY   
                    NovAtel GPSCard                         REC # / TYPE / VERS 
                                                            ANT # / TYPE        
0.0000        0.0000        0.0000                          APPROX POSITION XYZ 
        0.0000        0.0000        0.0000                  ANTENNA: DELTA H/E/N
     1     0                                                WAVELENGTH FACT L1/2
     1     0     2   G02   G05                              WAVELENGTH FACT L1/2
                                                            COMMENT             
                                                            COMMENT             
                                                            COMMENT             
                                                            COMMENT             
                                                            COMMENT             
                                                            COMMENT             
     4    C1    L1    D1    S1                              # / TYPES OF OBSERV 
     0.100                                                  INTERVAL            
  2016    04    02    13    00    36.6000000    GPS         TIME OF FIRST OBS   
  2016    04    02    13    02     1.8000000    GPS         TIME OF LAST OBS    
Leap Seconds Unknown                                        COMMENT             
                                                            END OF HEADER       
 16 04 02 13 00 36.6000000  0  1G05                                             
  19614707.26649 103075981.62159      3267.85249        49.000  
 16 04 02 13 00 36.7000000  0  1G05                                             
  19614645.15649 103075655.21149      3260.43849        49.000  
 16 04 02 13 00 36.8000000  0  1G05                                             
  19614583.16449 103075329.46549      3253.85549        49.000  
 16 04 02 13 00 36.9000000  0  1G05                                             
  19614521.28949 103075004.30549      3248.37149        49.000  
 16 04 02 13 00 37.0000000  0  1G05                                             
  19614459.55549 103074679.84049      3241.19149        49.000  
 16 04 02 13 00 37.1000000  0  1G05                                             
  19614397.94549 103074356.08249      3234.06249        49.000  
 16 04 02 13 00 37.2000000  0  1G05                                             
  19614336.46949 103074032.99249      3227.39849        49.000  
 16 04 02 13 00 37.3000000  0  1G05                                             
  19614275.11749 103073710.58649      3220.55149        49.000  
 16 04 02 13 00 37.4000000  0  1G05                                             
  19614213.87549 103073388.89549      3213.41049        49.000  
 16 04 02 13 00 37.5000000  0  1G05                                             
  19614152.77349 103073067.79349      3207.37949        49.000  
 16 04 02 13 00 37.6000000  0  1G05                                             
  19614091.82049 103072747.50849      3199.35249        49.000  
 16 04 02 13 00 37.7000000  0  1G05                                             
  19614030.98449 103072427.83649      3193.17649        49.000  
 16 04 02 13 00 37.8000000  0  1G05                                             
  19613970.31249 103072108.90249      3186.02749        49.000  
 16 04 02 13 00 37.9000000  0  1G05                                             
  19613909.74249 103071790.62149      3179.41849        49.000  
 16 04 02 13 00 38.0000000  0  1G05                                             
  19613849.28149 103071472.95349      3173.25449        49.000  
 16 04 02 13 00 38.1000000  0  1G05                                             
  19613788.96949 103071156.01249      3165.89149        49.000  
 16 04 02 13 00 38.2000000  0  1G05                                             
  19613728.79749 103070839.80549      3158.43449        49.000  
 16 04 02 13 00 38.3000000  0  1G05                                             
  19613668.76649 103070524.32449      3151.08249        49.000  
 16 04 02 13 00 38.4000000  0  1G05                                             
  19613608.86749 103070209.50449      3144.57049        49.000  
 16 04 02 13 00 38.5000000  0  1G05                                             
  19613549.08649 103069895.34449      3138.02749        49.000  
 16 04 02 13 00 38.6000000  0  1G05                                             
  19613489.43049 103069581.87949      3131.07049        49.000  
 16 04 02 13 00 38.7000000  0  1G05                                             
  19613429.90649 103069269.09049      3124.32449        49.000  
 16 04 02 13 00 38.8000000  0  1G05                                             
  19613370.51649 103068957.01249      3117.36349        49.000  
 16 04 02 13 00 38.9000000  0  1G05                                             
  19613311.26649 103068645.63749      3110.23049        49.000  
 16 04 02 13 00 39.0000000  0  1G05                                             
  19613252.12549 103068334.89149      3104.01649        49.000  
 16 04 02 13 00 39.1000000  0  1G05                                             
  19613193.12549 103068024.85549      3096.87149        49.000  
 16 04 02 13 00 39.2000000  0  1G05                                             
  19613134.26649 103067715.55149      3089.68049        49.000  
 16 04 02 13 00 39.3000000  0  1G05                                             
  19613075.53949 103067406.94949      3082.23449        49.000  
 16 04 02 13 00 39.4000000  0  1G05                                             
  19613016.93849 103067099.02349      3075.55149        49.000  
 16 04 02 13 00 39.5000000  0  1G05                                             
  19612958.47749 103066791.81649      3068.33649        49.000  
 16 04 02 13 00 39.6000000  0  1G05                                             
  19612900.15649 103066485.32049      3061.44949        49.000  
 16 04 02 13 00 39.7000000  0  1G05                                             
  19612841.94549 103066179.43049      3055.47749        49.000  
 16 04 02 13 00 39.8000000  0  1G05                                             
  19612783.88349 103065874.25849      3048.34449        49.000  
 16 04 02 13 00 39.9000000  0  1G05                                             
  19612725.93849 103065569.75049      3041.49649        49.000  
 16 04 02 13 00 40.0000000  0  1G05                                             
  19612668.14149 103065265.98849      3034.07049        49.000  
 16 04 02 13 00 40.1000000  0  1G05                                             
  19612610.46149 103064962.86749      3027.60949        49.000  
 16 04 02 13 00 40.2000000  0  1G05                                             
  19612552.89149 103064660.37149      3021.37549        49.000  
 16 04 02 13 00 40.3000000  0  1G05                                             
  19612495.47749 103064358.63349      3013.87149        49.000  
 16 04 02 13 00 40.4000000  0  1G05                                             
  19612438.19549 103064057.59049      3006.80149        49.000  
 16 04 02 13 00 40.5000000  0  1G05                                             
  19612381.03149 103063757.19949      3000.39149        49.000  
 16 04 02 13 00 40.6000000  0  1G05                                             
  19612324.02349 103063457.53549      2993.02049        49.000  
 16 04 02 13 00 40.7000000  0  1G05                                             
  19612267.13349 103063158.60949      2985.78549        49.000  
 16 04 02 13 00 40.8000000  0  1G05                                             
  19612210.35249 103062860.23449      2980.34449        49.000  
 16 04 02 13 00 40.9000000  0  1G05                                             
  19612153.71949 103062562.61349      2972.62949        49.000  
 16 04 02 13 00 41.0000000  0  1G05                                             
  19612097.21949 103062265.73449      2965.25449        49.000  
 16 04 02 13 00 41.1000000  0  1G05                                             
  19612040.82849 103061969.40249      2959.63349        49.000  
 16 04 02 13 00 41.2000000  0  1G05                                             
  19611984.57849 103061673.82849      2952.37149        49.000  
 16 04 02 13 00 41.3000000  0  1G05                                             
  19611928.46949 103061378.93849      2945.32449        49.000  
 16 04 02 13 00 41.4000000  0  1G05                                             
  19611872.48449 103061084.76249      2938.17649        49.000  
 16 04 02 13 00 41.5000000  0  1G05                                             
  19611816.63349 103060791.27349      2931.21549        49.000  
 16 04 02 13 00 41.6000000  0  1G05                                             
  19611760.90649 103060498.45749      2924.52049        49.000  
 16 04 02 13 00 41.7000000  0  1G05                                             
  19611705.32049 103060206.33249      2917.76249        49.000  
 16 04 02 13 00 41.8000000  0  1G05                                             
  19611649.85949 103059914.86749      2911.20349        49.000  
 16 04 02 13 00 41.9000000  0  1G05                                             
  19611594.52349 103059624.10249      2904.05549        49.000  
 16 04 02 13 00 42.0000000  0  1G05                                             
  19611539.31249 103059334.01649      2897.26249        49.000  
 16 04 02 13 00 42.1000000  0  1G05                                             
  19611484.25049 103059044.65649      2890.10549        49.000  
 16 04 02 13 00 42.2000000  0  1G05                                             
  19611429.29749 103058755.88749      2884.33249        49.000  
 16 04 02 13 00 42.3000000  0  1G05                                             
  19611374.46949 103058467.76649      2877.80149        49.000  
 16 04 02 13 00 42.4000000  0  1G05                                             
  19611319.78149 103058180.37949      2870.37549        49.000  
 16 04 02 13 00 42.5000000  0  1G05                                             
  19611265.22749 103057893.68449      2863.45349        49.000  
 16 04 02 13 00 42.6000000  0  1G05                                             
  19611210.80549 103057607.68049      2856.32449        49.000  
 16 04 02 13 00 42.7000000  0  1G05                                             
  19611156.51649 103057322.38749      2849.51649        49.000  
 16 04 02 13 00 42.8000000  0  1G05                                             
  19611102.35949 103057037.78549      2842.29349        49.000  
 16 04 02 13 00 42.9000000  0  1G05                                             
  19611048.32849 103056753.83249      2836.00849        49.000  
 16 04 02 13 00 43.0000000  0  1G05                                             
  19610994.43049 103056470.59449      2828.78949        49.000  
 16 04 02 13 00 43.1000000  0  1G05                                             
  19610940.66449 103056188.05149      2821.93449        49.000  
 16 04 02 13 00 43.2000000  0  1G05                                             
  19610887.02349 103055906.15249      2815.28949        49.000  
 16 04 02 13 00 43.3000000  0  1G05                                             
  19610833.51649 103055624.98849      2808.15249        49.000  
 16 04 02 13 00 43.4000000  0  1G05                                             
  19610780.14149 103055344.46949      2801.48849        49.000  
 16 04 02 13 00 43.5000000  0  1G05                                             
  19610726.89849 103055064.66449      2794.81249        49.000  
 16 04 02 13 00 43.6000000  0  2G05G02                                          
  19610673.77349 103054785.50049      2788.03149        49.000  
  19441598.12549 102166286.82059     -8661.09049        49.000  
 16 04 02 13 00 43.7000000  0  2G05G02                                          
  19610620.78149 103054507.04749      2781.09049        49.000  
  19441762.99249 102167153.21149     -8666.44949        49.000  
 16 04 02 13 00 43.8000000  0  2G05G02                                          
  19610567.92249 103054229.30549      2773.86749        49.000  
  19441927.93849 102168020.11749     -8671.70349        49.000  
 16 04 02 13 00 43.9000000  0  2G05G02                                          
  19610515.20349 103053952.24649      2767.00449        49.000  
  19442093.00849 102168887.55949     -8677.04749        49.000  
 16 04 02 13 00 44.0000000  0  2G05G02                                          
  19610462.60249 103053675.82849      2760.80949        49.000  
  19442258.14849 102169755.45749     -8681.47349        49.000  
 16 04 02 13 00 44.1000000  0  2G05G02                                          
  19610410.13349 103053400.07449      2754.19149        49.000  
  19442423.39849 102170623.85249     -8686.42249        49.000  
 16 04 02 13 00 44.2000000  0  2G05G02                                          
  19610357.78149 103053125.04349      2746.66449        49.000  
  19442588.74249 102171492.78549     -8692.15649        49.000  
 16 04 02 13 00 44.3000000  0  2G05G02                                          
  19610305.57849 103052850.69949      2739.94149        49.000  
  19442754.19549 102172362.23849     -8697.14149        49.000  
 16 04 02 13 00 44.4000000  0  2G05G02                                          
  19610253.51649 103052577.03149      2733.15649        49.000  
  19442919.75049 102173232.19949     -8702.22749        49.000  
 16 04 02 13 00 44.5000000  0  2G05G02                                          
  19610201.56249 103052304.05549      2726.25449        49.000  
  19443085.39849 102174102.67649     -8707.42649        49.000  
 16 04 02 13 00 44.6000000  0  2G05G02                                          
  19610149.75049 103052031.74249      2719.52749        49.000  
  19443251.14849 102174973.64549     -8712.41849        49.000  
 16 04 02 13 00 44.7000000  0  2G05G02                                          
  19610098.06249 103051760.15649      2712.40649        49.000  
  19443416.99249 102175845.15649     -8717.62149        49.000  
 16 04 02 13 00 44.8000000  0  2G05G02                                          
  19610046.52349 103051489.22349      2705.85249        49.000  
  19443582.91449 102176717.16449     -8722.57849        49.000  
 16 04 02 13 00 44.9000000  0  2G05G02                                          
  19609995.09449 103051218.95749      2699.09449        49.000  
  19443748.94549 102177589.65649     -8727.53549        49.000  
 16 04 02 13 00 45.0000000  0  2G05G02                                          
  19609943.80549 103050949.44549      2691.60949        49.000  
  19443915.09449 102178462.72749     -8733.26249        49.000  
 16 04 02 13 00 45.1000000  0  2G05G02                                          
  19609892.64849 103050680.60249      2684.69949        49.000  
  19444081.33649 102179336.30549     -8738.54749        49.000  
 16 04 02 13 00 45.2000000  0  2G05G02                                          
  19609841.62549 103050412.45749      2677.87549        49.000  
  19444247.64149 102180210.39849     -8743.65649        49.000  
 16 04 02 13 00 45.3000000  0  2G05G02                                          
  19609790.71949 103050144.94149      2671.76649        49.000  
  19444414.06249 102181084.95349     -8748.01249        49.000  
 16 04 02 13 00 45.4000000  0  2G05G02                                          
  19609739.93049 103049878.09049      2664.98449        49.000  
  19444580.56249 102181959.99649     -8753.01249        49.000  
 16 04 02 13 00 45.5000000  0  2G05G02                                          
  19609689.28149 103049611.93449      2658.21549        49.000  
  19444747.18049 102182835.55549     -8758.00849        49.000  
 16 04 02 13 00 45.6000000  0  2G05G02                                          
  19609638.77349 103049346.45749      2651.33649        49.000  
  19444913.91449 102183711.62549     -8763.22349        49.000  
 16 04 02 13 00 45.7000000  0  2G05G02                                          
  19609588.38349 103049081.67649      2644.17249        49.000  
  19445080.71949 102184588.22349     -8768.64849        49.000  
 16 04 02 13 00 45.8000000  0  2G05G02                                          
  19609538.13349 103048817.60549      2637.19949        49.000  
  19445247.62549 102185465.35549     -8773.97749        49.000  
 16 04 02 13 00 45.9000000  0  2G05G02                                          
  19609488.01649 103048554.24649      2630.16049        49.000  
  19445414.64149 102186343.02349     -8779.24649        49.000  
 16 04 02 13 00 46.0000000  0  2G05G02                                          
  19609438.03149 103048291.57449      2623.05149        49.000  
  19445581.73449 102187221.19549     -8784.45749        49.000  
 16 04 02 13 00 46.1000000  0  2G05G02                                          
  19609388.17249 103048029.56249      2616.62549        49.000  
  19445748.93849 102188099.87149     -8789.30549        49.000  
 16 04 02 13 00 46.2000000  0  2G05G02                                          
  19609338.43849 103047768.28549      2609.21549        49.000  
  19445916.24249 102188979.11349     -8795.06249        49.000  
 16 04 02 13 00 46.3000000  0  2G05G02                                          
  19609288.82849 103047507.60549      2603.22349        49.000  
  19446083.63349 102189858.75849     -8799.07049        49.000  
 16 04 02 13 00 46.4000000  0  2G05G02                                          
  19609239.35249 103047247.63349      2596.39849        49.000  
  19446251.12549 102190738.94149     -8804.25849        49.000  
 16 04 02 13 00 46.5000000  0  2G05G02                                          
  19609190.00849 103046988.32049      2589.69149        49.000  
  19446418.71149 102191619.62949     -8809.41049        49.000  
 16 04 02 13 00 46.6000000  0  2G05G02                                          
  19609140.78949 103046729.71549      2582.55949        49.000  
  19446586.40649 102192500.82449     -8814.58649        49.000  
 16 04 02 13 00 46.7000000  0  2G05G02                                          
  19609091.70349 103046471.78149      2575.84449        49.000  
  19446754.18849 102193382.53549     -8819.69149        49.000  
 16 04 02 13 00 46.8000000  0  2G05G02                                          
  19609042.75049 103046214.50449      2569.17649        49.000  
  19446922.06249 102194264.70749     -8824.39149        49.000  
 16 04 02 13 00 46.9000000  0  2G05G02                                          
  19608993.92249 103045957.91849      2562.39549        49.000  
  19447090.03949 102195147.43449     -8829.80549        49.000  
 16 04 02 13 00 47.0000000  0  2G05G02                                          
  19608945.24249 103045702.05549      2555.07049        49.000  
  19447258.13349 102196030.67649     -8835.14149        49.000  
 16 04 02 13 00 47.1000000  0  2G05G02                                          
  19608896.68049 103045446.87149      2548.37549        49.000  
  19447426.30549 102196914.43449     -8840.15249        49.000  
 16 04 02 13 00 47.2000000  0  2G05G02                                          
  19608848.25849 103045192.39549      2541.27049        49.000  
  19447594.57849 102197798.72749     -8845.50849        49.000  
 16 04 02 13 00 47.3000000  0  2G05G02                                          
  19608799.96149 103044938.60249      2534.39149        49.000  
  19447762.95349 102198683.52349     -8850.55549        49.000  
 16 04 02 13 00 47.4000000  0  2G05G02                                          
  19608751.80549 103044685.51249      2527.19549        49.000  
  19447931.43849 102199568.85549     -8856.09849        49.000  
 16 04 02 13 00 47.5000000  0  2G05G02                                          
  19608703.78149 103044433.15649      2519.91049        49.000  
  19448100.01649 102200454.75049     -8861.57449        49.000  
 16 04 02 13 00 47.6000000  0  2G05G02                                          
  19608655.89149 103044181.44549      2513.51649        49.000  
  19448268.67249 102201341.10549     -8866.28549        49.000  
 16 04 02 13 00 47.7000000  0  2G05G02                                          
  19608608.12549 103043930.42249      2506.69549        49.000  
  19448437.43849 102202227.98449     -8871.42649        49.000  
 16 04 02 13 00 47.8000000  0  2G05G02                                          
  19608560.46949 103043680.05549      2500.21149        49.000  
  19448606.28149 102203115.34449     -8876.09049        49.000  
 16 04 02 13 00 47.9000000  0  2G05G02                                          
  19608512.95349 103043430.35549      2493.69549        49.000  
  19448775.23449 102204003.19949     -8880.95349        49.000  
 16 04 02 13 00 48.0000000  0  2G05G02                                          
  19608465.57049 103043181.33649      2486.93049        49.000  
  19448944.28149 102204891.54749     -8885.94949        49.000  
 16 04 02 13 00 48.1000000  0  2G05G02                                          
  19608418.30549 103042932.95349      2480.03549        49.000  
  19449113.42249 102205780.37149     -8891.07449        49.000  
 16 04 02 13 00 48.2000000  0  2G05G02                                          
  19608371.18849 103042685.35249      2472.65249        49.000  
  19449282.67249 102206669.79349     -8896.66849        49.000  
 16 04 02 13 00 48.3000000  0  2G05G02                                          
  19608324.19549 103042438.38349      2465.98049        49.000  
  19449452.00849 102207559.67649     -8901.60549        49.000  
 16 04 02 13 00 48.4000000  0  2G05G02                                          
  19608277.32049 103042192.06249      2459.90649        49.000  
  19449621.43849 102208450.04349     -8906.02349        49.000  
 16 04 02 13 00 48.5000000  0  2G05G02                                          
  19608230.58649 103041946.44949      2452.63349        49.000  
  19449790.96949 102209340.93049     -8911.49649        49.000  
 16 04 02 13 00 48.6000000  0  2G05G02                                          
  19608183.98449 103041701.57049      2445.28949        49.000  
  19449960.59449 102210232.39149     -8917.24649        49.000  
 16 04 02 13 00 48.7000000  0  2G05G02                                          
  19608137.50849 103041457.30549      2439.10249        49.000  
  19450130.31249 102211124.27349     -8921.44949        49.000  
 16 04 02 13 00 48.8000000  0  2G05G02                                          
  19608091.16449 103041213.75849      2432.12549        49.000  
  19450300.14149 102212016.70349     -8926.73049        49.000  
 16 04 02 13 00 48.9000000  0  2G05G02                                          
  19608044.94549 103040970.88349      2425.18449        49.000  
  19450470.06249 102212909.63349     -8931.93849        49.000  
 16 04 02 13 00 49.0000000  0  2G05G02                                          
  19607998.86749 103040728.76249      2417.88349        49.000  
  19450640.08649 102213803.13749     -8937.43049        49.000  
 16 04 02 13 00 49.1000000  0  2G05G02                                          
  19607952.90649 103040487.22749      2411.88349        49.000  
  19450810.19549 102214697.06649     -8941.84449        49.000  
 16 04 02 13 00 49.2000000  0  2G05G02                                          
  19607907.08649 103040246.39149      2404.92249        49.000  
  19450980.39849 102215591.51649     -8946.93849        49.000  
 16 04 02 13 00 49.3000000  0  2G05G02                                          
  19607861.39149 103040006.25849      2397.98449        49.000  
  19451150.71149 102216486.48449     -8952.16449        49.000  
 16 04 02 13 00 49.4000000  0  2G05G02                                          
  19607815.82049 103039766.77749      2391.18849        49.000  
  19451321.09449 102217381.93849     -8957.22749        49.000  
 16 04 02 13 00 49.5000000  0  2G05G02                                          
  19607770.39149 103039528.02749      2383.97349        49.000  
  19451491.59449 102218277.94549     -8962.68849        49.000  
 16 04 02 13 00 49.6000000  0  2G05G02                                          
  19607725.09449 103039290.02349      2376.34849        49.000  
  19451662.20349 102219174.51649     -8968.52049        49.000  
 16 04 02 13 00 49.7000000  0  2G05G02                                          
  19607679.92249 103039052.61349      2370.47349        49.000  
  19451832.89849 102220071.52749     -8972.68849        49.000  
 16 04 02 13 00 49.8000000  0  2G05G02                                          
  19607634.88349 103038815.96549      2363.02749        49.000  
  19452003.69549 102220969.10549     -8978.40249        49.000  
 16 04 02 13 00 49.9000000  0  2G05G02                                          
  19607589.96949 103038579.96949      2356.57449        49.000  
  19452174.59449 102221867.17649     -8983.17249        49.000  
 16 04 02 13 00 50.0000000  0  2G05G02                                          
  19607545.18849 103038344.60249      2350.24649        49.000  
  19452345.57049 102222765.68049     -8987.63349        49.000  
 16 04 02 13 00 50.1000000  0  2G05G02                                          
  19607500.52349 103038109.88749      2343.65249        49.000  
  19452516.64149 102223664.66849     -8992.46549        49.000  
 16 04 02 13 00 50.2000000  0  2G05G02                                          
  19607456.00849 103037875.90249      2336.35549        49.000  
  19452687.80549 102224564.22349     -8998.03549        49.000  
 16 04 02 13 00 50.3000000  0  2G05G02                                          
  19607411.60949 103037642.59449      2329.63349        49.000  
  19452859.07849 102225464.28149     -9003.16849        49.000  
 16 04 02 13 00 50.4000000  0  2G05G02                                          
  19607367.35249 103037409.93849      2323.06249        49.000  
  19453030.46149 102226364.80149     -9007.77749        49.000  
 16 04 02 13 00 50.5000000  0  2G05G02                                          
  19607323.21949 103037178.02049      2315.71149        49.000  
  19453201.93049 102227265.89549     -9013.50049        49.000  
 16 04 02 13 00 50.6000000  0  2G05G02                                          
  19607279.21949 103036946.77049      2309.05149        49.000  
  19453373.49249 102228167.46549     -9018.25849        49.000  
 16 04 02 13 00 50.7000000  0  2G05G02                                          
  19607235.34449 103036716.21549      2301.98849        49.000  
  19453545.15649 102229069.56249     -9023.57849        49.000  
 16 04 02 13 00 50.8000000  0  2G05G02                                          
  19607191.59449 103036486.31649      2295.39149        49.000  
  19453716.90649 102229972.16049     -9028.56249        49.000  
 16 04 02 13 00 50.9000000  0  2G05G02                                          
  19607147.97749 103036257.09049      2288.96149        49.000  
  19453888.75049 102230875.22749     -9033.02349        49.000  
 16 04 02 13 00 51.0000000  0  2G05G02                                          
  19607104.48449 103036028.52349      2282.27749        49.000  
  19454060.71949 102231778.79749     -9038.16449        49.000  
 16 04 02 13 00 51.1000000  0  2G05G02                                          
  19607061.11749 103035800.64849      2275.28149        49.000  
  19454232.75849 102232682.88349     -9043.43449        49.000  
 16 04 02 13 00 51.2000000  0  2G05G02                                          
  19607017.89849 103035573.51249      2267.73449        49.000  
  19454404.89849 102233587.50849     -9049.06649        49.000  
 16 04 02 13 00 51.3000000  0  2G05G02                                          
  19606974.79749 103035347.00849      2261.38749        49.000  
  19454577.14149 102234492.62149     -9053.76649        49.000  
 16 04 02 13 00 51.4000000  0  2G05G02                                          
  19606931.82849 103035121.20749      2254.27049        49.000  
  19454749.47749 102235398.25849     -9059.12949        49.000  
 16 04 02 13 00 51.5000000  0  2G05G02                                          
  19606888.99249 103034896.11749      2247.51249        49.000  
  19454921.91449 102236304.40649     -9064.07449        49.000  
 16 04 02 13 00 51.6000000  0  2G05G02                                          
  19606846.28949 103034671.67249      2240.75849        49.000  
  19455094.43849 102237211.04749     -9069.23449        49.000  
 16 04 02 13 00 51.7000000  0  2G05G02                                          
  19606803.71149 103034447.94549      2234.08249        49.000  
  19455267.07049 102238118.21149     -9073.91849        49.000  
 16 04 02 13 00 51.8000000  0  2G05G02                                          
  19606761.25049 103034224.80549      2227.80149        49.000  
  19455439.78949 102239025.80149     -9078.62549        49.000  
 16 04 02 13 00 51.9000000  0  2G05G02                                          
  19606718.93849 103034002.43849      2220.09049        49.000  
  19455612.60949 102239933.98849     -9084.48449        49.000  
 16 04 02 13 00 52.0000000  0  2G05G02                                          
  19606676.75849 103033780.76249      2213.16049        49.000  
  19455785.54749 102240842.68849     -9089.66849        49.000  
 16 04 02 13 00 52.1000000  0  2G05G02                                          
  19606634.69549 103033559.75049      2206.55549        49.000  
  19455958.55549 102241751.87149     -9094.43449        49.000  
 16 04 02 13 00 52.2000000  0  2G05G02                                          
  19606592.76649 103033339.40249      2199.92649        49.000  
  19456131.66449 102242661.54749     -9099.35949        49.000  
 16 04 02 13 00 52.3000000  0  2G05G02                                          
  19606550.97749 103033119.77749      2192.66849        49.000  
  19456304.87549 102243571.76649     -9104.79349        49.000  
 16 04 02 13 00 52.4000000  0  2G05G02                                          
  19606509.31249 103032900.81249      2185.99649        49.000  
  19456478.19549 102244482.48449     -9109.85949        49.000  
 16 04 02 13 00 52.5000000  0  2G05G02                                          
  19606467.78149 103032682.54349      2179.30949        49.000  
  19456651.59449 102245393.70349     -9114.75849        49.000  
 16 04 02 13 00 52.6000000  0  2G05G02                                          
  19606426.35949 103032464.89549      2173.12549        49.000  
  19456825.06249 102246305.37149     -9119.04749        49.000  
 16 04 02 13 00 52.7000000  0  2G05G02                                          
  19606385.07049 103032247.93049      2166.23449        49.000  
  19456998.64849 102247217.55149     -9124.25049        49.000  
 16 04 02 13 00 52.8000000  0  2G05G02                                          
  19606343.92249 103032031.68849      2158.87949        49.000  
  19457172.31249 102248130.26649     -9129.73449        49.000  
 16 04 02 13 00 52.9000000  0  2G05G02                                          
  19606302.88349 103031816.04749      2153.04749        49.000  
  19457346.07849 102249043.42649     -9133.93849        49.000  
 16 04 02 13 00 53.0000000  0  2G05G02                                          
  19606261.98449 103031601.15249      2145.54749        49.000  
  19457519.94549 102249957.14549     -9139.81649        49.000  
 16 04 02 13 00 53.1000000  0  2G05G02                                          
  19606221.21949 103031386.90649      2139.02349        49.000  
  19457693.90649 102250871.33249     -9144.41049        49.000  
 16 04 02 13 00 53.2000000  0  2G05G02                                          
  19606180.55549 103031173.28949      2132.62549        49.000  
  19457867.97749 102251785.98049     -9149.09049        49.000  
 16 04 02 13 00 53.3000000  0  2G05G02                                          
  19606140.04749 103030960.41449      2125.25849        49.000  
  19458042.13349 102252701.19949     -9154.76649        49.000  
 16 04 02 13 00 53.4000000  0  2G05G02                                          
  19606099.68049 103030748.23049      2118.39149        49.000  
  19458216.39849 102253616.91449     -9159.65249        49.000  
 16 04 02 13 00 53.5000000  0  2G05G02                                          
  19606059.43049 103030536.69949      2111.71149        49.000  
  19458390.74249 102254533.12549     -9164.74649        49.000  
 16 04 02 13 00 53.6000000  0  2G05G02                                          
  19606019.30549 103030325.85549      2104.89549        49.000  
  19458565.18049 102255449.83249     -9169.66449        49.000  
 16 04 02 13 00 53.7000000  0  2G05G02                                          
  19605979.32849 103030115.80149      2097.02049        49.000  
  19458739.74249 102256367.16049     -9175.88749        49.000  
 16 04 02 13 00 53.8000000  0  2G05G02                                          
  19605939.46949 103029906.35549      2090.82849        49.000  
  19458914.38349 102257284.91849     -9180.25049        49.000  
 16 04 02 13 00 53.9000000  0  2G05G02                                          
  19605899.75049 103029697.61749      2083.91449        49.000  
  19459089.13349 102258203.19949     -9185.23449        49.000  
 16 04 02 13 00 54.0000000  0  2G05G02                                          
  19605860.14849 103029489.52749      2077.41049        49.000  
  19459263.97749 102259121.96149     -9190.09849        49.000  
 16 04 02 13 00 54.1000000  0  2G05G02                                          
  19605820.67249 103029282.04349      2071.54749        49.000  
  19459438.89149 102260041.16849     -9194.48449        49.000  
 16 04 02 13 00 54.2000000  0  2G05G02                                          
  19605781.33649 103029075.32449      2063.55949        49.000  
  19459613.93049 102260960.94549     -9200.51249        49.000  
 16 04 02 13 00 54.3000000  0  2G05G02                                          
  19605742.13349 103028869.30949      2056.70749        49.000  
  19459789.05549 102261881.24649     -9205.58249        49.000  
 16 04 02 13 00 54.4000000  0  2G05G02                                          
  19605703.04749 103028663.92649      2050.36349        49.000  
  19459964.25049 102262802.00449     -9210.14549        49.000  
 16 04 02 13 00 54.5000000  0  2G05G02                                          
  19605664.09449 103028459.24649      2043.33649        49.000  
  19460139.57049 102263723.30549     -9215.58649        49.000  
 16 04 02 13 00 54.6000000  0  2G05G02                                          
  19605625.28149 103028255.30149      2035.96949        49.000  
  19460314.98449 102264645.14149     -9221.01249        49.000  
 16 04 02 13 00 54.7000000  0  2G05G02                                          
  19605586.58649 103028051.94949      2030.09449        49.000  
  19460490.48449 102265567.41049     -9225.12549        49.000  
 16 04 02 13 00 54.8000000  0  2G05G02                                          
  19605548.00849 103027849.25449      2023.73449        49.000  
  19460666.06249 102266490.14849     -9229.73449        49.000  
 16 04 02 13 00 54.9000000  0  2G05G02                                          
  19605509.57049 103027647.25049      2016.55549        49.000  
  19460841.75049 102267413.40249     -9235.04349        49.000  
 16 04 02 13 00 55.0000000  0  2G05G02                                          
  19605471.26649 103027445.98449      2009.04749        49.000  
  19461017.53949 102268337.21949     -9240.87949        49.000  
 16 04 02 13 00 55.1000000  0  2G05G02                                          
  19605433.09449 103027245.39849      2002.33649        49.000  
  19461193.43849 102269261.54349     -9245.81249        49.000  
 16 04 02 13 00 55.2000000  0  2G05G02                                          
  19605395.05549 103027045.43449      1996.07849        49.000  
  19461369.41449 102270186.31249     -9250.34049        49.000  
 16 04 02 13 00 55.3000000  0  2G05G02                                          
  19605357.14849 103026846.24649      1988.66049        49.000  
  19461545.50849 102271111.67649     -9255.93449        49.000  
 16 04 02 13 00 55.4000000  0  2G05G02                                          
  19605319.36749 103026647.73049      1981.40649        49.000  
  19461721.68849 102272037.52049     -9261.23849        49.000  
 16 04 02 13 00 55.5000000  0  2G05G02                                          
  19605281.72749 103026449.90249      1974.73849        49.000  
  19461897.96949 102272963.91049     -9266.48449        49.000  
 16 04 02 13 00 55.6000000  0  2G05G02                                          
  19605244.21149 103026252.77749      1967.53549        49.000  
  19462074.35949 102273890.79749     -9271.62149        49.000  
 16 04 02 13 00 55.7000000  0  2G05G02                                          
  19605206.81249 103026056.25049      1961.88749        49.000  
  19462250.82849 102274818.12949     -9275.82849        49.000  
 16 04 02 13 00 55.8000000  0  2G05G02                                          
  19605169.55549 103025860.42649      1954.75449        49.000  
  19462427.39149 102275745.96149     -9281.04749        49.000  
 16 04 02 13 00 55.9000000  0  2G05G02                                          
  19605132.43049 103025665.32849      1947.42249        49.000  
  19462604.05549 102276674.34849     -9286.52049        49.000  
 16 04 02 13 00 56.0000000  0  2G05G02                                          
  19605095.42249 103025470.88749      1940.70349        49.000  
  19462780.82049 102277603.22349     -9291.40649        49.000  
 16 04 02 13 00 56.1000000  0  2G05G02                                          
  19605058.56249 103025277.16849      1933.73049        49.000  
  19462957.68049 102278532.64849     -9296.76649        49.000  
 16 04 02 13 00 56.2000000  0  2G05G02                                          
  19605021.81249 103025084.06249      1927.54749        49.000  
  19463134.63349 102279462.50049     -9301.10249        49.000  
 16 04 02 13 00 56.3000000  0  2G05G02                                          
  19604985.20349 103024891.69549      1920.16449        49.000  
  19463311.68049 102280392.90649     -9306.67249        49.000  
 16 04 02 13 00 56.4000000  0  2G05G02                                          
  19604948.69549 103024699.91449      1914.35949        49.000  
  19463488.81249 102281323.72749     -9310.70749        49.000  
 16 04 02 13 00 56.5000000  0  2G05G02                                          
  19604912.33649 103024508.82849      1907.66849        49.000  
  19463666.04749 102282255.07849     -9315.75449        49.000  
 16 04 02 13 00 56.6000000  0  2G05G02                                          
  19604876.09449 103024318.37149      1901.06649        49.000  
  19463843.36749 102283186.86349     -9320.44549        49.000  
 16 04 02 13 00 56.7000000  0  2G05G02                                          
  19604839.98449 103024128.61749      1894.20749        49.000  
  19464020.78149 102284119.18449     -9325.63349        49.000  
 16 04 02 13 00 56.8000000  0  2G05G02                                          
  19604804.00849 103023939.53149      1887.36749        49.000  
  19464198.29749 102285051.99249     -9330.73449        49.000  
 16 04 02 13 00 56.9000000  0  2G05G02                                          
  19604768.15649 103023751.14849      1880.26249        49.000  
  19464375.89849 102285985.31649     -9335.88349        49.000  
 16 04 02 13 00 57.0000000  0  2G05G02                                          
  19604732.43849 103023563.44549      1873.41449        49.000  
  19464553.59449 102286919.16049     -9341.04349        49.000  
 16 04 02 13 00 57.1000000  0  2G05G02                                          
  19604696.85249 103023376.44149      1866.52349        49.000  
  19464731.39849 102287853.50849     -9346.02749        49.000  
 16 04 02 13 00 57.2000000  0  2G05G02                                          
  19604661.39149 103023190.10549      1859.83249        49.000  
  19464909.29749 102288788.36349     -9351.12549        49.000  
 16 04 02 13 00 57.3000000  0  2G05G02                                          
  19604626.07049 103023004.48449      1852.63349        49.000  
  19465087.29749 102289723.74249     -9356.48449        49.000  
 16 04 02 13 00 57.4000000  0  2G05G02                                          
  19604590.87549 103022819.50449      1846.30549        49.000  
  19465265.38349 102290659.58649     -9361.00449        49.000  
 16 04 02 13 00 57.5000000  0  2G05G02                                          
  19604555.81249 103022635.24249      1839.04749        49.000  
  19465443.57049 102291595.97349     -9366.44549        49.000  
 16 04 02 13 00 57.6000000  0  2G05G02                                          
  19604520.87549 103022451.64549      1832.52049        49.000  
  19465621.85249 102292532.85549     -9371.33249        49.000  
 16 04 02 13 00 57.7000000  0  2G05G02                                          
  19604486.06249 103022268.70349      1825.91849        49.000  
  19465800.22749 102293470.21549     -9376.16849        49.000  
 16 04 02 13 00 57.8000000  0  2G05G02                                          
  19604451.39849 103022086.54749      1818.00449        49.000  
  19465978.70349 102294408.16849     -9382.11349        49.000  
 16 04 02 13 00 57.9000000  0  2G05G02                                          
  19604416.85249 103021904.98449      1812.26249        49.000  
  19466157.26649 102295346.53949     -9386.16449        49.000  
 16 04 02 13 00 58.0000000  0  2G05G02                                          
  19604382.43849 103021724.08649      1805.45749        49.000  
  19466335.93049 102296285.40649     -9391.19549        49.000  
 16 04 02 13 00 58.1000000  0  2G05G02                                          
  19604348.14149 103021543.87949      1798.62149        49.000  
  19466514.68049 102297224.78149     -9396.33249        49.000  
 16 04 02 13 00 58.2000000  0  2G05G02                                          
  19604313.98449 103021364.40249      1791.30149        49.000  
  19466693.53949 102298164.71149     -9401.79349        49.000  
 16 04 02 13 00 58.3000000  0  2G05G02                                          
  19604279.96149 103021185.58649      1784.77349        49.000  
  19466872.49249 102299105.11749     -9406.59849        49.000  
 16 04 02 13 00 58.4000000  0  2G05G02                                          
  19604246.06249 103021007.48049      1777.50049        49.000  
  19467051.54749 102300046.05949     -9411.99649        49.000  
 16 04 02 13 00 58.5000000  0  2G05G02                                          
  19604212.30549 103020830.04749      1770.99649        49.000  
  19467230.69549 102300987.50049     -9416.85549        49.000  
 16 04 02 13 00 58.6000000  0  2G05G02                                          
  19604178.66449 103020653.25049      1764.44949        49.000  
  19467409.93849 102301929.38749     -9421.49249        49.000  
 16 04 02 13 00 58.7000000  0  2G05G02                                          
  19604145.14849 103020477.12549      1757.75449        49.000  
  19467589.26649 102302871.77749     -9426.42249        49.000  
 16 04 02 13 00 58.8000000  0  2G05G02                                          
  19604111.77349 103020301.74249      1750.26649        49.000  
  19467768.71149 102303814.74249     -9432.35949        49.000  
 16 04 02 13 00 58.9000000  0  2G05G02                                          
  19604078.51649 103020126.97749      1744.34849        49.000  
  19467948.23449 102304758.11749     -9436.31249        49.000  
 16 04 02 13 00 59.0000000  0  2G05G02                                          
  19604045.39149 103019952.90249      1737.21549        49.000  
  19468127.85949 102305702.02749     -9441.59849        49.000  
 16 04 02 13 00 59.1000000  0  2G05G02                                          
  19604012.39149 103019779.49249      1730.80149        49.000  
  19468307.57049 102306646.41449     -9446.29349        49.000  
 16 04 02 13 00 59.2000000  0  2G05G02                                          
  19603979.53149 103019606.78149      1723.51649        49.000  
  19468487.37549 102307591.32849     -9451.81249        49.000  
 16 04 02 13 00 59.3000000  0  2G05G02                                          
  19603946.78949 103019434.73449      1716.99649        49.000  
  19468667.27349 102308536.71549     -9456.43849        49.000  
 16 04 02 13 00 59.4000000  0  2G05G02                                          
  19603914.18849 103019263.39549      1709.81649        49.000  
  19468847.27349 102309482.64149     -9461.77349        49.000  
 16 04 02 13 00 59.5000000  0  2G05G02                                          
  19603881.70349 103019092.68049      1703.73449        49.000  
  19469027.35949 102310429.01649     -9466.14549        49.000  
 16 04 02 13 00 59.6000000  0  2G05G02                                          
  19603849.35249 103018922.67649      1696.41049        49.000  
  19469207.53949 102311375.91049     -9471.53549        49.000  
 16 04 02 13 00 59.7000000  0  2G05G02                                          
  19603817.13349 103018753.39549      1689.22349        49.000  
  19469387.83649 102312323.36349     -9477.09849        49.000  
 16 04 02 13 00 59.8000000  0  2G05G02                                          
  19603785.04749 103018584.75449      1682.88749        49.000  
  19469568.21949 102313271.28149     -9481.80549        49.000  
 16 04 02 13 00 59.9000000  0  2G05G02                                          
  19603753.08649 103018416.79349      1676.04749        49.000  
  19469748.69549 102314219.68849     -9486.78149        49.000  
 16 04 02 13 01  0.0000000  0  2G05G02                                          
  19603721.26649 103018249.53949      1669.02049        49.000  
  19469929.27349 102315168.62949     -9492.04349        49.000  
 16 04 02 13 01  0.1000000  0  2G05G02                                          
  19603689.56249 103018082.96549      1662.24249        49.000  
  19470109.94549 102316118.05949     -9496.79749        49.000  
 16 04 02 13 01  0.2000000  0  2G05G02                                          
  19603657.99249 103017917.07049      1655.32449        49.000  
  19470290.71149 102317068.00849     -9502.17649        49.000  
 16 04 02 13 01  0.3000000  0  2G05G02                                          
  19603626.55549 103017751.82849      1648.97349        49.000  
  19470471.57049 102318018.41049     -9506.50049        49.000  
 16 04 02 13 01  0.4000000  0  2G05G02                                          
  19603595.21949 103017587.18849      1643.03149        49.000  
  19470652.50849 102318969.25849     -9510.89149        49.000  
 16 04 02 13 01  0.5000000  0  2G05G02                                          
  19603564.03149 103017423.30149      1635.56249        49.000  
  19470833.54749 102319920.66849     -9516.41049        49.000  
 16 04 02 13 01  0.6000000  0  2G05G02                                          
  19603532.98449 103017260.13349      1628.07049        49.000  
  19471014.71149 102320872.61349     -9522.04349        49.000  
 16 04 02 13 01  0.7000000  0  2G05G02                                          
  19603502.07849 103017097.69549      1620.62549        49.000  
  19471195.96949 102321825.12549     -9527.89849        49.000  
 16 04 02 13 01  0.8000000  0  2G05G02                                          
  19603471.28149 103016935.86749      1614.73049        49.000  
  19471377.31249 102322778.05949     -9531.96149        49.000  
 16 04 02 13 01  0.9000000  0  2G05G02                                          
  19603440.61749 103016774.74649      1607.82449        49.000  
  19471558.75049 102323731.51649     -9537.06649        49.000  
 16 04 02 13 01  1.0000000  0  2G05G02                                          
  19603410.10249 103016614.37149      1600.18849        49.000  
  19471740.28949 102324685.54349     -9542.91449        49.000  
 16 04 02 13 01  1.1000000  0  2G05G02                                          
  19603379.71149 103016454.65249      1593.57849        49.000  
  19471921.92249 102325640.04349     -9547.67249        49.000  
 16 04 02 13 01  1.2000000  0  2G05G02                                          
  19603349.43849 103016295.60249      1587.10949        49.000  
  19472103.65649 102326595.03549     -9552.45349        49.000  
 16 04 02 13 01  1.3000000  0  2G05G02                                          
  19603319.30549 103016137.23449      1579.97349        49.000  
  19472285.48449 102327550.53949     -9557.73049        49.000  
 16 04 02 13 01  1.4000000  0  2G05G02                                          
  19603289.30549 103015979.57849      1573.15249        49.000  
  19472467.40649 102328506.56249     -9562.62549        49.000  
 16 04 02 13 01  1.5000000  0  2G05G02                                          
  19603259.43849 103015822.60949      1566.02349        49.000  
  19472649.43049 102329463.10949     -9568.03149        49.000  
 16 04 02 13 01  1.6000000  0  2G05G02                                          
  19603229.69549 103015666.35549      1559.16449        49.000  
  19472831.55549 102330420.18449     -9573.16049        49.000  
 16 04 02 13 01  1.7000000  0  2G05G02                                          
  19603200.07049 103015510.67649      1553.22349        49.000  
  19473013.75849 102331377.64849     -9577.27049        49.000  
 16 04 02 13 01  1.8000000  0  2G05G02                                          
  19603170.59449 103015355.73449      1546.08649        49.000  
  19473196.05549 102332335.67649     -9582.58249        49.000  
 16 04 02 13 01  1.9000000  0  2G05G02                                          
  19603141.22749 103015201.42649      1539.58649        49.000  
  19473378.44549 102333294.16449     -9587.42649        49.000  
 16 04 02 13 01  2.0000000  0  2G05G02                                          
  19603111.98449 103015047.77349      1533.15249        49.000  
  19473560.93849 102334253.11749     -9592.05949        49.000  
 16 04 02 13 01  2.1000000  0  2G05G02                                          
  19603082.88349 103014894.80949      1526.01249        49.000  
  19473743.51649 102335212.57849     -9597.16049        49.000  
 16 04 02 13 01  2.2000000  0  2G05G02                                          
  19603053.89849 103014742.53149      1519.26649        49.000  
  19473926.20349 102336172.55949     -9602.32849        49.000  
 16 04 02 13 01  2.3000000  0  2G05G02                                          
  19603025.05549 103014590.95349      1512.09849        49.000  
  19474108.97749 102337133.05149     -9607.63349        49.000  
 16 04 02 13 01  2.4000000  0  2G05G02                                          
  19602996.34449 103014440.03949      1505.55949        49.000  
  19474291.85949 102338094.02349     -9612.34849        49.000  
 16 04 02 13 01  2.5000000  0  2G05G02                                          
  19602967.76649 103014289.83649      1498.53949        49.000  
  19474474.82849 102339055.53149     -9617.53549        49.000  
 16 04 02 13 01  2.6000000  0  2G05G02                                          
  19602939.30549 103014140.26649      1492.17249        49.000  
  19474657.88349 102340017.50049     -9622.15649        49.000  
 16 04 02 13 01  2.7000000  0  2G05G02                                          
  19602910.97749 103013991.37949      1485.39149        49.000  
  19474841.03149 102340979.96149     -9627.10249        49.000  
 16 04 02 13 01  2.8000000  0  2G05G02                                          
  19602882.78149 103013843.19149      1478.31649        49.000  
  19475024.28949 102341942.95749     -9632.49649        49.000  
 16 04 02 13 01  2.9000000  0  2G05G02                                          
  19602854.71149 103013695.68049      1471.73449        49.000  
  19475207.63349 102342906.43849     -9637.23049        49.000  
 16 04 02 13 01  3.0000000  0  2G05G02                                          
  19602826.75849 103013548.78549      1465.48849        49.000  
  19475391.05549 102343870.35549     -9641.60949        49.000  
 16 04 02 13 01  3.1000000  0  2G05G02                                          
  19602798.93849 103013402.62149      1458.19549        49.000  
  19475574.58649 102344834.82849     -9647.20749        49.000  
 16 04 02 13 01  3.2000000  0  2G05G02                                          
  19602771.25049 103013257.11349      1451.69149        49.000  
  19475758.20349 102345799.77349     -9651.98849        49.000  
 16 04 02 13 01  3.3000000  0  2G05G02                                          
  19602743.70349 103013112.35549      1443.87949        49.000  
  19475941.93049 102346765.27749     -9657.82449        49.000  
 16 04 02 13 01  3.4000000  0  2G05G02                                          
  19602716.28149 103012968.25849      1437.29749        49.000  
  19476125.75849 102347731.27749     -9662.65649        49.000  
 16 04 02 13 01  3.5000000  0  2G05G02                                          
  19602688.98449 103012824.80149      1431.00449        49.000  
  19476309.67249 102348697.74249     -9667.29749        49.000  
 16 04 02 13 01  3.6000000  0  2G05G02                                          
  19602661.82049 103012682.05149      1424.19549        49.000  
  19476493.68849 102349664.71949     -9672.12549        49.000  
 16 04 02 13 01  3.7000000  0  2G05G02                                          
  19602634.77349 103012539.94149      1417.72349        49.000  
  19476677.78949 102350632.17249     -9676.93449        49.000  
 16 04 02 13 01  3.8000000  0  2G05G02                                          
  19602607.86749 103012398.53549      1410.54349        49.000  
  19476861.98449 102351600.12149     -9682.16049        49.000  
 16 04 02 13 01  3.9000000  0  2G05G02                                          
  19602581.08649 103012257.80949      1403.89549        49.000  
  19477046.28149 102352568.60249     -9687.23849        49.000  
 16 04 02 13 01  4.0000000  0  2G05G02                                          
  19602554.43849 103012117.74249      1397.14149        49.000  
  19477230.66449 102353537.55149     -9692.07449        49.000  
 16 04 02 13 01  4.1000000  0  2G05G02                                          
  19602527.91449 103011978.37149      1390.05549        49.000  
  19477415.14849 102354507.00449     -9697.24649        49.000  
 16 04 02 13 01  4.2000000  0  2G05G02                                          
  19602501.53949 103011839.72749      1383.00449        49.000  
  19477599.73449 102355477.02049     -9702.53149        49.000  
 16 04 02 13 01  4.3000000  0  2G05G02                                          
  19602475.25849 103011701.63749      1377.46949        49.000  
  19477784.39149 102356447.39549     -9706.30949        49.000  
 16 04 02 13 01  4.4000000  0  2G05G02                                          
  19602449.11749 103011564.27749      1370.34449        49.000  
  19477969.14849 102357418.33649     -9711.78949        49.000  
 16 04 02 13 01  4.5000000  0  2G05G02                                          
  19602423.10249 103011427.57049      1363.49249        49.000  
  19478154.00049 102358389.73449     -9716.55149        49.000  
 16 04 02 13 01  4.6000000  0  2G05G02                                          
  19602397.21949 103011291.53149      1356.98449        49.000  
  19478338.94549 102359361.63349     -9721.41849        49.000  
 16 04 02 13 01  4.7000000  0  2G05G02                                          
  19602371.46949 103011156.19949      1349.82849        49.000  
  19478523.99249 102360334.04749     -9726.67249        49.000  
 16 04 02 13 01  4.8000000  0  2G05G02                                          
  19602345.84449 103011021.57849      1342.76249        49.000  
  19478709.14149 102361306.99249     -9731.98449        49.000  
 16 04 02 13 01  4.9000000  0  2G05G02                                          
  19602320.35249 103010887.58649      1336.33249        49.000  
  19478894.37549 102362280.40249     -9736.77049        49.000  
 16 04 02 13 01  5.0000000  0  2G05G02                                          
  19602294.99249 103010754.31249      1329.14149        49.000  
  19479079.71149 102363254.32849     -9741.92649        49.000  
 16 04 02 13 01  5.1000000  0  2G05G02                                          
  19602269.75849 103010621.73049      1322.26249        49.000  
  19479265.14149 102364228.78549     -9747.19949        49.000  
 16 04 02 13 01  5.2000000  0  2G05G02                                          
  19602244.67249 103010489.87149      1315.32849        49.000  
  19479450.67249 102365203.76249     -9752.21549        49.000  
 16 04 02 13 01  5.3000000  0  2G05G02                                          
  19602219.70349 103010358.64149      1308.52349        49.000  
  19479636.28949 102366179.20749     -9757.16849        49.000  
 16 04 02 13 01  5.4000000  0  2G05G02                                          
  19602194.85949 103010228.11349      1301.81249        49.000  
  19479822.01649 102367155.16449     -9762.10549        49.000  
 16 04 02 13 01  5.5000000  0  2G05G02                                          
  19602170.14849 103010098.25049      1295.09849        49.000  
  19480007.82049 102368131.60249     -9766.96949        49.000  
 16 04 02 13 01  5.6000000  0  2G05G02                                          
  19602145.57049 103009969.10549      1288.03549        49.000  
  19480193.73449 102369108.59849     -9772.32849        49.000  
 16 04 02 13 01  5.7000000  0  2G05G02                                          
  19602121.11749 103009840.61349      1281.41049        49.000  
  19480379.73449 102370086.03949     -9776.89849        49.000  
 16 04 02 13 01  5.8000000  0  2G05G02                                          
  19602096.79749 103009712.81249      1274.51649        49.000  
