     2.10           OBSERVATION DATA    G (GPS)             RINEX VERSION / TYPE
Convert v1.8.0                          09-Jun-2016 14:19   PGM / RUN BY / DATE 
Signal Strength values S1,S2 are in dBHz                    COMMENT             
                                                            MARKER NAME         
                                                            MARKER NUMBER       
                                                            OBSERVER / AGENCY   
                    NovAtel GPSCard                         REC # / TYPE / VERS 
                                                            ANT # / TYPE        
0.0000        0.0000        0.0000                          APPROX POSITION XYZ 
        0.0000        0.0000        0.0000                  ANTENNA: DELTA H/E/N
     1     0                                                WAVELENGTH FACT L1/2
     1     0     2   G03   G16                              WAVELENGTH FACT L1/2
                                                            COMMENT             
                                                            COMMENT             
                                                            COMMENT             
                                                            COMMENT             
                                                            COMMENT             
                                                            COMMENT             
     4    C1    L1    D1    S1                              # / TYPES OF OBSERV 
     0.100                                                  INTERVAL            
  2016    04    02    12    30    37.0000000    GPS         TIME OF FIRST OBS   
  2016    04    02    12    32     1.8000000    GPS         TIME OF LAST OBS    
Leap Seconds Unknown                                        COMMENT             
                                                            END OF HEADER       
 16 04 02 12 30 37.0000000  0  1G16                                             
  22492015.89849 118196340.00059      2477.49649        49.000  
 16 04 02 12 30 37.1000000  0  1G16                                             
  22491968.79749 118196092.46149      2473.35249        49.000  
 16 04 02 12 30 37.2000000  0  1G16                                             
  22491921.75849 118195845.28549      2469.55549        49.000  
 16 04 02 12 30 37.3000000  0  2G03G16                                          
  25411317.12549 133537372.00059     -1497.56249        49.000  
  22491874.82849 118195598.67249      2463.72749        49.000  
 16 04 02 12 30 37.4000000  0  2G03G16                                          
  25411345.66449 133537521.96149     -1501.75049        49.000  
  22491827.98449 118195352.50449      2459.34049        49.000  
 16 04 02 12 30 37.5000000  0  2G03G16                                          
  25411374.28149 133537672.29749     -1505.64549        49.000  
  22491781.21949 118195106.73449      2455.32049        49.000  
 16 04 02 12 30 37.6000000  0  2G03G16                                          
  25411402.96949 133537823.07449     -1509.82449        49.000  
  22491734.54749 118194861.44949      2450.73049        49.000  
 16 04 02 12 30 37.7000000  0  2G03G16                                          
  25411431.72749 133537974.24649     -1514.04749        49.000  
  22491687.94549 118194616.57449      2446.28149        49.000  
 16 04 02 12 30 37.8000000  0  2G03G16                                          
  25411460.57849 133538125.86349     -1518.34049        49.000  
  22491641.44549 118194372.16849      2441.75849        49.000  
 16 04 02 12 30 37.9000000  0  2G03G16                                          
  25411489.50849 133538277.87549     -1522.05149        49.000  
  22491595.01649 118194128.19549      2437.57449        49.000  
 16 04 02 12 30 38.0000000  0  2G03G16                                          
  25411518.50849 133538430.26249     -1525.96949        49.000  
  22491548.66449 118193884.60949      2433.51249        49.000  
 16 04 02 12 30 38.1000000  0  2G03G16                                          
  25411547.60249 133538583.12549     -1530.70349        48.000  
  22491502.41449 118193641.53549      2428.48049        49.000  
 16 04 02 12 30 38.2000000  0  2G03G16                                          
  25411576.77349 133538736.44549     -1535.37149        48.000  
  22491456.24249 118193398.93049      2423.78149        49.000  
 16 04 02 12 30 38.3000000  0  2G03G16                                          
  25411606.01649 133538890.10249     -1538.69549        48.000  
  22491410.14849 118193156.71949      2419.91049        49.000  
 16 04 02 12 30 38.4000000  0  2G03G16                                          
  25411635.34449 133539044.23449     -1543.39549        48.000  
  22491364.14149 118192914.98849      2414.95749        49.000  
 16 04 02 12 30 38.5000000  0  2G03G16                                          
  25411664.75849 133539198.85249     -1548.34849        48.000  
  22491318.24249 118192673.77049      2409.81649        49.000  
 16 04 02 12 30 38.6000000  0  2G03G16                                          
  25411694.25849 133539353.86749     -1552.28549        48.000  
  22491272.41449 118192432.97749      2405.60949        49.000  
 16 04 02 12 30 38.7000000  0  2G03G16                                          
  25411723.83649 133539509.28549     -1556.31649        48.000  
  22491226.68049 118192192.62149      2401.23449        49.000  
 16 04 02 12 30 38.8000000  0  2G03G16                                          
  25411753.48449 133539665.10249     -1560.33249        48.000  
  22491181.01649 118191952.67249      2397.21549        49.000  
 16 04 02 12 30 38.9000000  0  2G03G16                                          
  25411783.22749 133539821.36749     -1564.83249        48.000  
  22491135.44549 118191713.21949      2392.23849        49.000  
 16 04 02 12 30 39.0000000  0  2G03G16                                          
  25411813.04749 133539978.11349     -1569.71949        48.000  
  22491089.96949 118191474.25849      2387.22349        49.000  
 16 04 02 12 30 39.1000000  0  2G03G16                                          
  25411842.93849 133540135.21549     -1573.27049        49.000  
  22491044.57049 118191235.68049      2383.47749        49.000  
 16 04 02 12 30 39.2000000  0  2G03G16                                          
  25411872.92249 133540292.74249     -1577.52349        49.000  
  22490999.28149 118190997.57449      2378.73849        49.000  
 16 04 02 12 30 39.3000000  0  2G03G16                                          
  25411902.99249 133540450.69149     -1581.57049        49.000  
  22490954.05549 118190759.89849      2374.56649        49.000  
 16 04 02 12 30 39.4000000  0  2G03G16                                          
  25411933.12549 133540609.04349     -1585.81249        48.000  
  22490908.93049 118190522.65649      2370.00449        49.000  
 16 04 02 12 30 39.5000000  0  2G03G16                                          
  25411963.37549 133540767.89849     -1590.70749        49.000  
  22490863.88349 118190285.94149      2364.81649        49.000  
 16 04 02 12 30 39.6000000  0  2G03G16                                          
  25411993.68049 133540927.16849     -1594.99649        49.000  
  22490818.90649 118190049.67249      2360.27749        49.000  
 16 04 02 12 30 39.7000000  0  2G03G16                                          
  25412024.04749 133541086.82449     -1598.75449        49.000  
  22490774.02349 118189813.81249      2356.27349        49.000  
 16 04 02 12 30 39.8000000  0  2G03G16                                          
  25412054.52349 133541246.96549     -1603.59049        49.000  
  22490729.25049 118189578.46949      2351.12149        49.000  
 16 04 02 12 30 39.9000000  0  2G03G16                                          
  25412085.07049 133541407.51249     -1607.63349        49.000  
  22490684.54749 118189343.55949      2346.78149        49.000  
 16 04 02 12 30 40.0000000  0  2G03G16                                          
  25412115.69549 133541568.47349     -1611.69949        49.000  
  22490639.93049 118189109.08249      2342.55549        49.000  
 16 04 02 12 30 40.1000000  0  2G03G16                                          
  25412146.39849 133541729.83249     -1615.74649        48.000  
  22490595.39149 118188875.03549      2338.10949        49.000  
 16 04 02 12 30 40.2000000  0  2G03G16                                          
  25412177.18049 133541891.59449     -1619.85549        49.000  
  22490550.93049 118188641.41049      2333.87949        49.000  
 16 04 02 12 30 40.3000000  0  2G03G16                                          
  25412208.05549 133542053.82449     -1624.49649        49.000  
  22490506.57049 118188408.29749      2328.85949        49.000  
 16 04 02 12 30 40.4000000  0  2G03G16                                          
  25412239.00849 133542216.49249     -1628.91849        49.000  
  22490462.29749 118188175.64149      2324.17249        49.000  
 16 04 02 12 30 40.5000000  0  2G03G16                                          
  25412270.05549 133542379.58649     -1633.27749        49.000  
  22490418.10949 118187943.42649      2319.60249        49.000  
 16 04 02 12 30 40.6000000  0  2G03G16                                          
  25412301.15649 133542543.04749     -1636.78149        49.000  
  22490373.99249 118187711.61349      2315.80949        49.000  
 16 04 02 12 30 40.7000000  0  2G03G16                                          
  25412332.34449 133542706.90649     -1640.76249        48.000  
  22490329.96149 118187480.23049      2311.67649        49.000  
 16 04 02 12 30 40.8000000  0  2G03G16                                          
  25412363.60249 133542871.17649     -1644.71149        48.000  
  22490286.00849 118187249.28149      2307.23849        49.000  
 16 04 02 12 30 40.9000000  0  2G03G16                                          
  25412394.97749 133543035.97749     -1650.34049        48.000  
  22490242.16449 118187018.88349      2301.46549        49.000  
 16 04 02 12 30 41.0000000  0  2G03G16                                          
  25412426.40649 133543201.17649     -1654.24249        48.000  
  22490198.40649 118186788.92249      2297.22749        49.000  
 16 04 02 12 30 41.1000000  0  2G03G16                                          
  25412457.91449 133543366.73449     -1657.75449        48.000  
  22490154.71949 118186559.33649      2293.61349        49.000  
 16 04 02 12 30 41.2000000  0  2G03G16                                          
  25412489.49249 133543532.69149     -1661.57449        49.000  
  22490111.10949 118186330.18849      2289.37949        49.000  
 16 04 02 12 30 41.3000000  0  2G03G16                                          
  25412521.14849 133543699.10249     -1666.12149        48.000  
  22490067.59449 118186101.51249      2284.45349        49.000  
 16 04 02 12 30 41.4000000  0  2G03G16                                          
  25412552.89849 133543865.96549     -1670.90649        48.000  
  22490024.17249 118185873.30949      2279.68449        49.000  
 16 04 02 12 30 41.5000000  0  2G03G16                                          
  25412584.73449 133544033.25449     -1675.00449        48.000  
  22489980.83649 118185645.57849      2275.02049        49.000  
 16 04 02 12 30 41.6000000  0  2G03G16                                          
  25412616.64149 133544200.91849     -1678.67649        48.000  
  22489937.56249 118185418.24249      2271.07449        49.000  
 16 04 02 12 30 41.7000000  0  2G03G16                                          
  25412648.64149 133544369.05149     -1683.62149        48.000  
  22489894.39849 118185191.38749      2266.03949        49.000  
 16 04 02 12 30 41.8000000  0  2G03G16                                          
  25412680.71949 133544537.65649     -1688.07449        48.000  
  22489851.31249 118184965.03149      2261.43049        49.000  
 16 04 02 12 30 41.9000000  0  2G03G16                                          
  25412712.86749 133544706.60249     -1691.73049        48.000  
  22489808.31249 118184739.05949      2257.33649        49.000  
 16 04 02 12 30 42.0000000  0  2G03G16                                          
  25412745.10249 133544876.00449     -1696.03949        48.000  
  22489765.39849 118184513.56649      2252.75449        49.000  
 16 04 02 12 30 42.1000000  0  2G03G16                                          
  25412777.42249 133545045.78949     -1700.25049        49.000  
  22489722.56249 118184288.47749      2248.34449        49.000  
 16 04 02 12 30 42.2000000  0  2G03G16                                          
  25412809.80549 133545215.97749     -1703.77349        48.000  
  22489679.82049 118184063.83249      2244.36749        49.000  
 16 04 02 12 30 42.3000000  0  2G03G16                                          
  25412842.27349 133545386.61349     -1708.41449        49.000  
  22489637.16449 118183839.64549      2239.55549        49.000  
 16 04 02 12 30 42.4000000  0  2G03G16                                          
  25412874.82849 133545557.68849     -1712.98449        48.000  
  22489594.59449 118183615.94149      2234.59049        49.000  
 16 04 02 12 30 42.5000000  0  2G03G16                                          
  25412907.46149 133545729.20749     -1717.32049        48.000  
  22489552.10949 118183392.69949      2230.08249        49.000  
 16 04 02 12 30 42.6000000  0  2G03G16                                          
  25412940.18049 133545901.14149     -1721.52749        49.000  
  22489509.71949 118183169.88749      2225.70749        49.000  
 16 04 02 12 30 42.7000000  0  2G03G16                                          
  25412972.96949 133546073.50049     -1725.66849        49.000  
  22489467.40649 118182947.53549      2221.28949        49.000  
 16 04 02 12 30 42.8000000  0  2G03G16                                          
  25413005.85249 133546246.28949     -1729.93849        48.000  
  22489425.18049 118182725.64549      2216.84449        49.000  
 16 04 02 12 30 42.9000000  0  2G03G16                                          
  25413038.81249 133546419.41449     -1733.38749        48.000  
  22489383.02349 118182504.11749      2213.01649        49.000  
 16 04 02 12 30 43.0000000  0  2G03G16                                          
  25413071.85249 133546593.02049     -1738.23449        49.000  
  22489340.96949 118182283.09449      2207.98849        49.000  
 16 04 02 12 30 43.1000000  0  2G03G16                                          
  25413104.95349 133546767.03949     -1742.39549        49.000  
  22489298.99249 118182062.51649      2203.44549        49.000  
 16 04 02 12 30 43.2000000  0  2G03G16                                          
  25413138.14149 133546941.46149     -1746.34849        48.000  
  22489257.10949 118181842.36749      2199.17249        49.000  
 16 04 02 12 30 43.3000000  0  2G03G16                                          
  25413171.42249 133547116.32049     -1750.86349        48.000  
  22489215.30549 118181622.67649      2194.50049        49.000  
 16 04 02 12 30 43.4000000  0  2G03G16                                          
  25413204.78149 133547291.63349     -1755.27049        48.000  
  22489173.58649 118181403.47349      2189.74649        49.000  
 16 04 02 12 30 43.5000000  0  2G03G16                                          
  25413238.21149 133547467.38749     -1759.57049        49.000  
  22489131.96149 118181184.73449      2185.14149        49.000  
 16 04 02 12 30 43.6000000  0  2G03G16                                          
  25413271.73449 133547643.53549     -1763.73049        49.000  
  22489090.42249 118180966.42249      2180.79749        49.000  
 16 04 02 12 30 43.7000000  0  2G03G16                                          
  25413305.33649 133547820.10549     -1767.89849        48.000  
  22489048.96149 118180748.55549      2176.21149        49.000  
 16 04 02 12 30 43.8000000  0  2G03G16                                          
  25413339.00849 133547997.08649     -1771.86349        48.000  
  22489007.57849 118180531.12149      2172.04749        49.000  
 16 04 02 12 30 43.9000000  0  2G03G16                                          
  25413372.77349 133548174.49249     -1776.21949        48.000  
  22488966.28949 118180314.13749      2167.62549        49.000  
 16 04 02 12 30 44.0000000  0  2G03G16                                          
  25413406.62549 133548352.39849     -1781.31649        48.000  
  22488925.09449 118180097.68849      2162.10549        49.000  
 16 04 02 12 30 44.1000000  0  2G03G16                                          
  25413440.56249 133548530.66049     -1784.80549        48.000  
  22488883.98449 118179881.62549      2158.28549        49.000  
 16 04 02 12 30 44.2000000  0  2G03G16                                          
  25413474.56249 133548709.31249     -1788.57849        48.000  
  22488842.96149 118179665.97349      2154.26249        49.000  
 16 04 02 12 30 44.3000000  0  2G03G16                                          
  25413508.63349 133548888.36749     -1792.66449        48.000  
  22488802.00849 118179450.75849      2149.94549        49.000  
 16 04 02 12 30 44.4000000  0  2G03G16                                          
  25413542.79749 133549067.89849     -1797.20749        48.000  
  22488761.14849 118179236.03149      2145.12549        49.000  
 16 04 02 12 30 44.5000000  0  2G03G16                                          
  25413577.03149 133549247.80949     -1801.52349        48.000  
  22488720.36749 118179021.72349      2140.61349        49.000  
 16 04 02 12 30 44.6000000  0  2G03G16                                          
  25413611.35949 133549428.20349     -1806.05149        48.000  
  22488679.68049 118178807.92649      2135.66849        49.000  
 16 04 02 12 30 44.7000000  0  2G03G16                                          
  25413645.75849 133549608.96149     -1809.72349        48.000  
  22488639.07049 118178594.51249      2131.99249        49.000  
 16 04 02 12 30 44.8000000  0  2G03G16                                          
  25413680.22749 133549790.12149     -1813.79749        48.000  
  22488598.55549 118178381.53549      2127.47749        49.000  
 16 04 02 12 30 44.9000000  0  2G03G16                                          
  25413714.79749 133549971.75449     -1818.59849        48.000  
  22488558.12549 118178169.06249      2122.41449        49.000  
 16 04 02 12 30 45.0000000  0  2G03G16                                          
  25413749.43049 133550153.74249     -1821.85949        48.000  
  22488517.76649 118177956.96949      2118.76249        49.000  
 16 04 02 12 30 45.1000000  0  2G03G16                                          
  25413784.15649 133550336.21149     -1826.87949        48.000  
  22488477.50049 118177745.37149      2113.57449        49.000  
 16 04 02 12 30 45.2000000  0  2G03G16                                          
  25413818.96149 133550519.10549     -1831.12949        48.000  
  22488437.32849 118177534.24249      2108.96949        49.000  
 16 04 02 12 30 45.3000000  0  2G03G16                                          
  25413853.82849 133550702.38349     -1834.85249        48.000  
  22488397.22749 118177323.52049      2104.96149        49.000  
 16 04 02 12 30 45.4000000  0  2G03G16                                          
  25413888.78149 133550886.04349     -1838.42649        48.000  
  22488357.20349 118177113.19949      2101.22349        49.000  
 16 04 02 12 30 45.5000000  0  2G03G16                                          
  25413923.82049 133551070.16049     -1843.24649        49.000  
  22488317.27349 118176903.36749      2096.07049        49.000  
 16 04 02 12 30 45.6000000  0  2G03G16                                          
  25413958.93049 133551254.65649     -1847.04749        49.000  
  22488277.42249 118176693.94949      2091.88749        49.000  
 16 04 02 12 30 45.7000000  0  2G03G16                                          
  25413994.12549 133551439.60249     -1851.51249        49.000  
  22488237.65649 118176485.00049      2087.21549        49.000  
 16 04 02 12 30 45.8000000  0  2G03G16                                          
  25414029.39149 133551624.94149     -1855.53149        49.000  
  22488197.97749 118176276.46949      2083.03949        49.000  
 16 04 02 12 30 45.9000000  0  2G03G16                                          
  25414064.74249 133551810.70749     -1859.85249        48.000  
  22488158.38349 118176068.39549      2078.39849        49.000  
 16 04 02 12 30 46.0000000  0  2G03G16                                          
  25414100.17249 133551996.88749     -1863.99249        48.000  
  22488118.86749 118175860.76649      2074.10949        49.000  
 16 04 02 12 30 46.1000000  0  2G03G16                                          
  25414135.67249 133552183.47349     -1868.03149        49.000  
  22488079.43849 118175653.56649      2069.64149        49.000  
 16 04 02 12 30 46.2000000  0  2G03G16                                          
  25414171.26649 133552370.52049     -1872.52049        49.000  
  22488040.09449 118175446.85549      2064.82449        49.000  
 16 04 02 12 30 46.3000000  0  2G03G16                                          
  25414206.93049 133552557.95349     -1876.55549        48.000  
  22488000.83649 118175240.56649      2060.58649        49.000  
 16 04 02 12 30 46.4000000  0  2G03G16                                          
  25414242.68049 133552745.80949     -1880.66449        48.000  
  22487961.67249 118175034.71949      2056.15649        49.000  
 16 04 02 12 30 46.5000000  0  2G03G16                                          
  25414278.50849 133552934.09049     -1885.03149        48.000  
  22487922.58649 118174829.32849      2051.54749        49.000  
 16 04 02 12 30 46.6000000  0  2G03G16                                          
  25414314.40649 133553122.77349     -1888.85549        48.000  
  22487883.58649 118174624.35549      2047.56249        49.000  
 16 04 02 12 30 46.7000000  0  2G03G16                                          
  25414350.38349 133553311.83249     -1892.69949        48.000  
  22487844.66449 118174419.80549      2043.30149        49.000  
 16 04 02 12 30 46.8000000  0  2G03G16                                          
  25414386.45349 133553501.36349     -1897.39149        48.000  
  22487805.84449 118174215.73449      2038.41049        49.000  
 16 04 02 12 30 46.9000000  0  2G03G16                                          
  25414422.60949 133553691.32849     -1901.87949        49.000  
  22487767.10249 118174012.14149      2033.60949        49.000  
 16 04 02 12 30 47.0000000  0  2G03G16                                          
  25414458.82849 133553881.66849     -1905.44149        48.000  
  22487728.44549 118173808.94549      2029.70749        49.000  
 16 04 02 12 30 47.1000000  0  2G03G16                                          
  25414495.11749 133554072.41849     -1909.63349        48.000  
  22487689.85949 118173606.18849      2025.25049        49.000  
 16 04 02 12 30 47.2000000  0  2G03G16                                          
  25414531.50849 133554263.66849     -1914.59049        48.000  
  22487651.38349 118173403.94949      2020.09049        49.000  
 16 04 02 12 30 47.3000000  0  2G03G16                                          
  25414567.98449 133554455.33649     -1918.90649        49.000  
  22487612.98449 118173202.15649      2015.62549        49.000  
 16 04 02 12 30 47.4000000  0  2G03G16                                          
  25414604.53149 133554647.39849     -1922.83649        48.000  
  22487574.67249 118173000.79749      2011.22349        49.000  
 16 04 02 12 30 47.5000000  0  2G03G16                                          
  25414641.16449 133554839.84849     -1926.66449        49.000  
  22487536.43849 118172799.85249      2007.14549        49.000  
 16 04 02 12 30 47.6000000  0  2G03G16                                          
  25414677.87549 133555032.78149     -1931.50849        49.000  
  22487498.29749 118172599.41049      2002.09849        49.000  
 16 04 02 12 30 47.7000000  0  2G03G16                                          
  25414714.68049 133555226.12949     -1935.81649        49.000  
  22487460.23449 118172399.41849      1997.36749        49.000  
 16 04 02 12 30 47.8000000  0  2G03G16                                          
  25414751.56249 133555419.93849     -1939.91449        49.000  
  22487422.27349 118172199.89849      1993.05949        49.000  
 16 04 02 12 30 47.9000000  0  2G03G16                                          
  25414788.52349 133555614.13749     -1944.25449        48.000  
  22487384.39149 118172000.81649      1988.44549        49.000  
 16 04 02 12 30 48.0000000  0  2G03G16                                          
  25414825.57049 133555808.79349     -1948.75049        49.000  
  22487346.59449 118171802.21149      1983.68049        49.000  
 16 04 02 12 30 48.1000000  0  2G03G16                                          
  25414862.68849 133556003.85249     -1952.61349        49.000  
  22487308.87549 118171604.02349      1979.66049        49.000  
 16 04 02 12 30 48.2000000  0  2G03G16                                          
  25414899.87549 133556199.24649     -1955.97749        49.000  
  22487271.23449 118171406.21949      1975.88349        49.000  
 16 04 02 12 30 48.3000000  0  2G03G16                                          
  25414937.14149 133556395.10249     -1960.50849        48.000  
  22487233.68049 118171208.89549      1971.07049        49.000  
 16 04 02 12 30 48.4000000  0  2G03G16                                          
  25414974.47749 133556591.28949     -1963.91049        48.000  
  22487196.20349 118171011.93049      1967.48049        49.000  
 16 04 02 12 30 48.5000000  0  2G03G16                                          
  25415011.89849 133556787.96149     -1968.75849        48.000  
  22487158.82049 118170815.47349      1962.46949        49.000  
 16 04 02 12 30 48.6000000  0  2G03G16                                          
  25415049.39149 133556985.00449     -1972.71549        48.000  
  22487121.51649 118170619.42249      1958.07849        49.000  
 16 04 02 12 30 48.7000000  0  2G03G16                                          
  25415086.98449 133557182.56249     -1977.78949        48.000  
  22487084.31249 118170423.91049      1952.80949        49.000  
 16 04 02 12 30 48.8000000  0  2G03G16                                          
  25415124.64149 133557380.44149     -1980.98449        48.000  
  22487047.17249 118170228.74649      1949.32049        49.000  
 16 04 02 12 30 48.9000000  0  2G03G16                                          
  25415162.37549 133557578.76249     -1985.23049        48.000  
  22487010.12549 118170034.05549      1944.68049        49.000  
 16 04 02 12 30 49.0000000  0  2G03G16                                          
  25415200.19549 133557777.54349     -1989.81649        48.000  
  22486973.16449 118169839.85549      1939.93849        49.000  
 16 04 02 12 30 49.1000000  0  2G03G16                                          
  25415238.11749 133557976.72349     -1994.16449        48.000  
  22486936.28149 118169646.06249      1935.41049        49.000  
 16 04 02 12 30 49.2000000  0  2G03G16                                          
  25415276.08649 133558176.27749     -1997.90249        48.000  
  22486899.50049 118169452.69949      1931.18049        49.000  
 16 04 02 12 30 49.3000000  0  2G03G16                                          
  25415314.14849 133558376.30149     -2002.27749        48.000  
  22486862.78949 118169259.81249      1926.62149        49.000  
 16 04 02 12 30 49.4000000  0  2G03G16                                          
  25415352.29749 133558576.77349     -2007.09849        48.000  
  22486826.18049 118169067.41449      1921.50449        49.000  
 16 04 02 12 30 49.5000000  0  2G03G16                                          
  25415390.53149 133558777.64149     -2010.87149        48.000  
  22486789.64149 118168875.43449      1917.41449        49.000  
 16 04 02 12 30 49.6000000  0  2G03G16                                          
  25415428.84449 133558978.94149     -2015.11349        48.000  
  22486753.19549 118168683.91449      1912.90249        49.000  
 16 04 02 12 30 49.7000000  0  2G03G16                                          
  25415467.21949 133559180.66049     -2019.36349        48.000  
  22486716.83649 118168492.84049      1908.46949        49.000  
 16 04 02 12 30 49.8000000  0  2G03G16                                          
  25415505.68049 133559382.76249     -2023.18049        48.000  
  22486680.55549 118168302.17649      1904.34449        49.000  
 16 04 02 12 30 49.9000000  0  2G03G16                                          
  25415544.21949 133559585.29349     -2027.19549        48.000  
  22486644.35949 118168111.96149      1900.15649        49.000  
 16 04 02 12 30 50.0000000  0  2G03G16                                          
  25415582.83649 133559788.22749     -2031.55549        48.000  
  22486608.25049 118167922.19549      1895.29349        49.000  
 16 04 02 12 30 50.1000000  0  2G03G16                                          
  25415621.54749 133559991.65249     -2036.37549        48.000  
  22486572.23449 118167732.94149      1890.25049        49.000  
 16 04 02 12 30 50.2000000  0  2G03G16                                          
  25415660.32849 133560195.41449     -2039.81649        48.000  
  22486536.28149 118167544.04749      1886.65649        49.000  
 16 04 02 12 30 50.3000000  0  2G03G16                                          
  25415699.18849 133560399.62149     -2044.10949        48.000  
  22486500.43049 118167355.62949      1881.99649        49.000  
 16 04 02 12 30 50.4000000  0  2G03G16                                          
  25415738.11749 133560604.22749     -2048.12149        48.000  
  22486464.65649 118167167.64149      1877.56249        49.000  
 16 04 02 12 30 50.5000000  0  2G03G16                                          
  25415777.13349 133560809.23849     -2052.15649        48.000  
  22486428.96149 118166980.09049      1873.19949        49.000  
 16 04 02 12 30 50.6000000  0  2G03G16                                          
  25415816.22749 133561014.68049     -2056.60949        48.000  
  22486393.35949 118166792.97749      1868.75849        49.000  
 16 04 02 12 30 50.7000000  0  2G03G16                                          
  25415855.40649 133561220.55149     -2060.79749        49.000  
  22486357.84449 118166606.33649      1864.19149        49.000  
 16 04 02 12 30 50.8000000  0  2G03G16                                          
  25415894.66449 133561426.83249     -2064.98449        48.000  
  22486322.41449 118166420.13749      1859.61349        49.000  
 16 04 02 12 30 50.9000000  0  2G03G16                                          
  25415934.00849 133561633.53149     -2069.06649        49.000  
  22486287.06249 118166234.36749      1855.45749        49.000  
 16 04 02 12 30 51.0000000  0  2G03G16                                          
  25415973.41449 133561840.63349     -2073.12549        49.000  
  22486251.79749 118166049.03949      1850.98849        49.000  
 16 04 02 12 30 51.1000000  0  2G03G16                                          
  25416012.88349 133562048.09849     -2076.71549        49.000  
  22486216.60249 118165864.10549      1847.19549        49.000  
 16 04 02 12 30 51.2000000  0  2G03G16                                          
  25416052.45349 133562256.03149     -2081.34449        49.000  
  22486181.50049 118165679.66449      1842.25849        49.000  
 16 04 02 12 30 51.3000000  0  2G03G16                                          
  25416092.10249 133562464.34849     -2085.20349        49.000  
  22486146.48449 118165495.63749      1838.06249        49.000  
 16 04 02 12 30 51.4000000  0  2G03G16                                          
  25416131.80549 133562673.01649     -2088.80949        49.000  
  22486111.54749 118165311.98449      1834.26649        49.000  
 16 04 02 12 30 51.5000000  0  2G03G16                                          
  25416171.61749 133562882.19549     -2093.77049        49.000  
  22486076.69549 118165128.86749      1829.02349        49.000  
 16 04 02 12 30 51.6000000  0  2G03G16                                          
  25416211.50049 133563091.78549     -2098.00049        49.000  
  22486041.93849 118164946.20349      1824.35249        49.000  
 16 04 02 12 30 51.7000000  0  2G03G16                                          
  25416251.46949 133563301.81249     -2102.50849        49.000  
  22486007.26649 118164763.99249      1819.66449        49.000  
 16 04 02 12 30 51.8000000  0  2G03G16                                          
  25416291.51649 133563512.23449     -2106.45749        49.000  
  22485972.68849 118164582.21149      1815.34049        49.000  
 16 04 02 12 30 51.9000000  0  2G03G16                                          
  25416331.64149 133563723.10949     -2110.75049        49.000  
  22485938.18049 118164400.89849      1811.04749        49.000  
 16 04 02 12 30 52.0000000  0  2G03G16                                          
  25416371.83649 133563934.33649     -2114.51249        49.000  
  22485903.75049 118164219.98049      1806.80949        49.000  
 16 04 02 12 30 52.1000000  0  2G03G16                                          
  25416412.11749 133564146.03549     -2118.98449        48.000  
  22485869.41449 118164039.55149      1802.09049        49.000  
 16 04 02 12 30 52.2000000  0  2G03G16                                          
  25416452.47749 133564358.12949     -2123.13349        48.000  
  22485835.17249 118163859.54749      1797.72349        49.000  
 16 04 02 12 30 52.3000000  0  2G03G16                                          
  25416492.89849 133564570.58249     -2126.52349        48.000  
  22485800.99249 118163679.94149      1793.90649        49.000  
 16 04 02 12 30 52.4000000  0  2G03G16                                          
  25416533.40649 133564783.44949     -2130.74649        48.000  
  22485766.89849 118163500.75449      1789.63349        49.000  
 16 04 02 12 30 52.5000000  0  2G03G16                                          
  25416574.00049 133564996.80149     -2135.55149        49.000  
  22485732.89849 118163322.09849      1784.38749        49.000  
 16 04 02 12 30 52.6000000  0  2G03G16                                          
  25416614.68049 133565210.56249     -2139.83649        49.000  
  22485698.98449 118163143.87949      1779.83249        49.000  
 16 04 02 12 30 52.7000000  0  2G03G16                                          
  25416655.44549 133565424.75849     -2144.05149        48.000  
  22485665.15649 118162966.12549      1775.27349        49.000  
 16 04 02 12 30 52.8000000  0  2G03G16                                          
  25416696.27349 133565639.34049     -2147.94149        49.000  
  22485631.40649 118162788.76649      1771.34849        49.000  
 16 04 02 12 30 52.9000000  0  2G03G16                                          
  25416737.18049 133565854.29349     -2151.65249        48.000  
  22485597.74249 118162611.84049      1767.06649        49.000  
 16 04 02 12 30 53.0000000  0  2G03G16                                          
  25416778.17249 133566069.69549     -2156.09849        49.000  
  22485564.15649 118162435.36749      1762.43049        49.000  
 16 04 02 12 30 53.1000000  0  2G03G16                                          
  25416819.23449 133566285.53149     -2160.27749        49.000  
  22485530.66449 118162259.35949      1757.84849        49.000  
 16 04 02 12 30 53.2000000  0  2G03G16                                          
  25416860.37549 133566501.76249     -2164.50449        49.000  
  22485497.25849 118162083.77349      1753.62549        49.000  
 16 04 02 12 30 53.3000000  0  2G03G16                                          
  25416901.61749 133566718.45749     -2169.02349        49.000  
  22485463.93849 118161908.68849      1748.57449        49.000  
 16 04 02 12 30 53.4000000  0  2G03G16                                          
  25416942.93049 133566935.54749     -2173.00449        49.000  
  22485430.70349 118161734.01249      1744.35949        49.000  
 16 04 02 12 30 53.5000000  0  2G03G16                                          
  25416984.31249 133567153.06649     -2177.13749        49.000  
  22485397.55549 118161559.79749      1739.98049        49.000  
 16 04 02 12 30 53.6000000  0  2G03G16                                          
  25417025.78149 133567370.99249     -2181.43449        49.000  
  22485364.48449 118161386.02349      1735.50849        49.000  
 16 04 02 12 30 53.7000000  0  2G03G16                                          
  25417067.34449 133567589.38349     -2186.05149        49.000  
  22485331.50849 118161212.73849      1730.57049        49.000  
 16 04 02 12 30 53.8000000  0  2G03G16                                          
  25417108.98449 133567808.19949     -2190.39549        48.000  
  22485298.60949 118161039.89149      1726.04749        49.000  
 16 04 02 12 30 53.9000000  0  2G03G16                                          
  25417150.68849 133568027.35249     -2193.56649        49.000  
  22485265.78949 118160867.44149      1722.38349        49.000  
 16 04 02 12 30 54.0000000  0  2G03G16                                          
  25417192.46149 133568246.88349     -2197.35249        49.000  
  22485233.05549 118160695.39149      1718.34049        49.000  
 16 04 02 12 30 54.1000000  0  2G03G16                                          
  25417234.32849 133568466.90249     -2202.21949        49.000  
  22485200.40649 118160523.84049      1713.37949        49.000  
 16 04 02 12 30 54.2000000  0  2G03G16                                          
  25417276.26649 133568687.31249     -2206.37949        48.000  
  22485167.84449 118160352.72349      1708.78549        49.000  
 16 04 02 12 30 54.3000000  0  2G03G16                                          
  25417318.29749 133568908.16449     -2210.63749        48.000  
  22485135.36749 118160182.07049      1704.30549        49.000  
 16 04 02 12 30 54.4000000  0  2G03G16                                          
  25417360.39149 133569129.38349     -2214.46149        48.000  
  22485102.96949 118160011.81249      1700.11349        49.000  
 16 04 02 12 30 54.5000000  0  2G03G16                                          
  25417402.58649 133569351.08649     -2219.33649        49.000  
  22485070.66449 118159842.06649      1695.05549        49.000  
 16 04 02 12 30 54.6000000  0  2G03G16                                          
  25417444.84449 133569573.18049     -2222.80549        49.000  
  22485038.44549 118159672.73049      1691.28949        49.000  
 16 04 02 12 30 54.7000000  0  2G03G16                                          
  25417487.18849 133569795.66849     -2227.13349        49.000  
  22485006.30549 118159503.83249      1686.68049        49.000  
 16 04 02 12 30 54.8000000  0  2G03G16                                          
  25417529.60949 133570018.59849     -2231.18049        49.000  
  22484974.25049 118159335.40249      1682.27049        49.000  
 16 04 02 12 30 54.9000000  0  2G03G16                                          
  25417572.09449 133570241.89149     -2234.95349        49.000  
  22484942.27349 118159167.35549      1678.32849        49.000  
 16 04 02 12 30 55.0000000  0  2G03G16                                          
  25417614.65649 133570465.58649     -2238.98849        49.000  
  22484910.39149 118158999.74649      1673.92649        49.000  
 16 04 02 12 30 55.1000000  0  2G03G16                                          
  25417657.30549 133570689.69549     -2243.10549        49.000  
  22484878.57849 118158832.57449      1669.54349        49.000  
 16 04 02 12 30 55.2000000  0  2G03G16                                          
  25417700.03149 133570914.23849     -2247.45749        49.000  
  22484846.85249 118158665.86749      1664.82449        49.000  
 16 04 02 12 30 55.3000000  0  2G03G16                                          
  25417742.82849 133571139.19549     -2251.84049        49.000  
  22484815.21949 118158499.60249      1660.31249        49.000  
 16 04 02 12 30 55.4000000  0  2G03G16                                          
  25417785.73449 133571364.63749     -2256.73449        49.000  
  22484783.68049 118158333.84849      1655.10949        49.000  
 16 04 02 12 30 55.5000000  0  2G03G16                                          
  25417828.68849 133571590.41449     -2259.86749        49.000  
  22484752.21149 118158168.46549      1651.62949        49.000  
 16 04 02 12 30 55.6000000  0  2G03G16                                          
  25417871.72749 133571816.56649     -2263.41849        49.000  
  22484720.81249 118158003.48049      1647.76249        49.000  
 16 04 02 12 30 55.7000000  0  2G03G16                                          
  25417914.85249 133572043.20349     -2268.48449        49.000  
  22484689.51649 118157839.00449      1642.56249        49.000  
 16 04 02 12 30 55.8000000  0  2G03G16                                          
  25417958.04749 133572270.20349     -2272.15649        49.000  
  22484658.31249 118157674.93049      1638.44149        49.000  
 16 04 02 12 30 55.9000000  0  2G03G16                                          
  25418001.32849 133572497.68449     -2277.02749        48.000  
  22484627.18849 118157511.35949      1633.24649        49.000  
 16 04 02 12 30 56.0000000  0  2G03G16                                          
  25418044.70349 133572725.59049     -2280.94149        49.000  
  22484596.14849 118157348.23849      1629.23849        49.000  
 16 04 02 12 30 56.1000000  0  2G03G16                                          
  25418088.12549 133572953.80949     -2284.53149        48.000  
  22484565.17249 118157185.45749      1625.34049        49.000  
 16 04 02 12 30 56.2000000  0  2G03G16                                          
  25418131.64849 133573182.49249     -2288.69549        48.000  
  22484534.28949 118157023.18049      1620.77749        49.000  
 16 04 02 12 30 56.3000000  0  2G03G16                                          
  25418175.22749 133573411.58649     -2293.02049        48.000  
  22484503.49249 118156861.33649      1616.15649        49.000  
 16 04 02 12 30 56.4000000  0  2G03G16                                          
  25418218.89149 133573641.05149     -2296.78149        48.000  
  22484472.77349 118156699.88749      1612.31649        49.000  
 16 04 02 12 30 56.5000000  0  2G03G16                                          
  25418262.64849 133573870.98849     -2301.52349        48.000  
  22484442.14849 118156538.94549      1607.17649        49.000  
 16 04 02 12 30 56.6000000  0  2G03G16                                          
  25418306.48449 133574101.35949     -2305.85549        48.000  
  22484411.60949 118156378.46549      1602.59449        49.000  
 16 04 02 12 30 56.7000000  0  2G03G16                                          
  25418350.39149 133574332.04749     -2308.86749        48.000  
  22484381.13349 118156218.32449      1599.18849        49.000  
 16 04 02 12 30 56.8000000  0  2G03G16                                          
  25418394.36749 133574563.14149     -2312.94149        48.000  
  22484350.75849 118156058.62149      1594.89549        49.000  
 16 04 02 12 30 56.9000000  0  2G03G16                                          
  25418438.42249 133574794.66849     -2317.23849        48.000  
  22484320.45349 118155899.38749      1590.24249        49.000  
 16 04 02 12 30 57.0000000  0  2G03G16                                          
  25418482.57849 133575026.70349     -2322.41849        48.000  
  22484290.24249 118155740.67649      1584.81249        49.000  
 16 04 02 12 30 57.1000000  0  2G03G16                                          
  25418526.80549 133575259.07849     -2326.12549        48.000  
  22484260.10949 118155582.34049      1580.93049        49.000  
 16 04 02 12 30 57.2000000  0  2G03G16                                          
  25418571.10249 133575491.88749     -2330.10249        48.000  
  22484230.07049 118155424.46549      1576.68049        49.000  
 16 04 02 12 30 57.3000000  0  2G03G16                                          
  25418615.46949 133575725.05149     -2333.71949        48.000  
  22484200.10249 118155266.98849      1572.61349        49.000  
 16 04 02 12 30 57.4000000  0  2G03G16                                          
  25418659.92249 133575958.66049     -2338.20349        48.000  
  22484170.21949 118155109.97349      1567.91849        49.000  
 16 04 02 12 30 57.5000000  0  2G03G16                                          
  25418704.45349 133576192.67649     -2342.09049        48.000  
  22484140.42249 118154953.38349      1563.74649        49.000  
 16 04 02 12 30 57.6000000  0  2G03G16                                          
  25418749.06249 133576427.07449     -2346.16849        48.000  
  22484110.71149 118154797.21549      1559.32449        49.000  
 16 04 02 12 30 57.7000000  0  2G03G16                                          
  25418793.74249 133576661.93049     -2350.72349        48.000  
  22484081.08649 118154641.52749      1554.59849        49.000  
 16 04 02 12 30 57.8000000  0  2G03G16                                          
  25418838.51649 133576897.21949     -2355.03549        48.000  
  22484051.53949 118154486.30949      1549.91849        49.000  
 16 04 02 12 30 57.9000000  0  2G03G16                                          
  25418883.35949 133577132.85949     -2358.57049        48.000  
  22484022.07049 118154331.48049      1545.95349        49.000  
 16 04 02 12 30 58.0000000  0  2G03G16                                          
  25418928.28149 133577368.94949     -2362.82049        48.000  
  22483992.69549 118154177.09849      1541.69549        49.000  
 16 04 02 12 30 58.1000000  0  2G03G16                                          
  25418973.29749 133577605.44949     -2367.11749        48.000  
  22483963.40649 118154023.17649      1536.99649        49.000  
 16 04 02 12 30 58.2000000  0  2G03G16                                          
  25419018.35949 133577842.29349     -2370.48849        48.000  
  22483934.19549 118153869.63749      1533.22349        49.000  
 16 04 02 12 30 58.3000000  0  2G03G16                                          
  25419063.50849 133578079.55949     -2374.73049        48.000  
  22483905.05549 118153716.52749      1528.77749        49.000  
 16 04 02 12 30 58.4000000  0  2G03G16                                          
  25419108.74249 133578317.27749     -2379.29349        48.000  
  22483876.02349 118153563.90649      1523.99249        49.000  
 16 04 02 12 30 58.5000000  0  2G03G16                                          
  25419154.07049 133578555.43449     -2383.68049        48.000  
  22483847.07049 118153411.76249      1519.12549        49.000  
 16 04 02 12 30 58.6000000  0  2G03G16                                          
  25419199.45349 133578793.95349     -2387.30949        48.000  
  22483818.18849 118153259.98449      1515.45749        49.000  
 16 04 02 12 30 58.7000000  0  2G03G16                                          
  25419244.93049 133579032.86749     -2391.09049        48.000  
  22483789.39149 118153108.65649      1511.23449        49.000  
 16 04 02 12 30 58.8000000  0  2G03G16                                          
  25419290.46149 133579272.15249     -2394.82849        48.000  
  22483760.66449 118152957.71549      1507.25449        49.000  
 16 04 02 12 30 58.9000000  0  2G03G16                                          
  25419336.08649 133579511.93049     -2399.97349        49.000  
  22483732.03949 118152807.28949      1502.08249        49.000  
 16 04 02 12 30 59.0000000  0  2G03G16                                          
  25419381.79749 133579752.11349     -2404.04749        48.000  
  22483703.50049 118152657.31249      1497.46949        49.000  
 16 04 02 12 30 59.1000000  0  2G03G16                                          
  25419427.55549 133579992.60249     -2406.90649        48.000  
  22483675.02349 118152507.66849      1494.16049        49.000  
 16 04 02 12 30 59.2000000  0  2G03G16                                          
  25419473.41449 133580233.59449     -2411.96949        48.000  
  22483646.64849 118152358.53949      1488.94949        49.000  
 16 04 02 12 30 59.3000000  0  2G03G16                                          
  25419519.35249 133580474.99249     -2415.98849        48.000  
  22483618.35949 118152209.87149      1484.62149        49.000  
 16 04 02 12 30 59.4000000  0  2G03G16                                          
  25419565.35249 133580716.70349     -2419.21949        48.000  
  22483590.12549 118152061.52049      1481.27749        49.000  
 16 04 02 12 30 59.5000000  0  2G03G16                                          
  25419611.43849 133580958.84049     -2423.41449        48.000  
  22483561.98449 118151913.63349      1476.65649        49.000  
 16 04 02 12 30 59.6000000  0  2G03G16                                          
  25419657.60249 133581201.43049     -2428.00049        48.000  
  22483533.93049 118151766.23049      1471.92649        49.000  
 16 04 02 12 30 59.7000000  0  2G03G16                                          
  25419703.83649 133581444.43049     -2432.05149        48.000  
  22483505.96149 118151619.27049      1467.40249        49.000  
 16 04 02 12 30 59.8000000  0  2G03G16                                          
  25419750.15649 133581687.82849     -2436.19949        48.000  
  22483478.07849 118151472.73849      1462.91049        49.000  
 16 04 02 12 30 59.9000000  0  2G03G16                                          
  25419796.55549 133581931.62549     -2440.02749        48.000  
  22483450.27349 118151326.62949      1458.92649        49.000  
 16 04 02 12 31  0.0000000  0  2G03G16                                          
  25419843.03149 133582175.89149     -2444.89149        48.000  
  22483422.57049 118151181.01249      1453.71949        49.000  
 16 04 02 12 31  0.1000000  0  2G03G16                                          
  25419889.60249 133582420.59049     -2449.14549        48.000  
  22483394.94549 118151035.85549      1449.31649        49.000  
 16 04 02 12 31  0.2000000  0  2G03G16                                          
  25419936.22749 133582665.60549     -2452.34849        48.000  
  22483367.39149 118150891.05949      1445.67249        49.000  
 16 04 02 12 31  0.3000000  0  2G03G16                                          
  25419982.93849 133582911.13749     -2457.47749        48.000  
  22483339.93849 118150746.79349      1440.25849        49.000  
 16 04 02 12 31  0.4000000  0  2G03G16                                          
  25420029.74249 133583157.09849     -2461.82449        48.000  
  22483312.57849 118150602.99249      1435.68449        49.000  
 16 04 02 12 31  0.5000000  0  2G03G16                                          
  25420076.63349 133583403.45349     -2465.70349        48.000  
  22483285.28949 118150459.60249      1431.60949        49.000  
 16 04 02 12 31  0.6000000  0  2G03G16                                          
  25420123.58649 133583650.21549     -2469.78149        49.000  
  22483258.08649 118150316.66449      1427.16849        49.000  
 16 04 02 12 31  0.7000000  0  2G03G16                                          
  25420170.62549 133583897.41449     -2474.08649        49.000  
  22483230.97749 118150174.19149      1422.49649        49.000  
 16 04 02 12 31  0.8000000  0  2G03G16                                          
  25420217.74249 133584144.99249     -2477.68449        48.000  
  22483203.93049 118150032.11349      1418.70349        49.000  
 16 04 02 12 31  0.9000000  0  2G03G16                                          
  25420264.92249 133584392.95749     -2481.83649        49.000  
  22483176.97749 118149890.46949      1414.16849        49.000  
 16 04 02 12 31  1.0000000  0  2G03G16                                          
  25420312.17249 133584641.26249     -2484.97349        49.000  
  22483150.08649 118149749.17249      1410.78549        49.000  
 16 04 02 12 31  1.1000000  0  1G16                                             
  22483123.28949 118149608.37149      1405.82849        49.000  
 16 04 02 12 31  1.2000000  0  1G16                                             
  22483096.57849 118149467.97349      1401.64149        49.000  
 16 04 02 12 31  1.3000000  0  1G16                                             
  22483069.93849 118149327.99249      1397.55149        49.000  
 16 04 02 12 31  1.4000000  0  1G16                                             
  22483043.39149 118149188.45749      1393.09449        49.000  
 16 04 02 12 31  1.5000000  0  1G16                                             
  22483016.92249 118149049.37149      1388.88749        49.000  
 16 04 02 12 31  1.6000000  0  1G16                                             
  22482990.55549 118148910.79349      1383.13749        49.000  
 16 04 02 12 31  1.7000000  0  1G16                                             
  22482964.25849 118148772.60549      1379.64149        49.000  
 16 04 02 12 31  1.8000000  0  1G16                                             
  22482938.04749 118148634.80549      1375.73849        49.000  
 16 04 02 12 31  1.9000000  0  1G16                                             
  22482911.92249 118148497.52749      1370.50049        49.000  
 16 04 02 12 31  2.0000000  0  1G16                                             
  22482885.88349 118148360.70349      1365.66049        49.000  
 16 04 02 12 31  2.1000000  0  1G16                                             
  22482859.92249 118148224.30549      1361.77049        49.000  
 16 04 02 12 31  2.2000000  0  1G16                                             
  22482834.04749 118148088.34449      1357.36749        49.000  
 16 04 02 12 31  2.3000000  0  1G16                                             
  22482808.25849 118147952.82449      1352.94949        49.000  
 16 04 02 12 31  2.4000000  0  1G16                                             
  22482782.55549 118147817.73049      1348.55149        49.000  
 16 04 02 12 31  2.5000000  0  1G16                                             
  22482756.93049 118147683.06649      1344.48049        49.000  
 16 04 02 12 31  2.6000000  0  1G16                                             
  22482731.38349 118147548.81249      1340.28149        49.000  
 16 04 02 12 31  2.7000000  0  1G16                                             
  22482705.92249 118147415.02749      1335.64849        49.000  
 16 04 02 12 31  2.8000000  0  1G16                                             
  22482680.54749 118147281.69149      1331.13349        49.000  
 16 04 02 12 31  2.9000000  0  1G16                                             
  22482655.25049 118147148.76649      1326.92649        49.000  
 16 04 02 12 31  3.0000000  0  1G16                                             
  22482630.03149 118147016.24649      1323.06249        49.000  
 16 04 02 12 31  3.1000000  0  1G16                                             
  22482604.90649 118146884.21549      1317.96949        49.000  
 16 04 02 12 31  3.2000000  0  1G16                                             
  22482579.87549 118146752.63749      1313.52349        49.000  
 16 04 02 12 31  3.3000000  0  1G16                                             
  22482554.92249 118146621.53149      1308.78949        49.000  
 16 04 02 12 31  3.4000000  0  1G16                                             
  22482530.04749 118146490.78549      1305.35249        49.000  
 16 04 02 12 31  3.5000000  0  1G16                                             
  22482505.25849 118146360.52049      1300.70349        49.000  
 16 04 02 12 31  3.6000000  0  1G16                                             
  22482480.54749 118146230.66049      1296.30949        49.000  
 16 04 02 12 31  3.7000000  0  1G16                                             
  22482455.93049 118146101.32849      1290.94549        49.000  
 16 04 02 12 31  3.8000000  0  1G16                                             
  22482431.39849 118145972.38349      1287.24249        49.000  
 16 04 02 12 31  3.9000000  0  1G16                                             
  22482406.94549 118145843.88749      1282.56249        49.000  
 16 04 02 12 31  4.0000000  0  1G16                                             
  22482382.57049 118145715.79749      1278.79749        49.000  
 16 04 02 12 31  4.1000000  0  1G16                                             
  22482358.26649 118145588.08649      1274.96149        49.000  
 16 04 02 12 31  4.2000000  0  1G16                                             
  22482334.06249 118145460.86749      1270.09849        49.000  
 16 04 02 12 31  4.3000000  0  1G16                                             
  22482309.93849 118145334.09049      1265.36349        49.000  
 16 04 02 12 31  4.4000000  0  1G16                                             
  22482285.90649 118145207.77749      1260.88349        49.000  
 16 04 02 12 31  4.5000000  0  1G16                                             
  22482261.95349 118145081.88349      1256.67249        49.000  
 16 04 02 12 31  4.6000000  0  1G16                                             
  22482238.07049 118144956.41049      1252.44549        49.000  
 16 04 02 12 31  4.7000000  0  1G16                                             
  22482214.28949 118144831.42649      1247.67649        49.000  
 16 04 02 12 31  4.8000000  0  1G16                                             
  22482190.58649 118144706.89849      1243.11349        49.000  
 16 04 02 12 31  4.9000000  0  1G16                                             
  22482166.95349 118144582.73049      1239.55949        49.000  
 16 04 02 12 31  5.0000000  0  1G16                                             
  22482143.42249 118144459.05949      1234.57449        49.000  
 16 04 02 12 31  5.1000000  0  1G16                                             
  22482119.96949 118144335.78149      1230.54749        49.000  
 16 04 02 12 31  5.2000000  0  1G16                                             
  22482096.60949 118144213.02349      1225.33249        49.000  
 16 04 02 12 31  5.3000000  0  1G16                                             
  22482073.32049 118144090.64549      1221.32449        49.000  
 16 04 02 12 31  5.4000000  0  1G16                                             
  22482050.10249 118143968.64149      1217.96549        49.000  
 16 04 02 12 31  5.5000000  0  1G16                                             
