     2.10           OBSERVATION DATA    G (GPS)             RINEX VERSION / TYPE
Convert v1.8.0                          09-Jun-2016 14:09   PGM / RUN BY / DATE 
Signal Strength values S1,S2 are in dBHz                    COMMENT             
                                                            MARKER NAME         
                                                            MARKER NUMBER       
                                                            OBSERVER / AGENCY   
                    NovAtel GPSCard                         REC # / TYPE / VERS 
                                                            ANT # / TYPE        
0.0000        0.0000        0.0000                          APPROX POSITION XYZ 
        0.0000        0.0000        0.0000                  ANTENNA: DELTA H/E/N
     1     0                                                WAVELENGTH FACT L1/2
     1     0     3   G09   G25   G29                        WAVELENGTH FACT L1/2
                                                            COMMENT             
                                                            COMMENT             
                                                            COMMENT             
                                                            COMMENT             
                                                            COMMENT             
                                                            COMMENT             
     4    C1    L1    D1    S1                              # / TYPES OF OBSERV 
     0.100                                                  INTERVAL            
  2016    04    02    12    50    36.8000000    GPS         TIME OF FIRST OBS   
  2016    04    02    12    52     2.0000000    GPS         TIME OF LAST OBS    
Leap Seconds Unknown                                        COMMENT             
                                                            END OF HEADER       
 16 04 02 12 50 36.8000000  0  1G29                                             
  22308181.52349 117230284.15659     -3028.01249        50.000  
 16 04 02 12 50 36.9000000  0  2G09G29                                          
  23610899.71949 124076114.91059     -4486.74649        50.000  
  22308239.18049 117230587.14849     -3031.46949        50.000  
 16 04 02 12 50 37.0000000  0  2G09G29                                          
  23610985.14849 124076563.83649     -4492.26649        50.000  
  22308296.89149 117230890.46949     -3035.10949        50.000  
 16 04 02 12 50 37.1000000  0  2G09G29                                          
  23611070.68049 124077013.32049     -4497.67249        50.000  
  22308354.68849 117231194.15649     -3038.66849        50.000  
 16 04 02 12 50 37.2000000  0  2G09G29                                          
  23611156.32049 124077463.36749     -4503.39549        50.000  
  22308412.53949 117231498.22749     -3042.45349        50.000  
 16 04 02 12 50 37.3000000  0  2G09G29                                          
  23611242.08649 124077914.00849     -4509.43449        50.000  
  22308470.47749 117231802.70749     -3046.71949        50.000  
 16 04 02 12 50 37.4000000  0  2G09G29                                          
  23611327.93849 124078365.17249     -4514.76249        50.000  
  22308528.48449 117232107.52749     -3050.22749        50.000  
 16 04 02 12 50 37.5000000  0  2G09G29                                          
  23611413.90649 124078816.85949     -4519.98449        50.000  
  22308586.55549 117232412.68449     -3053.50049        50.000  
 16 04 02 12 50 37.6000000  0  2G09G29                                          
  23611499.96949 124079269.14849     -4526.07049        50.000  
  22308644.71149 117232718.27049     -3057.79349        50.000  
 16 04 02 12 50 37.7000000  0  2G09G29                                          
  23611586.16449 124079722.02349     -4531.83649        50.000  
  22308702.93849 117233024.25049     -3061.76249        50.000  
 16 04 02 12 50 37.8000000  0  2G09G29                                          
  23611672.45349 124080175.51249     -4538.17249        50.000  
  22308761.23449 117233330.64849     -3066.12149        50.000  
 16 04 02 12 50 37.9000000  0  2G09G29                                          
  23611758.83649 124080629.50049     -4542.70749        50.000  
  22308819.60949 117233637.37549     -3068.90249        50.000  
 16 04 02 12 50 38.0000000  0  2G09G29                                          
  23611845.32849 124081084.01249     -4548.27349        50.000  
  22308878.03949 117233944.44549     -3072.50849        50.000  
 16 04 02 12 50 38.1000000  0  2G09G29                                          
  23611931.93049 124081539.14849     -4554.29749        50.000  
  22308936.55549 117234251.95749     -3076.82449        50.000  
 16 04 02 12 50 38.2000000  0  2G09G29                                          
  23612018.64849 124081994.83249     -4560.13349        50.000  
  22308995.14149 117234559.83649     -3080.86749        50.000  
 16 04 02 12 50 38.3000000  0  2G09G29                                          
  23612105.47749 124082451.07849     -4565.43849        50.000  
  22309053.79749 117234868.06649     -3084.29349        50.000  
 16 04 02 12 50 38.4000000  0  2G09G29                                          
  23612192.40649 124082907.88749     -4571.26649        50.000  
  22309112.53149 117235176.70349     -3088.30149        50.000  
 16 04 02 12 50 38.5000000  0  2G09G29                                          
  23612279.43849 124083365.26649     -4576.81649        50.000  
  22309171.32849 117235485.71149     -3091.89549        50.000  
 16 04 02 12 50 38.6000000  0  2G09G29                                          
  23612366.58649 124083823.21149     -4582.71549        50.000  
  22309230.21949 117235795.12149     -3096.16449        50.000  
 16 04 02 12 50 38.7000000  0  2G09G29                                          
  23612453.85949 124084281.74649     -4588.44549        50.000  
  22309289.16449 117236104.91849     -3099.87149        50.000  
 16 04 02 12 50 38.8000000  0  2G09G29                                          
  23612541.21949 124084740.81249     -4593.75849        50.000  
  22309348.20349 117236415.07449     -3103.48449        50.000  
 16 04 02 12 50 38.9000000  0  2G09G29                                          
  23612628.68049 124085200.44149     -4599.69549        50.000  
  22309407.29749 117236725.60949     -3107.53149        50.000  
 16 04 02 12 50 39.0000000  0  2G09G29                                          
  23612716.25849 124085660.69149     -4605.47349        50.000  
  22309466.46949 117237036.57849     -3111.52349        50.000  
 16 04 02 12 50 39.1000000  0  2G09G29                                          
  23612803.92249 124086121.43049     -4610.43049        50.000  
  22309525.70349 117237347.84049     -3114.60249        50.000  
 16 04 02 12 50 39.2000000  0  2G09G29                                          
  23612891.70349 124086582.74249     -4616.12549        50.000  
  22309585.00849 117237659.51649     -3118.59049        50.000  
 16 04 02 12 50 39.3000000  0  2G09G29                                          
  23612979.60249 124087044.59449     -4621.68849        50.000  
  22309644.38349 117237971.52749     -3122.03149        50.000  
 16 04 02 12 50 39.4000000  0  2G09G29                                          
  23613067.60249 124087507.06249     -4627.80549        50.000  
  22309703.84449 117238283.97749     -3126.47749        50.000  
 16 04 02 12 50 39.5000000  0  2G09G29                                          
  23613155.71149 124087970.03949     -4632.86749        50.000  
  22309763.35949 117238596.76649     -3129.82049        50.000  
 16 04 02 12 50 39.6000000  0  2G09G29                                          
  23613243.92249 124088433.61749     -4638.79349        50.000  
  22309822.95349 117238909.95749     -3133.73849        50.000  
 16 04 02 12 50 39.7000000  0  2G09G29                                          
  23613332.24249 124088897.71549     -4644.03549        50.000  
  22309882.61749 117239223.48849     -3137.16849        50.000  
 16 04 02 12 50 39.8000000  0  2G09G29                                          
  23613420.66449 124089362.38749     -4649.66049        50.000  
  22309942.36749 117239537.41049     -3140.93449        50.000  
 16 04 02 12 50 39.9000000  0  2G09G29                                          
  23613509.18049 124089827.57849     -4654.68849        50.000  
  22310002.17249 117239851.68049     -3144.32449        50.000  
 16 04 02 12 50 40.0000000  0  2G09G29                                          
  23613597.80549 124090293.32849     -4660.60249        50.000  
  22310062.04749 117240166.30149     -3148.25849        50.000  
 16 04 02 12 50 40.1000000  0  2G09G29                                          
  23613686.52349 124090759.60949     -4665.76249        50.000  
  22310121.99249 117240481.28549     -3151.64549        50.000  
 16 04 02 12 50 40.2000000  0  2G09G29                                          
  23613775.36749 124091226.48449     -4671.87949        50.000  
  22310182.00849 117240796.67649     -3155.83649        50.000  
 16 04 02 12 50 40.3000000  0  2G09G29                                          
  23613864.32049 124091693.99649     -4678.39149        50.000  
  22310242.10949 117241112.52349     -3160.58249        50.000  
 16 04 02 12 50 40.4000000  0  2G09G29                                          
  23613953.39149 124092162.03549     -4683.69949        50.000  
  22310302.28949 117241428.71149     -3163.94949        50.000  
 16 04 02 12 50 40.5000000  0  2G09G29                                          
  23614042.55549 124092630.62549     -4688.77049        50.000  
  22310362.52349 117241745.26249     -3167.21949        50.000  
 16 04 02 12 50 40.6000000  0  2G09G29                                          
  23614131.82849 124093099.77749     -4694.67249        50.000  
  22310422.83649 117242062.20349     -3171.32449        50.000  
 16 04 02 12 50 40.7000000  0  2G09G29                                          
  23614221.21149 124093569.54349     -4700.73049        50.000  
  22310483.22749 117242379.57449     -3175.64849        50.000  
 16 04 02 12 50 40.8000000  0  2G09G29                                          
  23614310.71149 124094039.84849     -4706.01649        50.000  
  22310543.69549 117242697.29749     -3179.17649        50.000  
 16 04 02 12 50 40.9000000  0  2G09G29                                          
  23614400.32049 124094510.73849     -4712.00049        50.000  
  22310604.23449 117243015.41449     -3183.11749        50.000  
 16 04 02 12 50 41.0000000  0  2G09G29                                          
  23614490.03149 124094982.15649     -4717.11349        50.000  
  22310664.82849 117243333.88349     -3186.47349        50.000  
 16 04 02 12 50 41.1000000  0  2G09G29                                          
  23614579.81249 124095454.05549     -4721.99249        50.000  
  22310725.48449 117243652.64849     -3189.47349        50.000  
 16 04 02 12 50 41.2000000  0  2G09G29                                          
  23614669.72749 124095926.56249     -4728.14149        50.000  
  22310786.21149 117243971.84049     -3193.80149        50.000  
 16 04 02 12 50 41.3000000  0  2G09G29                                          
  23614759.75049 124096399.64149     -4733.68049        50.000  
  22310847.03149 117244291.41849     -3197.53549        50.000  
 16 04 02 12 50 41.4000000  0  2G09G29                                          
  23614849.86749 124096873.23449     -4739.10249        50.000  
  22310907.89849 117244611.33249     -3201.16849        50.000  
 16 04 02 12 50 41.5000000  0  2G09G29                                          
  23614940.11749 124097347.46149     -4745.46949        50.000  
  22310968.85949 117244931.68849     -3205.57049        50.000  
 16 04 02 12 50 41.6000000  0  2G09G29                                          
  23615030.46149 124097822.22749     -4750.78949        50.000  
  22311029.89149 117245252.41049     -3209.12149        50.000  
 16 04 02 12 50 41.7000000  0  2G09G29                                          
  23615120.90649 124098297.55149     -4756.10549        50.000  
  22311090.99249 117245573.49249     -3212.59049        50.000  
 16 04 02 12 50 41.8000000  0  2G09G29                                          
  23615211.46949 124098773.43049     -4762.05549        50.000  
  22311152.15649 117245894.95749     -3216.68449        50.000  
 16 04 02 12 50 41.9000000  0  2G09G29                                          
  23615302.11749 124099249.87549     -4767.50449        50.000  
  22311213.39849 117246216.80949     -3220.32849        50.000  
 16 04 02 12 50 42.0000000  0  2G09G29                                          
  23615392.89849 124099726.92649     -4773.49249        50.000  
  22311274.74249 117246539.06649     -3224.38349        50.000  
 16 04 02 12 50 42.1000000  0  2G09G29                                          
  23615483.78949 124100204.49249     -4778.80949        50.000  
  22311336.13349 117246861.67649     -3228.02749        50.000  
 16 04 02 12 50 42.2000000  0  2G09G29                                          
  23615574.78949 124100682.70349     -4785.25049        50.000  
  22311397.60249 117247184.73449     -3232.65249        50.000  
 16 04 02 12 50 42.3000000  0  2G09G29                                          
  23615665.88349 124101161.39849     -4789.98449        50.000  
  22311459.14149 117247508.09849     -3235.44149        50.000  
 16 04 02 12 50 42.4000000  0  2G09G29                                          
  23615757.09449 124101640.71949     -4796.39549        50.000  
  22311520.75849 117247831.90649     -3240.10249        50.000  
 16 04 02 12 50 42.5000000  0  2G09G29                                          
  23615848.41449 124102120.58249     -4801.84849        50.000  
  22311582.43849 117248156.07449     -3243.64849        50.000  
 16 04 02 12 50 42.6000000  0  2G09G29                                          
  23615939.83649 124102601.01249     -4807.30149        50.000  
  22311644.19549 117248480.61749     -3247.34449        50.000  
 16 04 02 12 50 42.7000000  0  2G09G29                                          
  23616031.36749 124103081.99249     -4812.99649        50.000  
  22311706.02349 117248805.53149     -3251.02049        50.000  
 16 04 02 12 50 42.8000000  0  2G09G29                                          
  23616123.00849 124103563.56249     -4818.63349        50.000  
  22311767.92249 117249130.85549     -3255.12949        50.000  
 16 04 02 12 50 42.9000000  0  2G09G29                                          
  23616214.75049 124104045.64549     -4823.76249        50.000  
  22311829.89149 117249456.50049     -3258.25449        50.000  
 16 04 02 12 50 43.0000000  0  2G09G29                                          
  23616306.58649 124104528.25049     -4829.16449        50.000  
  22311891.91449 117249782.48849     -3261.78549        50.000  
 16 04 02 12 50 43.1000000  0  2G09G29                                          
  23616398.53949 124105011.41049     -4834.51249        50.000  
  22311954.02349 117250108.85249     -3265.39549        50.000  
 16 04 02 12 50 43.2000000  0  2G09G29                                          
  23616490.58649 124105495.10249     -4839.99649        50.000  
  22312016.20349 117250435.57049     -3269.04349        50.000  
 16 04 02 12 50 43.3000000  0  2G09G29                                          
  23616582.75049 124105979.41049     -4846.26649        50.000  
  22312078.46149 117250762.71549     -3273.46949        50.000  
 16 04 02 12 50 43.4000000  0  2G09G29                                          
  23616675.02349 124106464.33649     -4852.28949        50.000  
  22312140.80549 117251090.29349     -3277.72749        50.000  
 16 04 02 12 50 43.5000000  0  2G09G29                                          
  23616767.39149 124106949.70349     -4856.82849        50.000  
  22312203.18849 117251418.13349     -3280.37149        50.000  
 16 04 02 12 50 43.6000000  0  2G09G29                                          
  23616859.86749 124107435.64849     -4862.50849        50.000  
  22312265.64849 117251746.36349     -3284.09849        50.000  
 16 04 02 12 50 43.7000000  0  2G09G29                                          
  23616952.45349 124107922.19949     -4868.52049        50.000  
  22312328.18849 117252075.01649     -3288.37149        50.000  
 16 04 02 12 50 43.8000000  0  2G09G29                                          
  23617045.14849 124108409.30549     -4874.21949        50.000  
  22312390.80549 117252404.04749     -3292.38349        50.000  
 16 04 02 12 50 43.9000000  0  2G09G29                                          
  23617137.94549 124108896.91049     -4878.85949        50.000  
  22312453.47749 117252733.38349     -3295.05149        50.000  
 16 04 02 12 50 44.0000000  0  2G09G29                                          
  23617230.83649 124109385.09449     -4884.80949        50.000  
  22312516.21949 117253063.12149     -3299.26249        50.000  
 16 04 02 12 50 44.1000000  0  2G09G29                                          
  23617323.85249 124109873.85949     -4890.78949        50.000  
  22312579.04749 117253393.26249     -3303.35549        50.000  
 16 04 02 12 50 44.2000000  0  2G09G29                                          
  23617416.96949 124110363.19949     -4896.54349        50.000  
  22312641.94549 117253723.78549     -3307.22749        50.000  
 16 04 02 12 50 44.3000000  0  2G09G29                                          
  23617510.17249 124110853.02749     -4901.27349        50.000  
  22312704.90649 117254054.61749     -3310.14549        50.000  
 16 04 02 12 50 44.4000000  0  2G09G29                                          
  23617603.48449 124111343.39149     -4906.38749        50.000  
  22312767.93049 117254385.80549     -3313.48049        50.000  
 16 04 02 12 50 44.5000000  0  2G09G29                                          
  23617696.90649 124111834.28949     -4912.05549        50.000  
  22312831.01649 117254717.35249     -3317.38749        50.000  
 16 04 02 12 50 44.6000000  0  2G09G29                                          
  23617790.43849 124112325.79749     -4917.68049        50.000  
  22312894.18849 117255049.30949     -3321.11749        50.000  
 16 04 02 12 50 44.7000000  0  2G09G29                                          
  23617884.07049 124112817.84049     -4923.84449        50.000  
  22312957.43049 117255381.62549     -3325.29749        50.000  
 16 04 02 12 50 44.8000000  0  2G09G29                                          
  23617977.82049 124113310.48449     -4929.48849        50.000  
  22313020.74249 117255714.36349     -3329.25849        50.000  
 16 04 02 12 50 44.9000000  0  2G09G29                                          
  23618071.68049 124113803.70349     -4935.47749        50.000  
  22313084.13349 117256047.48449     -3333.43449        50.000  
 16 04 02 12 50 45.0000000  0  2G09G29                                          
  23618165.63349 124114297.45749     -4940.52749        50.000  
  22313147.60249 117256380.97749     -3336.72349        50.000  
 16 04 02 12 50 45.1000000  0  2G09G29                                          
  23618259.68849 124114791.74649     -4945.87149        50.000  
  22313211.12549 117256714.79749     -3339.98049        50.000  
 16 04 02 12 50 45.2000000  0  2G09G29                                          
  23618353.86749 124115286.66049     -4952.25449        50.000  
  22313274.74249 117257049.07049     -3344.62549        50.000  
 16 04 02 12 50 45.3000000  0  2G09G29                                          
  23618448.16449 124115782.08249     -4957.38749        50.000  
  22313338.41449 117257383.67249     -3347.97349        50.000  
 16 04 02 12 50 45.4000000  0  2G09G29                                          
  23618542.54749 124116278.07049     -4962.76249        50.000  
  22313402.14849 117257718.65249     -3351.55949        50.000  
 16 04 02 12 50 45.5000000  0  2G09G29                                          
  23618637.01649 124116774.56649     -4967.84849        50.000  
  22313465.96149 117258053.95749     -3354.79349        50.000  
 16 04 02 12 50 45.6000000  0  2G09G29                                          
  23618731.60949 124117271.66049     -4973.91449        50.000  
  22313529.83649 117258389.68049     -3359.07849        50.000  
 16 04 02 12 50 45.7000000  0  2G09G29                                          
  23618826.32849 124117769.33649     -4979.85949        50.000  
  22313593.79749 117258725.80949     -3363.23449        50.000  
 16 04 02 12 50 45.8000000  0  2G09G29                                          
  23618921.14149 124118267.57049     -4985.42249        50.000  
  22313657.82849 117259062.29349     -3366.82049        50.000  
 16 04 02 12 50 45.9000000  0  2G09G29                                          
  23619016.06249 124118766.37549     -4991.30149        50.000  
  22313721.93049 117259399.18049     -3370.95349        50.000  
 16 04 02 12 50 46.0000000  0  2G09G29                                          
  23619111.07049 124119265.67649     -4996.06249        50.000  
  22313786.10949 117259736.37149     -3373.84849        50.000  
 16 04 02 12 50 46.1000000  0  2G09G29                                          
  23619206.19549 124119765.57049     -5001.99649        50.000  
  22313850.35249 117260073.99249     -3378.08649        50.000  
 16 04 02 12 50 46.2000000  0  2G09G29                                          
  23619301.43849 124120266.06649     -5008.04349        50.000  
  22313914.68849 117260412.01249     -3382.08249        50.000  
 16 04 02 12 50 46.3000000  0  2G09G29                                          
  23619396.78149 124120767.07849     -5013.02049        50.000  
  22313979.07849 117260750.36749     -3385.32049        50.000  
 16 04 02 12 50 46.4000000  0  2G09G29                                          
  23619492.21949 124121268.63749     -5018.50449        50.000  
  22314043.53949 117261089.09049     -3389.02749        50.000  
 16 04 02 12 50 46.5000000  0  2G09G29                                          
  23619587.76649 124121770.78949     -5024.61349        50.000  
  22314108.07849 117261428.23449     -3393.32849        50.000  
 16 04 02 12 50 46.6000000  0  2G09G29                                          
  23619683.43849 124122273.55149     -5030.82449        50.000  
  22314172.68849 117261767.79349     -3397.71549        50.000  
 16 04 02 12 50 46.7000000  0  2G09G29                                          
  23619779.21949 124122776.87549     -5036.34849        50.000  
  22314237.37549 117262107.73049     -3401.46549        50.000  
 16 04 02 12 50 46.8000000  0  2G09G29                                          
  23619875.10249 124123280.71149     -5041.43449        50.000  
  22314302.11749 117262448.00449     -3404.74649        50.000  
 16 04 02 12 50 46.9000000  0  2G09G29                                          
  23619971.07849 124123785.09449     -5046.72749        50.000  
  22314366.93849 117262788.63749     -3408.16849        50.000  
 16 04 02 12 50 47.0000000  0  2G09G29                                          
  23620067.15649 124124290.00049     -5051.96549        50.000  
  22314431.82849 117263129.60949     -3411.59849        50.000  
 16 04 02 12 50 47.1000000  0  2G09G29                                          
  23620163.34449 124124795.47749     -5057.91049        50.000  
  22314496.78149 117263470.96549     -3415.42249        50.000  
 16 04 02 12 50 47.2000000  0  2G09G29                                          
  23620259.63349 124125301.49649     -5063.11749        50.000  
  22314561.81249 117263812.69549     -3419.06249        50.000  
 16 04 02 12 50 47.3000000  0  2G09G29                                          
  23620356.04749 124125808.11349     -5069.09849        50.000  
  22314626.92249 117264154.82049     -3423.12149        50.000  
 16 04 02 12 50 47.4000000  0  2G09G29                                          
  23620452.54749 124126315.21949     -5074.22749        50.000  
  22314692.08649 117264497.27349     -3426.40249        50.000  
 16 04 02 12 50 47.5000000  0  2G09G29                                          
  23620549.15649 124126822.90649     -5079.95349        50.000  
  22314757.32849 117264840.12149     -3430.37949        50.000  
 16 04 02 12 50 47.6000000  0  2G09G29                                          
  23620645.86749 124127331.16449     -5085.56249        50.000  
  22314822.64149 117265183.34849     -3434.12949        50.000  
 16 04 02 12 50 47.7000000  0  2G09G29                                          
  23620742.70349 124127839.98849     -5091.41049        50.000  
  22314888.03149 117265526.95349     -3438.07049        50.000  
 16 04 02 12 50 47.8000000  0  2G09G29                                          
  23620839.63349 124128349.34849     -5096.60549        50.000  
  22314953.48449 117265870.92249     -3441.50449        50.000  
 16 04 02 12 50 47.9000000  0  2G09G29                                          
  23620936.66449 124128859.30149     -5102.62949        50.000  
  22315019.01649 117266215.29749     -3445.66449        50.000  
 16 04 02 12 50 48.0000000  0  2G09G29                                          
  23621033.81249 124129369.80149     -5107.99249        50.000  
  22315084.62549 117266560.04749     -3449.34849        50.000  
 16 04 02 12 50 48.1000000  0  2G09G29                                          
  23621131.05549 124129880.81649     -5113.23449        50.000  
  22315150.28949 117266905.12549     -3452.72349        50.000  
 16 04 02 12 50 48.2000000  0  2G09G29                                          
  23621228.41449 124130392.43049     -5118.99249        50.000  
  22315216.03149 117267250.60949     -3456.64149        50.000  
 16 04 02 12 50 48.3000000  0  2G09G29                                          
  23621325.85949 124130904.56249     -5124.34849        50.000  
  22315281.83649 117267596.43449     -3460.16849        50.000  
 16 04 02 12 50 48.4000000  0  2G09G29                                          
  23621423.43049 124131417.27049     -5130.19949        50.000  
  22315347.71949 117267942.64849     -3464.09049        50.000  
 16 04 02 12 50 48.5000000  0  2G09G29                                          
  23621521.10249 124131930.54349     -5135.82849        50.000  
  22315413.67249 117268289.25049     -3467.87949        50.000  
 16 04 02 12 50 48.6000000  0  2G09G29                                          
  23621618.87549 124132444.35949     -5141.34849        50.000  
  22315479.69549 117268636.22349     -3471.64149        50.000  
 16 04 02 12 50 48.7000000  0  2G09G29                                          
  23621716.75849 124132958.73449     -5146.69149        50.000  
  22315545.78949 117268983.55549     -3475.19149        50.000  
 16 04 02 12 50 48.8000000  0  2G09G29                                          
  23621814.74249 124133473.64149     -5151.83249        50.000  
  22315611.96149 117269331.24249     -3478.56249        50.000  
 16 04 02 12 50 48.9000000  0  2G09G29                                          
  23621912.83649 124133989.10949     -5157.92249        50.000  
  22315678.19549 117269679.30949     -3482.64549        50.000  
 16 04 02 12 50 49.0000000  0  2G09G29                                          
  23622011.03949 124134505.16449     -5163.45349        50.000  
  22315744.50849 117270027.78549     -3486.59849        50.000  
 16 04 02 12 50 49.1000000  0  2G09G29                                          
  23622109.35249 124135021.76249     -5169.12149        50.000  
  22315810.89149 117270376.61349     -3490.28949        50.000  
 16 04 02 12 50 49.2000000  0  2G09G29                                          
  23622207.75049 124135538.85949     -5173.87549        50.000  
  22315877.33649 117270725.75849     -3493.15649        50.000  
 16 04 02 12 50 49.3000000  0  2G09G29                                          
  23622306.26649 124136056.50849     -5179.43449        50.000  
  22315943.84449 117271075.27349     -3496.91449        50.000  
 16 04 02 12 50 49.4000000  0  2G09G29                                          
  23622404.89149 124136574.77349     -5185.58249        50.000  
  22316010.43849 117271425.22349     -3501.24249        50.000  
 16 04 02 12 50 49.5000000  0  2G09G29                                          
  23622503.60949 124137093.54749     -5191.00049        50.000  
  22316077.09449 117271775.51249     -3504.87549        50.000  
 16 04 02 12 50 49.6000000  0  2G09G29                                          
  23622602.45349 124137612.95349     -5197.03949        50.000  
  22316143.83649 117272126.23449     -3509.04349        50.000  
 16 04 02 12 50 49.7000000  0  2G09G29                                          
  23622701.38349 124138132.82849     -5201.79349        50.000  
  22316210.63349 117272477.25049     -3512.04749        50.000  
 16 04 02 12 50 49.8000000  0  2G09G29                                          
  23622800.43049 124138653.33649     -5208.22349        50.000  
  22316277.50849 117272828.71149     -3516.57049        50.000  
 16 04 02 12 50 49.9000000  0  2G09G29                                          
  23622899.58649 124139174.36749     -5213.26649        50.000  
  22316344.45349 117273180.52049     -3519.87549        50.000  
 16 04 02 12 50 50.0000000  0  2G09G29                                          
  23622998.84449 124139695.97349     -5219.13749        50.000  
  22316411.46149 117273532.72349     -3524.03949        50.000  
 16 04 02 12 50 50.1000000  0  2G09G29                                          
  23623098.18849 124140218.09049     -5224.27349        50.000  
  22316478.54749 117273885.23849     -3527.10249        50.000  
 16 04 02 12 50 50.2000000  0  2G09G29                                          
  23623197.65649 124140740.79349     -5230.23449        50.000  
  22316545.69549 117274238.16849     -3531.25049        50.000  
 16 04 02 12 50 50.3000000  0  2G09G29                                          
  23623297.22749 124141264.03149     -5235.17649        50.000  
  22316612.93049 117274591.46149     -3534.61349        50.000  
 16 04 02 12 50 50.4000000  0  2G09G29                                          
  23623396.89849 124141787.79749     -5240.66849        50.000  
  22316680.21949 117274945.08649     -3538.14149        50.000  
 16 04 02 12 50 50.5000000  0  2G09G29                                          
  23623496.67249 124142312.14549     -5246.43449        50.000  
  22316747.58649 117275299.10249     -3541.98049        50.000  
 16 04 02 12 50 50.6000000  0  2G09G29                                          
  23623596.53949 124142836.93849     -5250.88749        50.000  
  22316815.00849 117275653.40649     -3544.80149        50.000  
 16 04 02 12 50 50.7000000  0  2G09G29                                          
  23623696.53149 124143362.36749     -5257.17649        50.000  
  22316882.51649 117276008.14149     -3549.11749        50.000  
 16 04 02 12 50 50.8000000  0  2G09G29                                          
  23623796.62549 124143888.38749     -5263.25849        50.000  
  22316950.10249 117276363.30149     -3553.54349        50.000  
 16 04 02 12 50 50.9000000  0  2G09G29                                          
  23623896.84449 124144415.02749     -5269.72749        50.000  
  22317017.76649 117276718.87549     -3557.93049        50.000  
 16 04 02 12 50 51.0000000  0  2G09G29                                          
  23623997.14849 124144942.13349     -5274.17649        50.000  
  22317085.47749 117277074.76249     -3560.79749        50.000  
 16 04 02 12 50 51.1000000  0  2G09G29                                          
  23624097.55549 124145469.76649     -5279.20349        50.000  
  22317153.26649 117277430.97749     -3563.90649        50.000  
 16 04 02 12 50 51.2000000  0  2G09G29                                          
  23624198.07849 124145998.02049     -5285.58649        50.000  
  22317221.13349 117277787.63749     -3568.37149        50.000  
 16 04 02 12 50 51.3000000  0  2G09G29                                          
  23624298.71149 124146526.82049     -5291.16049        50.000  
  22317289.07049 117278144.65249     -3572.13349        50.000  
 16 04 02 12 50 51.4000000  0  2G09G29                                          
  23624399.44549 124147056.18849     -5296.85249        50.000  
  22317357.08649 117278502.06649     -3576.10249        50.000  
 16 04 02 12 50 51.5000000  0  2G09G29                                          
  23624500.28149 124147586.11349     -5302.44549        50.000  
  22317425.17249 117278859.84449     -3579.79349        50.000  
 16 04 02 12 50 51.6000000  0  2G09G29                                          
  23624601.24249 124148116.63749     -5308.20749        50.000  
  22317493.32849 117279218.04349     -3583.80949        50.000  
 16 04 02 12 50 51.7000000  0  2G09G29                                          
  23624702.28149 124148647.64149     -5313.20349        50.000  
  22317561.55549 117279576.54349     -3587.02749        50.000  
 16 04 02 12 50 51.8000000  0  2G09G29                                          
  23624803.43849 124149179.22749     -5318.64549        50.000  
  22317629.84449 117279935.42649     -3590.60249        50.000  
 16 04 02 12 50 51.9000000  0  2G09G29                                          
  23624904.70349 124149711.35249     -5324.28149        50.000  
  22317698.20349 117280294.68449     -3594.40649        50.000  
 16 04 02 12 50 52.0000000  0  2G09G29                                          
  23625006.07049 124150244.03149     -5329.95349        50.000  
  22317766.64849 117280654.30549     -3598.23449        50.000  
 16 04 02 12 50 52.1000000  0  2G09G29                                          
  23625107.54749 124150777.25849     -5335.43449        50.000  
  22317835.14849 117281014.30549     -3601.85549        50.000  
 16 04 02 12 50 52.2000000  0  2G09G29                                          
  23625209.11749 124151311.01649     -5340.38349        50.000  
  22317903.72749 117281374.64549     -3605.09849        50.000  
 16 04 02 12 50 52.3000000  0  2G09G29                                          
  23625310.80549 124151845.36749     -5346.59849        50.000  
  22317972.37549 117281735.39149     -3609.43449        50.000  
 16 04 02 12 50 52.4000000  0  2G09G29                                          
  23625412.60249 124152380.31249     -5352.80949        50.000  
  22318041.09449 117282096.55949     -3613.82849        50.000  
 16 04 02 12 50 52.5000000  0  2G09G29                                          
  23625514.51649 124152915.85249     -5358.41049        50.000  
  22318109.89849 117282458.12149     -3617.55149        50.000  
 16 04 02 12 50 52.6000000  0  2G09G29                                          
  23625616.51649 124153451.87149     -5363.32449        50.000  
  22318178.76649 117282819.99649     -3620.64149        50.000  
 16 04 02 12 50 52.7000000  0  2G09G29                                          
  23625718.62549 124153988.45349     -5368.95349        50.000  
  22318247.70349 117283182.24649     -3624.39549        50.000  
 16 04 02 12 50 52.8000000  0  2G09G29                                          
  23625820.85949 124154525.69149     -5375.30949        50.000  
  22318316.73449 117283544.98049     -3629.09849        50.000  
 16 04 02 12 50 52.9000000  0  2G09G29                                          
  23625923.18049 124155063.35549     -5379.51249        50.000  
  22318385.80549 117283907.94149     -3631.43849        50.000  
 16 04 02 12 50 53.0000000  0  2G09G29                                          
  23626025.59449 124155601.55549     -5384.89549        50.000  
  22318454.93849 117284271.27049     -3634.97349        50.000  
 16 04 02 12 50 53.1000000  0  2G09G29                                          
  23626128.12549 124156140.35549     -5391.27749        50.000  
  22318524.15649 117284635.00849     -3639.40249        50.000  
 16 04 02 12 50 53.2000000  0  2G09G29                                          
  23626230.76649 124156679.76649     -5396.97749        50.000  
  22318593.46149 117284999.18049     -3643.46549        50.000  
 16 04 02 12 50 53.3000000  0  2G09G29                                          
  23626333.50049 124157219.59049     -5401.33649        50.000  
  22318662.80549 117285363.59449     -3646.05949        50.000  
 16 04 02 12 50 53.4000000  0  2G09G29                                          
  23626436.33649 124157760.01649     -5407.00849        50.000  
  22318732.23449 117285728.41049     -3649.86349        50.000  
 16 04 02 12 50 53.5000000  0  2G09G29                                          
  23626539.28149 124158300.99649     -5412.77349        50.000  
  22318801.72749 117286093.60549     -3653.84049        50.000  
 16 04 02 12 50 53.6000000  0  2G09G29                                          
  23626642.32849 124158842.51249     -5418.23449        50.000  
  22318871.29749 117286459.14849     -3657.32849        50.000  
 16 04 02 12 50 53.7000000  0  2G09G29                                          
  23626745.50049 124159384.61749     -5424.12149        50.000  
  22318940.93849 117286825.11349     -3661.57849        50.000  
 16 04 02 12 50 53.8000000  0  2G09G29                                          
  23626848.76649 124159927.28949     -5429.84849        50.000  
  22319010.64149 117287191.44549     -3665.34049        50.000  
 16 04 02 12 50 53.9000000  0  2G09G29                                          
  23626952.14149 124160470.47749     -5434.83249        50.000  
  22319080.41449 117287558.12149     -3668.57049        50.000  
 16 04 02 12 50 54.0000000  0  2G09G29                                          
  23627055.60249 124161014.18049     -5439.98449        50.000  
  22319150.25849 117287925.12549     -3671.84849        50.000  
 16 04 02 12 50 54.1000000  0  2G09G29                                          
  23627159.18849 124161558.50049     -5446.12149        50.000  
  22319220.18049 117288292.56249     -3676.10549        50.000  
 16 04 02 12 50 54.2000000  0  2G09G29                                          
  23627262.86749 124162103.35249     -5451.74649        50.000  
  22319290.17249 117288660.35549     -3680.03149        50.000  
 16 04 02 12 50 54.3000000  0  2G09G29                                          
  23627366.64149 124162648.71149     -5456.64849        50.000  
  22319360.21949 117289028.48049     -3683.14149        50.000  
 16 04 02 12 50 54.4000000  0  2G09G29                                          
  23627470.53949 124163194.69549     -5462.93849        50.000  
  22319430.35249 117289397.02749     -3687.41449        50.000  
 16 04 02 12 50 54.5000000  0  2G09G29                                          
  23627574.54749 124163741.20349     -5468.28949        50.000  
  22319500.55549 117289765.93449     -3691.02349        50.000  
 16 04 02 12 50 54.6000000  0  2G09G29                                          
  23627678.64149 124164288.23849     -5473.33649        50.000  
  22319570.83649 117290135.18849     -3694.33649        50.000  
 16 04 02 12 50 54.7000000  0  2G09G29                                          
  23627782.85949 124164835.89549     -5479.60949        50.000  
  22319641.18049 117290504.87149     -3698.70749        50.000  
 16 04 02 12 50 54.8000000  0  2G09G29                                          
  23627887.17249 124165384.07049     -5484.74649        50.000  
  22319711.59449 117290874.89549     -3702.11749        50.000  
 16 04 02 12 50 54.9000000  0  2G09G29                                          
  23627991.58649 124165932.76649     -5489.89549        50.000  
  22319782.07049 117291245.25849     -3705.47749        50.000  
 16 04 02 12 50 55.0000000  0  2G09G29                                          
  23628096.10949 124166482.00449     -5495.34849        50.000  
  22319852.61749 117291615.97749     -3709.09449        50.000  
 16 04 02 12 50 55.1000000  0  2G09G29                                          
  23628200.73449 124167031.79349     -5500.93849        50.000  
  22319923.23449 117291987.07049     -3712.83249        50.000  
 16 04 02 12 50 55.2000000  0  2G09G29                                          
  23628305.46149 124167582.16449     -5506.74649        50.000  
  22319993.93049 117292358.56649     -3716.85949        50.000  
 16 04 02 12 50 55.3000000  0  2G09G29                                          
  23628410.30549 124168133.11749     -5512.66849        50.000  
  22320064.69549 117292730.44949     -3720.85549        50.000  
 16 04 02 12 50 55.4000000  0  2G09G29                                          
  23628515.24249 124168684.56249     -5517.63749        50.000  
  22320135.53149 117293102.66449     -3724.09449        50.000  
 16 04 02 12 50 55.5000000  0  2G09G29                                          
  23628620.28949 124169236.60549     -5523.38349        50.000  
  22320206.43849 117293475.27349     -3727.92649        50.000  
 16 04 02 12 50 55.6000000  0  2G09G29                                          
  23628725.44549 124169789.18049     -5528.66049        50.000  
  22320277.40649 117293848.24249     -3731.45749        50.000  
 16 04 02 12 50 55.7000000  0  2G09G29                                          
  23628830.70349 124170342.29349     -5534.23849        50.000  
  22320348.45349 117294221.57049     -3735.17249        50.000  
 16 04 02 12 50 55.8000000  0  2G09G29                                          
  23628936.07049 124170895.98049     -5539.91849        50.000  
  22320419.56249 117294595.28949     -3739.06649        50.000  
 16 04 02 12 50 55.9000000  0  3G25G09G29                                       
  25158161.86749 132207032.68059      9277.85249        49.000  
  23629041.53949 124171450.24249     -5545.66849        50.000  
  22320490.75049 117294969.39849     -3742.96149        50.000  
 16 04 02 12 50 56.0000000  0  3G25G09G29                                       
  25157985.33649 132206105.00449      9275.80949        49.000  
  23629147.12549 124172005.07849     -5551.35249        50.000  
  22320562.01649 117295343.89549     -3746.78949        50.000  
 16 04 02 12 50 56.1000000  0  3G25G09G29                                       
  25157808.83649 132205177.41849      9274.87549        49.000  
  23629252.79749 124172560.39149     -5556.14849        50.000  
  22320633.33649 117295718.70349     -3749.91849        50.000  
 16 04 02 12 50 56.2000000  0  3G25G09G29                                       
  25157632.36749 132204250.06649      9272.80549        49.000  
  23629358.58649 124173116.30549     -5562.01249        50.000  
  22320704.74249 117296093.91849     -3753.96549        50.000  
 16 04 02 12 50 56.3000000  0  3G25G09G29                                       
  25157455.89849 132203322.85949      9271.18049        49.000  
  23629464.46949 124173672.71949     -5567.18849        50.000  
  22320776.20349 117296469.46149     -3757.28149        50.000  
 16 04 02 12 50 56.4000000  0  3G25G09G29                                       
  25157279.49249 132202395.82449      9269.34849        49.000  
  23629570.46149 124174229.71549     -5573.05149        50.000  
  22320847.74249 117296845.37949     -3761.13349        50.000  
 16 04 02 12 50 56.5000000  0  3G25G09G29                                       
  25157103.11749 132201469.02749      9267.21549        49.000  
  23629676.56249 124174787.30149     -5578.73049        50.000  
  22320919.35949 117297221.73449     -3765.25849        50.000  
 16 04 02 12 50 56.6000000  0  3G25G09G29                                       
  25156926.78149 132200542.38349      9265.34449        49.000  
  23629782.77349 124175345.42649     -5584.51249        50.000  
  22320991.03149 117297598.42649     -3769.02349        50.000  
 16 04 02 12 50 56.7000000  0  3G25G09G29                                       
  25156750.46149 132199615.91049      9263.94549        49.000  
  23629889.08649 124175904.08249     -5589.61349        50.000  
  22321062.78149 117297975.48849     -3772.43449        50.000  
 16 04 02 12 50 56.8000000  0  3G25G09G29                                       
  25156574.19549 132198689.61349      9262.22349        49.000  
  23629995.50049 124176463.28549     -5595.00849        50.000  
  22321134.60249 117298352.90249     -3775.97349        50.000  
 16 04 02 12 50 56.9000000  0  3G25G09G29                                       
  25156397.93049 132197763.49249      9260.46549        49.000  
  23630102.02349 124177023.06249     -5600.64849        50.000  
  22321206.50049 117298730.70749     -3779.77749        50.000  
 16 04 02 12 50 57.0000000  0  3G25G09G29                                       
  25156221.72749 132196837.54349      9258.62949        49.000  
  23630208.64149 124177583.36749     -5606.12549        50.000  
  22321278.44549 117299108.85949     -3783.44549        50.000  
 16 04 02 12 50 57.1000000  0  3G25G09G29                                       
  25156045.55549 132195911.73849      9257.23849        49.000  
  23630315.35949 124178144.18449     -5611.19549        50.000  
  22321350.46949 117299487.35249     -3786.73849        50.000  
 16 04 02 12 50 57.2000000  0  3G25G09G29                                       
  25155869.43049 132194986.15649      9254.76649        49.000  
  23630422.19549 124178705.61349     -5617.45749        50.000  
  22321422.57849 117299866.27049     -3791.17649        50.000  
 16 04 02 12 50 57.3000000  0  3G25G09G29                                       
  25155693.31249 132194060.70749      9253.64549        49.000  
  23630529.13349 124179267.54749     -5622.26649        50.000  
  22321494.74249 117300245.49649     -3794.14549        50.000  
 16 04 02 12 50 57.4000000  0  3G25G09G29                                       
  25155517.24249 132193135.47749      9251.17249        49.000  
  23630636.17249 124179830.06249     -5628.39149        50.000  
  22321566.99249 117300625.14849     -3798.50849        50.000  
 16 04 02 12 50 57.5000000  0  3G25G09G29                                       
  25155341.20349 132192210.44949      9249.48449        49.000  
  23630743.32049 124180393.16449     -5633.86349        50.000  
  22321639.31249 117301005.18449     -3802.12149        50.000  
 16 04 02 12 50 57.6000000  0  3G25G09G29                                       
  25155165.18849 132191285.47749      9248.90649        49.000  
  23630850.56249 124180956.70749     -5638.51649        50.000  
  22321711.68049 117301385.49649     -3804.94949        50.000  
 16 04 02 12 50 57.7000000  0  3G25G09G29                                       
  25154989.22749 132190360.75849      9246.62149        49.000  
  23630957.92249 124181520.85949     -5644.31649        50.000  
  22321784.13349 117301766.21949     -3809.01249        50.000  
 16 04 02 12 50 57.8000000  0  3G25G09G29                                       
  25154813.30549 132189436.25449      9244.04749        49.000  
  23631065.39149 124182085.59449     -5650.57449        50.000  
  22321856.66449 117302147.35249     -3813.27349        50.000  
 16 04 02 12 50 57.9000000  0  3G25G09G29                                       
  25154637.37549 132188511.86749      9242.89149        49.000  
  23631172.96149 124182650.84849     -5655.52749        50.000  
  22321929.25049 117302528.82049     -3816.57049        50.000  
 16 04 02 12 50 58.0000000  0  3G25G09G29                                       
  25154461.50849 132187587.68849      9241.04349        49.000  
  23631280.62549 124183216.65649     -5661.01649        50.000  
  22322001.90649 117302910.66449     -3820.26249        50.000  
 16 04 02 12 50 58.1000000  0  3G25G09G29                                       
  25154285.67249 132186663.68449      9239.11749        49.000  
  23631388.40649 124183783.02349     -5666.73049        50.000  
  22322074.64149 117303292.87549     -3823.96549        50.000  
 16 04 02 12 50 58.2000000  0  3G25G09G29                                       
  25154109.87549 132185739.85549      9237.51249        49.000  
  23631496.28949 124184349.94149     -5672.08249        50.000  
  22322147.44549 117303675.47349     -3827.68049        50.000  
 16 04 02 12 50 58.3000000  0  3G25G09G29                                       
  25153934.11749 132184816.19149      9235.81649        49.000  
  23631604.28149 124184917.40249     -5677.63749        50.000  
  22322220.32049 117304058.42649     -3831.43449        50.000  
 16 04 02 12 50 58.4000000  0  3G25G09G29                                       
  25153758.38349 132183892.70749      9234.18849        49.000  
  23631712.36749 124185485.39849     -5682.97749        50.000  
  22322293.26649 117304441.73049     -3834.85249        50.000  
 16 04 02 12 50 58.5000000  0  3G25G09G29                                       
  25153582.67249 132182969.41049      9232.12549        49.000  
  23631820.56249 124186053.97349     -5688.72749        50.000  
  22322366.28149 117304825.43049     -3838.82449        50.000  
 16 04 02 12 50 58.6000000  0  3G25G09G29                                       
  25153407.00849 132182046.30149      9230.16849        49.000  
  23631928.86749 124186623.10249     -5694.38749        50.000  
  22322439.35949 117305209.50049     -3842.61349        50.000  
 16 04 02 12 50 58.7000000  0  3G25G09G29                                       
  25153231.41449 132181123.39549      9228.13349        49.000  
  23632037.28149 124187192.81249     -5700.18049        50.000  
  22322512.53149 117305593.98049     -3846.68049        50.000  
 16 04 02 12 50 58.8000000  0  3G25G09G29                                       
  25153055.82849 132180200.65649      9226.55149        49.000  
  23632145.78949 124187763.05949     -5705.41449        50.000  
  22322585.75849 117305978.80549     -3850.09449        50.000  
 16 04 02 12 50 58.9000000  0  3G25G09G29                                       
  25152880.26649 132179278.12949      9224.33249        49.000  
  23632254.41449 124188333.88349     -5711.28949        50.000  
  22322659.06249 117306364.03149     -3854.13349        50.000  
 16 04 02 12 50 59.0000000  0  3G25G09G29                                       
  25152704.74249 132178355.73049      9223.02749        49.000  
  23632363.14149 124188905.23049     -5716.43849        50.000  
  22322732.43049 117306749.59449     -3857.44949        50.000  
 16 04 02 12 50 59.1000000  0  3G25G09G29                                       
  25152529.21949 132177433.50049      9221.40249        49.000  
  23632471.96149 124189477.10549     -5721.70749        50.000  
  22322805.86749 117307135.50449     -3860.91449        50.000  
 16 04 02 12 50 59.2000000  0  3G25G09G29                                       
  25152353.75849 132176511.42249      9219.95349        49.000  
  23632580.88349 124190049.50049     -5726.93049        50.000  
  22322879.37549 117307521.76649     -3864.40249        50.000  
 16 04 02 12 50 59.3000000  0  3G25G09G29                                       
  25152178.34449 132175589.53149      9218.07449        49.000  
  23632689.91449 124190622.47349     -5732.60549        50.000  
  22322952.94549 117307908.41049     -3868.29349        50.000  
 16 04 02 12 50 59.4000000  0  3G25G09G29                                       
  25152002.95349 132174667.81649      9216.14849        49.000  
  23632799.05549 124191195.98049     -5738.39149        50.000  
  22323026.58649 117308295.41449     -3872.03949        50.000  
 16 04 02 12 50 59.5000000  0  3G25G09G29                                       
  25151827.60249 132173746.34449      9213.85549        49.000  
  23632908.31249 124191770.10949     -5744.21949        50.000  
  22323100.31249 117308682.85549     -3876.21549        50.000  
 16 04 02 12 50 59.6000000  0  3G25G09G29                                       
  25151652.28149 132172825.01649      9212.33649        49.000  
  23633017.66449 124192344.76649     -5749.57449        50.000  
  22323174.11749 117309070.64149     -3879.75049        50.000  
 16 04 02 12 50 59.7000000  0  3G25G09G29                                       
  25151477.00049 132171903.87949      9210.43049        49.000  
  23633127.12549 124192919.97749     -5755.18049        50.000  
  22323247.97749 117309458.79749     -3883.43849        50.000  
 16 04 02 12 50 59.8000000  0  3G25G09G29                                       
  25151301.75049 132170982.93049      9208.69949        49.000  
  23633236.68849 124193495.74249     -5760.56649        50.000  
  22323321.92249 117309847.34049     -3887.30949        50.000  
 16 04 02 12 50 59.9000000  0  3G25G09G29                                       
  25151126.53149 132170062.09849      9207.56649        49.000  
  23633346.34449 124194072.00449     -5765.43449        50.000  
  22323395.91449 117310236.19549     -3890.34049        50.000  
 16 04 02 12 51  0.0000000  0  3G25G09G29                                       
  25150951.33649 132169141.44549      9205.55149        49.000  
  23633456.10949 124194648.82849     -5771.37549        50.000  
  22323469.98449 117310625.40649     -3894.03549        50.000  
 16 04 02 12 51  0.1000000  0  3G25G09G29                                       
  25150776.17249 132168220.99249      9203.84449        49.000  
  23633565.98449 124195226.21549     -5776.70749        50.000  
  22323544.12549 117311015.02749     -3897.84849        50.000  
 16 04 02 12 51  0.2000000  0  3G25G09G29                                       
  25150601.04749 132167300.68849      9202.29349        49.000  
  23633675.96149 124195804.12949     -5782.09849        50.000  
  22323618.32849 117311404.98849     -3901.41049        49.000  
 16 04 02 12 51  0.3000000  0  3G25G09G29                                       
  25150425.96149 132166380.56249      9200.34049        49.000  
  23633786.03949 124196382.59449     -5787.81249        50.000  
  22323692.60249 117311795.30949     -3905.28949        50.000  
 16 04 02 12 51  0.4000000  0  3G25G09G29                                       
  25150250.91449 132165460.68449      9197.92249        49.000  
  23633896.23449 124196961.68449     -5793.88349        50.000  
  22323766.96149 117312186.06649     -3909.35249        50.000  
 16 04 02 12 51  0.5000000  0  3G25G09G29                                       
  25150075.90649 132164540.94549      9196.35249        49.000  
  23634006.53149 124197541.28149     -5799.27049        50.000  
  22323841.39149 117312577.16849     -3912.94949        50.000  
 16 04 02 12 51  0.6000000  0  3G25G09G29                                       
  25149900.92249 132163621.38349      9194.81249        49.000  
  23634116.93049 124198121.42249     -5804.43849        50.000  
  22323915.88349 117312968.63349     -3916.41049        50.000  
 16 04 02 12 51  0.7000000  0  3G25G09G29                                       
  25149725.96149 132162701.99649      9193.00449        49.000  
  23634227.42249 124198702.12149     -5809.96149        50.000  
  22323990.44549 117313360.46149     -3920.16049        50.000  
 16 04 02 12 51  0.8000000  0  3G25G09G29                                       
  25149551.03949 132161782.78549      9191.21949        49.000  
  23634338.03149 124199283.36349     -5815.35249        50.000  
  22324065.08649 117313752.66449     -3923.73849        50.000  
 16 04 02 12 51  0.9000000  0  3G25G09G29                                       
  25149376.15649 132160863.73849      9189.44149        49.000  
  23634448.74249 124199865.13749     -5820.87549        50.000  
  22324139.78949 117314145.21549     -3927.52749        50.000  
 16 04 02 12 51  1.0000000  0  3G25G09G29                                       
  25149201.30549 132159944.89549      9187.80149        49.000  
  23634559.56249 124200447.50049     -5826.29349        50.000  
  22324214.56249 117314538.17649     -3931.22749        50.000  
 16 04 02 12 51  1.1000000  0  3G25G09G29                                       
  25149026.46149 132159026.16449      9186.20349        49.000  
  23634670.46949 124201030.33649     -5831.73449        50.000  
  22324289.39849 117314931.42649     -3934.64149        50.000  
 16 04 02 12 51  1.2000000  0  3G25G09G29                                       
  25148851.67249 132158107.65649      9184.17249        49.000  
  23634781.49249 124201613.79349     -5837.47749        50.000  
  22324364.31249 117315325.10249     -3938.49649        50.000  
 16 04 02 12 51  1.3000000  0  3G25G09G29                                       
  25148676.90649 132157189.34049      9182.47349        49.000  
  23634892.62549 124202197.78549     -5842.77049        50.000  
  22324439.29749 117315719.15649     -3942.19949        50.000  
 16 04 02 12 51  1.4000000  0  3G25G09G29                                       
  25148502.18049 132156271.18049      9180.44949        49.000  
  23635003.85949 124202782.32049     -5848.60949        50.000  
  22324514.34449 117316113.55949     -3946.17649        50.000  
 16 04 02 12 51  1.5000000  0  3G25G09G29                                       
  25148327.51649 132155353.21949      9178.74649        49.000  
  23635115.19549 124203367.42249     -5854.00049        50.000  
  22324589.46949 117316508.35549     -3949.82849        50.000  
 16 04 02 12 51  1.6000000  0  3G25G09G29                                       
  25148152.85249 132154435.38349      9177.43049        49.000  
  23635226.63349 124203953.03149     -5859.09449        50.000  
  22324664.64849 117316903.45749     -3952.98049        50.000  
 16 04 02 12 51  1.7000000  0  3G25G09G29                                       
  25147978.24249 132153517.73849      9175.55949        49.000  
  23635338.18049 124204539.19549     -5864.66449        50.000  
  22324739.91449 117317298.95749     -3956.84049        50.000  
 16 04 02 12 51  1.8000000  0  3G25G09G29                                       
  25147803.64849 132152600.26649      9173.79349        49.000  
  23635449.82849 124205125.91049     -5870.18449        50.000  
  22324815.23449 117317694.81649     -3960.43449        50.000  
 16 04 02 12 51  1.9000000  0  3G25G09G29                                       
  25147629.08649 132151682.99249      9172.01249        49.000  
  23635561.57849 124205713.19949     -5875.73849        50.000  
  22324890.64149 117318091.06649     -3964.30149        50.000  
 16 04 02 12 51  2.0000000  0  3G25G09G29                                       
