     2.10           OBSERVATION DATA    G (GPS)             RINEX VERSION / TYPE
Convert v1.8.0                          09-Jun-2016 14:46   PGM / RUN BY / DATE 
Signal Strength values S1,S2 are in dBHz                    COMMENT             
                                                            MARKER NAME         
                                                            MARKER NUMBER       
                                                            OBSERVER / AGENCY   
                    NovAtel GPSCard                         REC # / TYPE / VERS 
                                                            ANT # / TYPE        
0.0000        0.0000        0.0000                          APPROX POSITION XYZ 
        0.0000        0.0000        0.0000                  ANTENNA: DELTA H/E/N
     1     0                                                WAVELENGTH FACT L1/2
     1     0     3   G07   G09   G16                        WAVELENGTH FACT L1/2
                                                            COMMENT             
                                                            COMMENT             
                                                            COMMENT             
                                                            COMMENT             
                                                            COMMENT             
                                                            COMMENT             
     4    C1    L1    D1    S1                              # / TYPES OF OBSERV 
     0.100                                                  INTERVAL            
  2016    04    02    14    10    37.1000000    GPS         TIME OF FIRST OBS   
  2016    04    02    14    12     1.7000000    GPS         TIME OF LAST OBS    
Leap Seconds Unknown                                        COMMENT             
                                                            END OF HEADER       
 16 04 02 14 10 37.1000000  0  1G09                                             
  22422378.13349 117830391.16059      5177.26249        49.000  
 16 04 02 14 10 37.2000000  0  1G09                                             
  22422279.65649 117829873.66049      5171.69949        49.000  
 16 04 02 14 10 37.3000000  0  1G09                                             
  22422181.32049 117829356.87949      5164.77749        49.000  
 16 04 02 14 10 37.4000000  0  1G09                                             
  22422083.09449 117828840.69949      5158.37549        49.000  
 16 04 02 14 10 37.5000000  0  1G09                                             
  22421984.98449 117828325.17249      5152.05549        49.000  
 16 04 02 14 10 37.6000000  0  1G09                                             
  22421887.00049 117827810.26249      5145.90649        49.000  
 16 04 02 14 10 37.7000000  0  1G09                                             
  22421789.14149 117827296.02749      5139.18049        49.000  
 16 04 02 14 10 37.8000000  0  1G09                                             
  22421691.41449 117826782.43449      5132.55549        49.000  
 16 04 02 14 10 37.9000000  0  1G09                                             
  22421593.77349 117826269.42249      5126.88749        49.000  
 16 04 02 14 10 38.0000000  0  1G09                                             
  22421496.28949 117825757.10549      5119.80949        49.000  
 16 04 02 14 10 38.1000000  0  1G09                                             
  22421398.93849 117825245.49649      5112.66049        49.000  
 16 04 02 14 10 38.2000000  0  1G09                                             
  22421301.71149 117824734.56649      5105.90249        49.000  
 16 04 02 14 10 38.3000000  0  1G09                                             
  22421204.60949 117824224.27349      5099.43049        49.000  
 16 04 02 14 10 38.4000000  0  1G09                                             
  22421107.63349 117823714.63349      5093.14849        49.000  
 16 04 02 14 10 38.5000000  0  1G09                                             
  22421010.77349 117823205.59849      5086.99649        49.000  
 16 04 02 14 10 38.6000000  0  1G09                                             
  22420914.04749 117822697.28949      5079.77049        49.000  
 16 04 02 14 10 38.7000000  0  1G09                                             
  22420817.42249 117822189.57449      5074.01249        49.000  
 16 04 02 14 10 38.8000000  0  1G09                                             
  22420720.93849 117821682.53149      5067.24649        49.000  
 16 04 02 14 10 38.9000000  0  1G09                                             
  22420624.56249 117821176.08649      5061.19149        49.000  
 16 04 02 14 10 39.0000000  0  1G09                                             
  22420528.32049 117820670.34049      5054.23449        49.000  
 16 04 02 14 10 39.1000000  0  1G09                                             
  22420432.21949 117820165.25849      5047.45349        49.000  
 16 04 02 14 10 39.2000000  0  1G09                                             
  22420336.22749 117819660.78949      5041.31649        49.000  
 16 04 02 14 10 39.3000000  0  1G09                                             
  22420240.32849 117819156.98049      5034.81649        49.000  
 16 04 02 14 10 39.4000000  0  1G09                                             
  22420144.59449 117818653.86349      5027.73849        49.000  
 16 04 02 14 10 39.5000000  0  1G09                                             
  22420048.96949 117818151.37949      5021.53549        49.000  
 16 04 02 14 10 39.6000000  0  1G09                                             
  22419953.47749 117817649.54349      5015.05549        49.000  
 16 04 02 14 10 39.7000000  0  1G09                                             
  22419858.10249 117817148.37549      5008.46549        49.000  
 16 04 02 14 10 39.8000000  0  1G09                                             
  22419762.86749 117816647.88349      5001.53549        49.000  
 16 04 02 14 10 39.9000000  0  1G09                                             
  22419667.75049 117816148.02049      4995.22749        49.000  
 16 04 02 14 10 40.0000000  0  1G09                                             
  22419572.75049 117815648.78149      4989.18049        49.000  
 16 04 02 14 10 40.1000000  0  1G09                                             
  22419477.87549 117815150.18849      4982.70749        49.000  
 16 04 02 14 10 40.2000000  0  1G09                                             
  22419383.11749 117814652.25849      4975.89849        49.000  
 16 04 02 14 10 40.3000000  0  1G09                                             
  22419288.50049 117814155.03549      4968.88749        49.000  
 16 04 02 14 10 40.4000000  0  1G09                                             
  22419194.00049 117813658.41849      4963.00049        50.000  
 16 04 02 14 10 40.5000000  0  1G09                                             
  22419099.59449 117813162.35949      4957.19549        50.000  
 16 04 02 14 10 40.6000000  0  1G09                                             
  22419005.33649 117812667.03949      4950.04349        50.000  
 16 04 02 14 10 40.7000000  0  1G09                                             
  22418911.21949 117812172.35549      4943.48849        50.000  
 16 04 02 14 10 40.8000000  0  1G09                                             
  22418817.20349 117811678.30949      4937.35949        50.000  
 16 04 02 14 10 40.9000000  0  1G09                                             
  22418723.30549 117811184.85249      4931.23449        50.000  
 16 04 02 14 10 41.0000000  0  1G09                                             
  22418629.54749 117810692.14149      4923.91849        50.000  
 16 04 02 14 10 41.1000000  0  1G09                                             
  22418535.90649 117810200.03949      4917.51249        50.000  
 16 04 02 14 10 41.2000000  0  1G09                                             
  22418442.39849 117809708.64849      4910.55149        50.000  
 16 04 02 14 10 41.3000000  0  1G09                                             
  22418349.00849 117809217.90249      4903.99649        50.000  
 16 04 02 14 10 41.4000000  0  1G09                                             
  22418255.75049 117808727.82449      4897.57849        50.000  
 16 04 02 14 10 41.5000000  0  1G09                                             
  22418162.60249 117808238.36349      4891.33649        50.000  
 16 04 02 14 10 41.6000000  0  1G09                                             
  22418069.58649 117807749.55149      4884.90649        50.000  
 16 04 02 14 10 41.7000000  0  1G09                                             
  22417976.69549 117807261.45749      4877.38749        50.000  
 16 04 02 14 10 41.8000000  0  1G09                                             
  22417883.93849 117806774.02049      4870.93049        50.000  
 16 04 02 14 10 41.9000000  0  1G09                                             
  22417791.29749 117806287.23849      4864.30149        50.000  
 16 04 02 14 10 42.0000000  0  1G09                                             
  22417698.78149 117805801.07449      4858.38749        50.000  
 16 04 02 14 10 42.1000000  0  1G09                                             
  22417606.38349 117805315.55149      4851.94149        50.000  
 16 04 02 14 10 42.2000000  0  1G09                                             
  22417514.10949 117804830.63749      4845.91449        50.000  
 16 04 02 14 10 42.3000000  0  1G09                                             
  22417421.96949 117804346.37149      4839.46949        50.000  
 16 04 02 14 10 42.4000000  0  1G09                                             
  22417329.93849 117803862.77749      4832.75849        49.000  
 16 04 02 14 10 42.5000000  0  1G09                                             
  22417238.06249 117803379.89149      4825.38349        49.000  
 16 04 02 14 10 42.6000000  0  1G09                                             
  22417146.28949 117802897.62949      4819.25449        49.000  
 16 04 02 14 10 42.7000000  0  1G09                                             
  22417054.62549 117802415.98849      4813.23049        50.000  
 16 04 02 14 10 42.8000000  0  1G09                                             
  22416963.08649 117801934.95349      4806.89149        50.000  
 16 04 02 14 10 42.9000000  0  1G09                                             
  22416871.68049 117801454.59449      4800.38349        50.000  
 16 04 02 14 10 43.0000000  0  1G09                                             
  22416780.38349 117800974.82849      4794.35549        50.000  
 16 04 02 14 10 43.1000000  0  1G09                                             
  22416689.21949 117800495.79349      4787.05149        50.000  
 16 04 02 14 10 43.2000000  0  1G09                                             
  22416598.19549 117800017.44549      4780.21149        50.000  
 16 04 02 14 10 43.3000000  0  1G09                                             
  22416507.28149 117799539.69949      4774.02749        49.000  
 16 04 02 14 10 43.4000000  0  1G09                                             
  22416416.50049 117799062.62949      4767.25849        49.000  
 16 04 02 14 10 43.5000000  0  1G09                                             
  22416325.82049 117798586.17249      4761.31649        49.000  
 16 04 02 14 10 43.6000000  0  1G09                                             
  22416235.27349 117798110.35949      4754.96149        49.000  
 16 04 02 14 10 43.7000000  0  1G09                                             
  22416144.85949 117797635.16849      4748.77349        49.000  
 16 04 02 14 10 43.8000000  0  1G09                                             
  22416054.55549 117797160.62549      4742.31649        49.000  
 16 04 02 14 10 43.9000000  0  1G09                                             
  22415964.36749 117796686.71149      4735.85249        49.000  
 16 04 02 14 10 44.0000000  0  1G09                                             
  22415874.31249 117796213.49249      4728.78549        49.000  
 16 04 02 14 10 44.1000000  0  1G09                                             
  22415784.38349 117795740.90649      4722.39549        49.000  
 16 04 02 14 10 44.2000000  0  1G09                                             
  22415694.57049 117795268.94149      4716.38749        49.000  
 16 04 02 14 10 44.3000000  0  1G09                                             
  22415604.86749 117794797.61349      4710.02349        49.000  
 16 04 02 14 10 44.4000000  0  1G09                                             
  22415515.30549 117794326.95349      4703.57049        49.000  
 16 04 02 14 10 44.5000000  0  1G09                                             
  22415425.84449 117793856.86349      4697.52049        49.000  
 16 04 02 14 10 44.6000000  0  1G09                                             
  22415336.53149 117793387.52049      4690.31649        49.000  
 16 04 02 14 10 44.7000000  0  1G09                                             
  22415247.33649 117792918.80949      4683.64149        50.000  
 16 04 02 14 10 44.8000000  0  1G09                                             
  22415158.26649 117792450.76649      4676.94549        49.000  
 16 04 02 14 10 44.9000000  0  1G09                                             
  22415069.32849 117791983.38349      4670.46949        49.000  
 16 04 02 14 10 45.0000000  0  1G09                                             
  22414980.50849 117791516.60249      4664.44949        49.000  
 16 04 02 14 10 45.1000000  0  1G09                                             
  22414891.79749 117791050.42649      4658.65649        50.000  
 16 04 02 14 10 45.2000000  0  1G09                                             
  22414803.21149 117790584.89549      4651.98449        50.000  
 16 04 02 14 10 45.3000000  0  1G09                                             
  22414714.75849 117790120.02749      4645.36749        50.000  
 16 04 02 14 10 45.4000000  0  1G09                                             
  22414626.42249 117789655.78549      4639.02749        50.000  
 16 04 02 14 10 45.5000000  0  1G09                                             
  22414538.20349 117789192.23849      4631.98849        50.000  
 16 04 02 14 10 45.6000000  0  1G09                                             
  22414450.13349 117788729.39849      4625.02349        50.000  
 16 04 02 14 10 45.7000000  0  1G09                                             
  22414362.18049 117788267.20349      4618.61749        50.000  
 16 04 02 14 10 45.8000000  0  1G09                                             
  22414274.34449 117787805.63349      4612.21149        50.000  
 16 04 02 14 10 45.9000000  0  1G09                                             
  22414186.63349 117787344.73049      4605.62149        50.000  
 16 04 02 14 10 46.0000000  0  1G09                                             
  22414099.04749 117786884.45749      4599.56649        50.000  
 16 04 02 14 10 46.1000000  0  1G09                                             
  22414011.57849 117786424.83249      4593.12149        50.000  
 16 04 02 14 10 46.2000000  0  1G09                                             
  22413924.22749 117785965.77749      4587.20349        50.000  
 16 04 02 14 10 46.3000000  0  1G09                                             
  22413837.00849 117785507.43849      4580.23449        50.000  
 16 04 02 14 10 46.4000000  0  1G09                                             
  22413749.90649 117785049.71549      4573.85549        50.000  
 16 04 02 14 10 46.5000000  0  1G09                                             
  22413662.93849 117784592.66849      4567.10549        50.000  
 16 04 02 14 10 46.6000000  0  1G09                                             
  22413576.08649 117784136.27749      4560.62549        50.000  
 16 04 02 14 10 46.7000000  0  1G09                                             
  22413489.36749 117783680.55149      4553.64549        50.000  
 16 04 02 14 10 46.8000000  0  1G09                                             
  22413402.77349 117783225.49649      4547.17249        50.000  
 16 04 02 14 10 46.9000000  0  1G09                                             
  22413316.30549 117782771.09849      4540.48849        50.000  
 16 04 02 14 10 47.0000000  0  1G09                                             
  22413229.95349 117782317.34049      4534.58249        50.000  
 16 04 02 14 10 47.1000000  0  1G09                                             
  22413143.71949 117781864.17249      4528.30949        50.000  
 16 04 02 14 10 47.2000000  0  1G09                                             
  22413057.61749 117781411.71149      4521.50849        49.000  
 16 04 02 14 10 47.3000000  0  1G09                                             
  22412971.64849 117780959.87549      4515.01249        49.000  
 16 04 02 14 10 47.4000000  0  1G09                                             
  22412885.78949 117780508.68449      4508.64549        49.000  
 16 04 02 14 10 47.5000000  0  1G09                                             
  22412800.06249 117780058.15249      4501.80149        49.000  
 16 04 02 14 10 47.6000000  0  1G09                                             
  22412714.46149 117779608.29749      4495.32049        50.000  
 16 04 02 14 10 47.7000000  0  1G09                                             
  22412628.98449 117779159.11749      4488.50449        50.000  
 16 04 02 14 10 47.8000000  0  1G09                                             
  22412543.63349 117778710.60949      4481.60549        50.000  
 16 04 02 14 10 47.9000000  0  1G09                                             
  22412458.39849 117778262.71149      4475.83249        50.000  
 16 04 02 14 10 48.0000000  0  1G09                                             
  22412373.28149 117777815.42649      4469.69149        50.000  
 16 04 02 14 10 48.1000000  0  1G09                                             
  22412288.29749 117777368.81649      4462.91049        50.000  
 16 04 02 14 10 48.2000000  0  1G09                                             
  22412203.43849 117776922.84849      4456.44149        49.000  
 16 04 02 14 10 48.3000000  0  1G09                                             
  22412118.68849 117776477.48049      4450.50849        49.000  
 16 04 02 14 10 48.4000000  0  1G09                                             
  22412034.05549 117776032.76249      4444.04749        50.000  
 16 04 02 14 10 48.5000000  0  1G09                                             
  22411949.55549 117775588.69549      4437.20749        49.000  
 16 04 02 14 10 48.6000000  0  1G09                                             
  22411865.19549 117775145.37549      4429.93449        50.000  
 16 04 02 14 10 48.7000000  0  1G09                                             
  22411780.95349 117774702.64549      4424.00449        50.000  
 16 04 02 14 10 48.8000000  0  1G09                                             
  22411696.82049 117774260.49249      4418.19549        49.000  
 16 04 02 14 10 48.9000000  0  1G09                                             
  22411612.81249 117773819.04749      4411.22749        49.000  
 16 04 02 14 10 49.0000000  0  1G09                                             
  22411528.92249 117773378.20349      4405.06249        49.000  
 16 04 02 14 10 49.1000000  0  1G09                                             
  22411445.14849 117772938.02749      4398.55949        50.000  
 16 04 02 14 10 49.2000000  0  1G09                                             
  22411361.50849 117772498.49249      4392.00449        50.000  
 16 04 02 14 10 49.3000000  0  1G09                                             
  22411278.00049 117772059.65649      4384.94149        50.000  
 16 04 02 14 10 49.4000000  0  1G09                                             
  22411194.60949 117771621.46549      4378.68849        50.000  
 16 04 02 14 10 49.5000000  0  1G09                                             
  22411111.34449 117771183.89149      4372.28549        50.000  
 16 04 02 14 10 49.6000000  0  2G09G16                                          
  22411028.21149 117770747.02349      4365.42249        50.000  
  22101832.95349 116145914.60959     10861.05549        49.000  
 16 04 02 14 10 49.7000000  0  2G09G16                                          
  22410945.19549 117770310.77349      4359.12949        50.000  
  22101626.32049 116144828.73449     10856.37949        49.000  
 16 04 02 14 10 49.8000000  0  2G09G16                                          
  22410862.30549 117769875.19549      4352.48449        50.000  
  22101419.78949 116143743.32049     10851.79749        49.000  
 16 04 02 14 10 49.9000000  0  3G07G09G16                                       
  24247939.84449 127423782.98059     14437.00849        49.000  
  22410779.53149 117769440.21549      4346.51249        50.000  
  22101213.32049 116142658.34049     10847.56649        49.000  
 16 04 02 14 10 50.0000000  0  3G07G09G16                                       
  24247665.15649 127422339.49649     14433.38349        49.000  
  22410696.89149 117769005.92249      4339.77049        50.000  
  22101006.91449 116141573.85949     10842.57049        49.000  
 16 04 02 14 10 50.1000000  0  3G07G09G16                                       
  24247390.56249 127420896.30549     14430.34849        49.000  
  22410614.35249 117768572.24649      4333.48049        50.000  
  22100800.62549 116140489.81249     10838.18049        49.000  
 16 04 02 14 10 50.2000000  0  3G07G09G16                                       
  24247116.00049 127419453.46149     14427.06649        49.000  
  22410531.95349 117768139.24649      4326.88749        50.000  
  22100594.44549 116139406.23449     10833.64149        49.000  
 16 04 02 14 10 50.3000000  0  3G07G09G16                                       
  24246841.46149 127418010.91849     14423.91449        49.000  
  22410449.66449 117767706.84049      4320.66449        50.000  
  22100388.32849 116138323.09449     10828.96949        49.000  
 16 04 02 14 10 50.4000000  0  3G07G09G16                                       
  24246567.01649 127416568.71149     14420.67249        49.000  
  22410367.50849 117767275.11349      4314.11349        50.000  
  22100182.33649 116137240.42249     10824.45349        49.000  
 16 04 02 14 10 50.5000000  0  3G07G09G16                                       
  24246292.71149 127415126.89849     14416.49649        49.000  
  22410285.49249 117766844.07449      4306.84449        50.000  
  22099976.40649 116136158.28549     10818.91449        49.000  
 16 04 02 14 10 50.6000000  0  3G07G09G16                                       
  24246018.40649 127413685.41449     14413.09449        49.000  
  22410203.58649 117766413.68849      4300.34849        50.000  
  22099770.60249 116135076.59449     10814.43049        49.000  
 16 04 02 14 10 50.7000000  0  3G07G09G16                                       
  24245744.21149 127412244.25849     14409.96949        49.000  
  22410121.82049 117765983.95349      4293.98849        50.000  
  22099564.85249 116133995.37949     10809.77049        49.000  
 16 04 02 14 10 50.8000000  0  3G07G09G16                                       
  24245470.02349 127410803.38749     14407.27349        49.000  
  22410040.15649 117765554.81249      4288.18449        50.000  
  22099359.18849 116132914.56249     10805.85549        49.000  
 16 04 02 14 10 50.9000000  0  3G07G09G16                                       
  24245195.94549 127409362.89149     14403.49649        49.000  
  22409958.61749 117765126.36749      4281.24249        50.000  
  22099153.60949 116131834.27349     10800.69549        49.000  
 16 04 02 14 10 51.0000000  0  3G07G09G16                                       
  24244921.87549 127407922.66849     14400.69149        49.000  
  22409877.20349 117764698.50849      4275.35249        50.000  
  22098948.10249 116130754.37949     10796.60549        49.000  
 16 04 02 14 10 51.1000000  0  3G07G09G16                                       
  24244647.87549 127406482.80549     14397.08649        49.000  
  22409795.91449 117764271.33649      4268.49649        50.000  
  22098742.69549 116129674.98049     10791.69549        49.000  
 16 04 02 14 10 51.2000000  0  3G07G09G16                                       
  24244373.94549 127405043.25449     14394.02349        49.000  
  22409714.74249 117763844.78949      4262.34449        50.000  
  22098537.38349 116128596.03549     10787.35549        49.000  
 16 04 02 14 10 51.3000000  0  3G07G09G16                                       
  24244100.06249 127403604.02049     14390.80549        49.000  
  22409633.69549 117763418.87949      4255.68049        50.000  
  22098332.14849 116127517.52349     10782.80149        49.000  
 16 04 02 14 10 51.4000000  0  3G07G09G16                                       
  24243826.25049 127402165.12549     14387.55949        49.000  
  22409552.77349 117762993.61349      4249.46549        50.000  
  22098127.00849 116126439.49649     10778.04349        49.000  
 16 04 02 14 10 51.5000000  0  3G07G09G16                                       
  24243552.46949 127400726.60249     14383.82849        49.000  
  22409471.97749 117762569.05149      4242.49249        50.000  
  22097921.96149 116125361.97349     10773.03149        49.000  
 16 04 02 14 10 51.6000000  0  3G07G09G16                                       
  24243278.78949 127399288.41049     14380.28949        49.000  
  22409391.31249 117762145.13349      4235.80949        49.000  
  22097717.01649 116124284.91049     10768.22349        49.000  
 16 04 02 14 10 51.7000000  0  3G07G09G16                                       
  24243005.17249 127397850.52349     14377.27749        49.000  
  22409310.75849 117761721.82449      4229.73049        49.000  
  22097512.14149 116123208.27749     10763.93849        49.000  
 16 04 02 14 10 51.8000000  0  3G07G09G16                                       
  24242731.60949 127396412.93049     14374.57049        49.000  
  22409230.32849 117761299.14549      4223.79349        49.000  
  22097307.35949 116122132.08249     10759.90649        49.000  
 16 04 02 14 10 51.9000000  0  3G07G09G16                                       
  24242458.07049 127394975.68449     14370.93849        49.000  
  22409150.00849 117760877.11749      4217.05149        49.000  
  22097102.65649 116121056.35949     10755.00849        49.000  
 16 04 02 14 10 52.0000000  0  3G07G09G16                                       
  24242184.63349 127393538.77349     14367.52349        49.000  
  22409069.82849 117760455.75049      4210.41849        49.000  
  22096897.99249 116119981.11749     10750.06649        49.000  
 16 04 02 14 10 52.1000000  0  3G07G09G16                                       
  24241911.31249 127392102.22349     14363.92249        49.000  
  22408989.76649 117760035.05149      4203.75849        49.000  
  22096693.46949 116118906.34449     10745.46549        49.000  
 16 04 02 14 10 52.2000000  0  3G07G09G16                                       
  24241638.00849 127390665.98049     14360.76249        49.000  
  22408909.83649 117759614.98449      4197.25449        49.000  
  22096489.03949 116117832.03549     10740.67249        49.000  
 16 04 02 14 10 52.3000000  0  3G07G09G16                                       
  24241364.73449 127389230.05149     14357.64549        49.000  
  22408830.02349 117759195.55149      4190.87949        49.000  
  22096284.68849 116116758.16449     10736.22349        49.000  
 16 04 02 14 10 52.4000000  0  3G07G09G16                                       
  24241091.55549 127387794.46149     14354.30949        49.000  
  22408750.32849 117758776.76649      4184.43049        49.000  
  22096080.43049 116115684.76249     10731.69149        49.000  
 16 04 02 14 10 52.5000000  0  3G07G09G16                                       
  24240818.44549 127386359.25049     14350.54349        49.000  
  22408670.78149 117758358.68049      4177.48849        49.000  
  22095876.26649 116114611.86749     10726.50849        49.000  
 16 04 02 14 10 52.6000000  0  3G07G09G16                                       
  24240545.39849 127384924.36349     14347.25449        49.000  
  22408591.34449 117757941.23849      4170.99249        49.000  
  22095672.21949 116113539.43849     10721.89849        49.000  
 16 04 02 14 10 52.7000000  0  3G07G09G16                                       
  24240272.38349 127383489.80949     14343.97349        49.000  
  22408512.02349 117757524.44149      4164.53549        49.000  
  22095468.22749 116112467.46949     10717.33649        49.000  
 16 04 02 14 10 52.8000000  0  3G07G09G16                                       
  24239999.46949 127382055.60949     14340.60949        49.000  
  22408432.83649 117757108.30549      4158.22749        49.000  
  22095264.33649 116111395.98449     10712.70349        49.000  
 16 04 02 14 10 52.9000000  0  3G07G09G16                                       
  24239726.58649 127380621.71149     14337.45749        49.000  
  22408353.76649 117756692.80549      4151.68049        49.000  
  22095060.52349 116110324.94149     10708.10249        49.000  
 16 04 02 14 10 53.0000000  0  3G07G09G16                                       
  24239453.78949 127379188.13749     14334.18849        49.000  
  22408274.82049 117756277.93049      4145.24249        49.000  
  22094856.77349 116109254.35249     10703.44149        49.000  
 16 04 02 14 10 53.1000000  0  3G07G09G16                                       
  24239181.03949 127377754.88749     14331.03949        49.000  
  22408196.00049 117755863.70349      4139.11349        49.000  
  22094653.13349 116108184.21149     10699.21549        49.000  
 16 04 02 14 10 53.2000000  0  3G07G09G16                                       
  24238908.35249 127376321.91049     14328.36749        49.000  
  22408117.28949 117755450.07049      4133.21949        49.000  
  22094449.57049 116107114.48849     10695.13349        49.000  
 16 04 02 14 10 53.3000000  0  3G07G09G16                                       
  24238635.71949 127374889.28149     14324.77049        49.000  
  22408038.69549 117755037.09849      4126.48049        49.000  
  22094246.09449 116106045.23449     10690.21549        49.000  
 16 04 02 14 10 53.4000000  0  3G07G09G16                                       
  24238363.16449 127373456.99649     14321.28949        49.000  
  22407960.23449 117754624.78549      4119.78949        49.000  
  22094042.68049 116104976.45749     10685.47749        49.000  
 16 04 02 14 10 53.5000000  0  3G07G09G16                                       
  24238090.68849 127372025.13349     14316.89549        49.000  
  22407881.91449 117754213.20749      4112.32049        49.000  
  22093839.40649 116103908.23849     10679.69949        49.000  
 16 04 02 14 10 53.6000000  0  3G07G09G16                                       
  24237818.28149 127370593.59049     14313.78949        49.000  
  22407803.71949 117753802.28549      4105.99249        49.000  
  22093636.23449 116102840.48449     10675.25849        49.000  
 16 04 02 14 10 53.7000000  0  3G07G09G16                                       
  24237545.92249 127369162.31649     14311.30149        49.000  
  22407725.63349 117753391.92249      4100.37549        49.000  
  22093433.11749 116101773.11349     10671.50449        49.000  
 16 04 02 14 10 53.8000000  0  3G07G09G16                                       
  24237273.62549 127367731.37949     14307.77349        49.000  
  22407647.66449 117752982.21949      4093.76649        49.000  
  22093230.11749 116100706.21549     10666.59049        49.000  
 16 04 02 14 10 53.9000000  0  3G07G09G16                                       
  24237001.39149 127366300.80149     14304.25449        49.000  
  22407569.82849 117752573.20349      4086.97349        49.000  
  22093027.18849 116099639.81249     10661.73449        49.000  
 16 04 02 14 10 54.0000000  0  3G07G09G16                                       
  24236729.21949 127364870.54349     14301.10249        49.000  
  22407492.10949 117752164.82049      4080.66849        49.000  
  22092824.35249 116098573.85949     10657.30549        49.000  
 16 04 02 14 10 54.1000000  0  3G07G09G16                                       
  24236457.11749 127363440.57449     14298.19149        49.000  
  22407414.51649 117751757.03949      4074.58649        49.000  
  22092621.58649 116097508.32849     10653.05149        49.000  
 16 04 02 14 10 54.2000000  0  3G07G09G16                                       
  24236185.06249 127362010.92249     14295.02049        49.000  
  22407337.03949 117751349.89549      4068.17649        49.000  
  22092418.90649 116096443.24649     10648.60249        49.000  
 16 04 02 14 10 54.3000000  0  3G07G09G16                                       
  24235913.05549 127360581.60549     14291.67649        49.000  
  22407259.68849 117750943.39849      4061.73049        49.000  
  22092216.31249 116095378.62949     10643.95749        49.000  
 16 04 02 14 10 54.4000000  0  3G07G09G16                                       
  24235641.12549 127359152.60549     14288.38749        49.000  
  22407182.46149 117750537.53949      4055.25049        49.000  
  22092013.80549 116094314.46149     10639.31649        49.000  
 16 04 02 14 10 54.5000000  0  3G07G09G16                                       
  24235369.26649 127357723.94949     14285.04349        49.000  
  22407105.34449 117750132.33649      4048.82449        49.000  
  22091811.39149 116093250.77349     10634.68449        49.000  
 16 04 02 14 10 54.6000000  0  3G07G09G16                                       
  24235097.48449 127356295.71549     14280.65249        49.000  
  22407028.37549 117749727.87149      4041.21149        49.000  
  22091609.07049 116092187.63349     10628.96949        49.000  
 16 04 02 14 10 54.7000000  0  3G07G09G16                                       
  24234825.76649 127354867.76249     14277.79349        49.000  
  22406951.52349 117749324.00449      4035.25049        49.000  
  22091406.84449 116091124.91049     10624.78949        49.000  
 16 04 02 14 10 54.8000000  0  3G07G09G16                                       
  24234554.10249 127353440.15649     14274.37949        49.000  
  22406874.79749 117748920.80549      4028.54749        49.000  
  22091204.69549 116090062.66449     10620.00849        49.000  
 16 04 02 14 10 54.9000000  0  3G07G09G16                                       
  24234282.47749 127352012.82449     14271.97749        49.000  
  22406798.18849 117748518.19549      4022.98849        49.000  
  22091002.63349 116089000.83249     10616.16849        49.000  
 16 04 02 14 10 55.0000000  0  3G07G09G16                                       
  24234010.93849 127350585.89149     14267.97749        49.000  
  22406721.71149 117748116.29749      4015.81649        49.000  
  22090800.65649 116087939.52749     10610.91049        49.000  
 16 04 02 14 10 55.1000000  0  3G07G09G16                                       
  24233739.45349 127349159.27749     14264.57049        49.000  
  22406645.35249 117747715.03949      4009.21149        49.000  
  22090598.78149 116086878.67249     10606.19949        49.000  
 16 04 02 14 10 55.2000000  0  3G07G09G16                                       
  24233468.03149 127347732.97349     14261.59049        49.000  
  22406569.11749 117747314.39149      4003.32849        49.000  
  22090397.00849 116085818.24249     10602.24249        49.000  
 16 04 02 14 10 55.3000000  0  3G07G09G16                                       
  24233196.69549 127346307.04749     14257.66049        49.000  
  22406493.00849 117746914.45749      3996.08249        49.000  
  22090195.32049 116084758.34449     10596.76249        49.000  
 16 04 02 14 10 55.4000000  0  3G07G09G16                                       
  24232925.40649 127344881.40249     14254.93849        49.000  
  22406417.01649 117746515.10949      3990.18049        49.000  
  22089993.71949 116083698.85949     10592.61749        49.000  
 16 04 02 14 10 55.5000000  0  3G07G09G16                                       
  24232654.15649 127343456.04749     14252.11349        49.000  
  22406341.13349 117746116.37549      3984.19549        49.000  
  22089792.18049 116082639.78149     10588.65649        49.000  
 16 04 02 14 10 55.6000000  0  3G07G09G16                                       
  24232382.99249 127342031.05549     14248.50049        49.000  
  22406265.38349 117745718.30949      3977.54749        49.000  
  22089590.72749 116081581.20349     10583.67249        49.000  
 16 04 02 14 10 55.7000000  0  3G07G09G16                                       
  24232111.87549 127340606.32049     14245.77049        49.000  
  22406189.74249 117745320.82449      3971.59449        49.000  
  22089389.35949 116080523.01649     10579.64549        49.000  
 16 04 02 14 10 55.8000000  0  3G07G09G16                                       
  24231840.83649 127339181.99649     14241.62549        49.000  
  22406114.24249 117744924.06649      3964.23049        49.000  
  22089188.09449 116079465.37549     10574.02749        49.000  
 16 04 02 14 10 55.9000000  0  3G07G09G16                                       
  24231569.85249 127337758.00049     14238.30149        49.000  
  22406038.85949 117744527.94549      3957.77349        49.000  
  22088986.91449 116078408.18849     10569.55149        49.000  
 16 04 02 14 10 56.0000000  0  3G07G09G16                                       
  24231298.93849 127336334.34449     14234.99649        49.000  
  22405963.60949 117744132.48849      3951.34449        49.000  
  22088785.82849 116077351.48049     10564.87549        49.000  
 16 04 02 14 10 56.1000000  0  3G07G09G16                                       
  24231028.09449 127334910.93849     14232.49649        49.000  
  22405888.46149 117743737.59849      3945.55949        49.000  
  22088584.81249 116076295.16049     10560.84449        49.000  
 16 04 02 14 10 56.2000000  0  3G07G09G16                                       
  24230757.30549 127333487.95749     14228.25449        49.000  
  22405813.45349 117743343.43449      3938.35249        49.000  
  22088383.89849 116075239.37949     10555.39849        49.000  
 16 04 02 14 10 56.3000000  0  3G07G09G16                                       
  24230486.57849 127332065.28549     14225.03149        49.000  
  22405738.57849 117742949.91049      3931.84849        49.000  
  22088183.07049 116074184.03949     10550.95749        49.000  
 16 04 02 14 10 56.4000000  0  3G07G09G16                                       
  24230215.91449 127330642.94949     14221.74649        49.000  
  22405663.81249 117742557.03149      3925.46549        49.000  
  22087982.34449 116073129.17649     10546.33649        49.000  
 16 04 02 14 10 56.5000000  0  3G07G09G16                                       
  24229945.33649 127329220.95749     14218.27349        49.000  
  22405589.17249 117742164.82049      3918.76649        49.000  
  22087781.69549 116072074.78149     10541.59849        49.000  
 16 04 02 14 10 56.6000000  0  3G07G09G16                                       
  24229674.79749 127327799.26249     14215.55949        49.000  
  22405514.65649 117741773.21549      3912.97749        49.000  
  22087581.13349 116071020.82849     10537.39849        49.000  
 16 04 02 14 10 56.7000000  0  3G07G09G16                                       
  24229404.30549 127326377.87149     14212.34049        49.000  
  22405440.24249 117741382.23449      3906.43849        49.000  
  22087380.65649 116069967.29749     10532.89149        49.000  
 16 04 02 14 10 56.8000000  0  3G07G09G16                                       
  24229133.89849 127324956.87549     14208.48449        49.000  
  22405365.97749 117740991.96149      3899.53949        49.000  
  22087180.29749 116068914.30549     10527.71549        49.000  
 16 04 02 14 10 56.9000000  0  3G07G09G16                                       
  24228863.54749 127323536.18849     14205.27049        49.000  
  22405291.82049 117740602.31249      3893.16049        49.000  
  22086980.00049 116067861.75049     10523.10949        49.000  
 16 04 02 14 10 57.0000000  0  3G07G09G16                                       
  24228593.26649 127322115.84049     14201.84049        49.000  
  22405217.79749 117740213.31649      3886.54749        49.000  
  22086779.79749 116066809.64849     10518.49649        49.000  
 16 04 02 14 10 57.1000000  0  3G07G09G16                                       
  24228323.06249 127320695.84049     14198.45749        49.000  
  22405143.90649 117739824.96949      3880.25849        49.000  
  22086579.68049 116065758.03549     10513.89549        49.000  
 16 04 02 14 10 57.2000000  0  3G07G09G16                                       
  24228052.89849 127319276.11349     14195.82449        49.000  
  22405070.12549 117739437.25049      3874.18449        49.000  
  22086379.66449 116064706.84849     10509.73049        49.000  
 16 04 02 14 10 57.3000000  0  3G07G09G16                                       
  24227782.82049 127317856.75049     14192.18849        49.000  
  22404996.46149 117739050.18049      3867.46549        49.000  
  22086179.71949 116063656.12549     10504.95349        49.000  
 16 04 02 14 10 57.4000000  0  3G07G09G16                                       
  24227512.77349 127316437.68449     14189.16449        49.000  
  22404922.92249 117738663.73449      3861.18849        49.000  
  22085979.86749 116062605.85249     10500.50449        49.000  
 16 04 02 14 10 57.5000000  0  3G07G09G16                                       
  24227242.82049 127315019.02749     14184.95349        49.000  
  22404849.51649 117738278.00849      3853.90249        49.000  
  22085780.10949 116061556.10949     10495.09049        49.000  
 16 04 02 14 10 57.6000000  0  3G07G09G16                                       
  24226972.91449 127313600.64149     14182.24649        49.000  
  22404776.22749 117737892.87149      3848.03949        49.000  
  22085580.42249 116060506.77049     10491.05549        49.000  
 16 04 02 14 10 57.7000000  0  3G07G09G16                                       
  24226703.05549 127312182.56649     14179.26649        49.000  
  22404703.05549 117737508.35549      3841.93449        49.000  
  22085380.82049 116059457.87149     10486.80549        49.000  
 16 04 02 14 10 57.8000000  0  3G07G09G16                                       
  24226433.27349 127310764.84849     14175.86749        49.000  
  22404630.01649 117737124.51649      3835.33649        49.000  
  22085181.30549 116058409.46549     10481.93449        49.000  
 16 04 02 14 10 57.9000000  0  3G07G09G16                                       
  24226163.53149 127309347.46549     14172.29349        49.000  
  22404557.09449 117736741.33249      3828.56649        49.000  
  22084981.89149 116057361.53149     10477.06249        49.000  
 16 04 02 14 10 58.0000000  0  3G07G09G16                                       
  24225893.87549 127307930.39549     14169.10549        49.000  
  22404484.28949 117736358.76249      3822.40649        49.000  
  22084782.57049 116056314.03549     10472.56649        49.000  
 16 04 02 14 10 58.1000000  0  3G07G09G16                                       
  24225624.26649 127306513.69949     14165.36749        49.000  
  22404411.63349 117735976.89849      3815.41049        49.000  
  22084583.33649 116055267.03149     10467.77049        49.000  
 16 04 02 14 10 58.2000000  0  3G07G09G16                                       
  24225354.73449 127305097.30549     14162.43849        49.000  
  22404339.08649 117735595.64849      3809.30949        49.000  
  22084384.18049 116054220.48449     10463.34449        49.000  
 16 04 02 14 10 58.3000000  0  3G07G09G16                                       
  24225085.26649 127303681.18849     14159.69949        49.000  
  22404266.64149 117735214.99249      3803.27049        49.000  
  22084185.10249 116053174.34049     10459.19949        49.000  
 16 04 02 14 10 58.4000000  0  3G07G09G16                                       
  24224815.85249 127302265.43049     14156.20749        49.000  
  22404194.32849 117734834.99249      3796.75449        49.000  
  22083986.11749 116052128.67649     10454.39549        49.000  
 16 04 02 14 10 58.5000000  0  3G07G09G16                                       
  24224546.49249 127300850.03149     14152.36749        49.000  
  22404122.14849 117734455.68049      3789.84449        49.000  
  22083787.22749 116051083.50049     10449.37549        49.000  
 16 04 02 14 10 58.6000000  0  3G07G09G16                                       
  24224277.21149 127299434.94549     14149.21549        49.000  
  22404050.08649 117734077.00049      3783.41849        49.000  
  22083588.42249 116050038.78149     10444.89849        49.000  
 16 04 02 14 10 58.7000000  0  3G07G09G16                                       
  24224007.98449 127298020.21149     14145.85549        49.000  
  22403978.14849 117733698.98049      3777.05949        49.000  
  22083389.71149 116048994.53549     10440.25449        49.000  
 16 04 02 14 10 58.8000000  0  3G07G09G16                                       
  24223738.82849 127296605.75449     14142.93449        49.000  
  22403906.33649 117733321.56649      3770.83649        49.000  
  22083191.09449 116047950.71549     10435.91049        49.000  
 16 04 02 14 10 58.9000000  0  3G07G09G16                                       
  24223469.73449 127295191.66049     14139.50849        49.000  
  22403834.64149 117732944.81649      3764.21149        49.000  
  22082992.55549 116046907.37149     10431.12149        49.000  
 16 04 02 14 10 59.0000000  0  3G07G09G16                                       
  24223200.71949 127293777.94949     14135.53949        49.000  
  22403763.07849 117732568.75849      3757.27349        49.000  
  22082794.11749 116045864.53149     10426.03949        49.000  
 16 04 02 14 10 59.1000000  0  3G07G09G16                                       
  24222931.77349 127292364.55949     14132.19549        49.000  
  22403691.64149 117732193.35949      3750.44549        49.000  
  22082595.76649 116044822.16849     10421.12549        49.000  
 16 04 02 14 10 59.2000000  0  3G07G09G16                                       
  24222662.87549 127290951.50449     14129.08649        49.000  
  22403620.32849 117731818.59449      3744.43849        49.000  
  22082397.49249 116043780.26649     10416.80549        49.000  
 16 04 02 14 10 59.3000000  0  3G07G09G16                                       
  24222394.03949 127289538.73849     14126.20749        49.000  
  22403549.12549 117731444.42649      3738.38349        49.000  
  22082199.30549 116042738.77049     10412.62549        49.000  
 16 04 02 14 10 59.4000000  0  3G07G09G16                                       
  24222125.25849 127288126.28949     14123.16449        49.000  
  22403478.04749 117731070.91049      3732.04749        49.000  
  22082001.21149 116041697.73849     10408.22349        49.000  
 16 04 02 14 10 59.5000000  0  3G07G09G16                                       
  24221856.54749 127286714.17249     14119.60549        49.000  
  22403407.08649 117730698.02749      3725.41849        49.000  
  22081803.19549 116040657.16049     10403.41849        49.000  
 16 04 02 14 10 59.6000000  0  3G07G09G16                                       
  24221587.89849 127285302.42249     14116.08249        49.000  
  22403336.25849 117730325.82849      3718.90649        49.000  
  22081605.27349 116039617.07449     10398.66849        49.000  
 16 04 02 14 10 59.7000000  0  3G07G09G16                                       
  24221319.32849 127283890.99249     14112.68849        49.000  
  22403265.56249 117729954.27349      3712.21549        49.000  
  22081407.43849 116038577.45749     10393.80149        49.000  
 16 04 02 14 10 59.8000000  0  3G07G09G16                                       
  24221050.81249 127282479.94149     14108.76649        49.000  
  22403194.98449 117729583.39149      3705.36749        49.000  
  22081209.70349 116037538.32849     10388.80149        49.000  
 16 04 02 14 10 59.9000000  0  3G07G09G16                                       
  24220782.35949 127281069.23449     14105.34849        49.000  
  22403124.53949 117729213.19149      3698.81649        49.000  
  22081012.05549 116036499.68849     10384.18849        49.000  
 16 04 02 14 11  0.0000000  0  3G07G09G16                                       
  24220513.95349 127279658.75449     14103.29749        49.000  
  22403054.19549 117728843.53149      3693.42649        49.000  
  22080814.48449 116035461.41049     10380.59049        49.000  
 16 04 02 14 11  0.1000000  0  3G07G09G16                                       
  24220245.60949 127278248.66849     14099.42649        49.000  
  22402983.98449 117728474.57049      3686.33649        49.000  
  22080617.00049 116034423.64549     10375.48449        49.000  
 16 04 02 14 11  0.2000000  0  3G07G09G16                                       
  24219977.33649 127276838.86749     14096.52049        49.000  
  22402913.88349 117728106.21149      3680.33249        49.000  
  22080419.60949 116033386.30549     10371.16449        49.000  
 16 04 02 14 11  0.3000000  0  3G07G09G16                                       
  24219709.10949 127275429.38749     14093.27749        49.000  
  22402843.90649 117727738.49649      3673.87149        49.000  
  22080222.29749 116032349.41849     10366.62149        49.000  
 16 04 02 14 11  0.4000000  0  3G07G09G16                                       
  24219440.96949 127274020.30149     14089.25449        49.000  
  22402774.07049 117727371.48049      3666.72349        49.000  
  22080025.08649 116031313.05149     10361.25449        49.000  
 16 04 02 14 11  0.5000000  0  3G07G09G16                                       
  24219172.89849 127272611.54349     14086.11749        49.000  
  22402704.34449 117727005.10249      3660.60949        49.000  
  22079827.95349 116030277.13749     10356.85949        49.000  
 16 04 02 14 11  0.6000000  0  3G07G09G16                                       
  24218904.87549 127271203.07049     14083.01649        49.000  
  22402634.74249 117726639.34449      3654.13749        49.000  
  22079630.90649 116029241.65649     10352.31649        49.000  
 16 04 02 14 11  0.7000000  0  3G07G09G16                                       
  24218636.93049 127269794.98449     14079.46549        49.000  
  22402565.27349 117726274.26649      3647.65249        49.000  
  22079433.95349 116028206.67649     10347.64549        49.000  
 16 04 02 14 11  0.8000000  0  3G07G09G16                                       
  24218369.03949 127268387.19949     14076.28149        49.000  
  22402495.92249 117725909.81649      3641.21149        49.000  
  22079237.09449 116027172.13349     10343.12149        49.000  
 16 04 02 14 11  0.9000000  0  3G07G09G16                                       
  24218101.20349 127266979.72349     14073.31649        49.000  
  22402426.68849 117725545.98849      3635.05549        49.000  
  22079040.31249 116026138.03549     10338.68449        49.000  
 16 04 02 14 11  1.0000000  0  3G07G09G16                                       
  24217833.43849 127265572.57849     14069.98049        49.000  
  22402357.57049 117725182.79349      3628.66049        49.000  
  22078843.60949 116025104.37949     10334.30549        49.000  
 16 04 02 14 11  1.1000000  0  3G07G09G16                                       
  24217565.74249 127264165.80149     14066.07849        49.000  
  22402288.59449 117724820.29749      3621.53149        49.000  
  22078647.00849 116024071.24249     10328.88749        49.000  
 16 04 02 14 11  1.2000000  0  3G07G09G16                                       
  24217298.10949 127262759.35249     14062.92649        49.000  
  22402219.73449 117724458.44549      3615.29749        49.000  
  22078450.49249 116023038.56249     10324.52049        49.000  
 16 04 02 14 11  1.3000000  0  3G07G09G16                                       
  24217030.50849 127261353.16849     14060.30949        49.000  
  22402150.97749 117724097.16049      3609.53549        49.000  
  22078254.04749 116022006.26649     10320.66049        49.000  
 16 04 02 14 11  1.4000000  0  3G07G09G16                                       
  24216762.98449 127259947.35249     14056.69949        49.000  
  22402082.35949 117723736.57449      3602.68849        49.000  
  22078057.71149 116020974.48849     10315.55549        49.000  
 16 04 02 14 11  1.5000000  0  3G07G09G16                                       
  24216495.55549 127258541.92249     14052.66049        49.000  
  22402013.86749 117723376.67249      3595.55149        50.000  
  22077861.46149 116019943.20749     10310.38749        49.000  
 16 04 02 14 11  1.6000000  0  3G07G09G16                                       
  24216228.17249 127257136.82449     14049.29349        49.000  
  22401945.50849 117723017.42649      3589.18849        49.000  
  22077665.31249 116018912.39149     10305.85249        49.000  
 16 04 02 14 11  1.7000000  0  3G07G09G16                                       
  24215960.83649 127255732.05549     14045.92249        49.000  
  22401877.26649 117722658.80949      3582.62549        49.000  
  22077469.24249 116017882.03949     10301.07849        49.000  
 16 04 02 14 11  1.8000000  0  3G07G09G16                                       
  24215693.57849 127254327.60949     14042.93049        49.000  
  22401809.14849 117722300.86349      3576.19549        49.000  
  22077273.27349 116016852.15249     10296.69549        49.000  
 16 04 02 14 11  1.9000000  0  3G07G09G16                                       
  24215426.35949 127252923.46949     14039.97349        49.000  
  22401741.14849 117721943.49649      3570.43449        49.000  
  22077077.37549 116015822.69149     10292.37949        49.000  
 16 04 02 14 11  2.0000000  0  3G07G09G16                                       
  24215159.22749 127251519.66049     14036.59449        49.000  
  22401673.26649 117721586.79349      3563.93449        50.000  
  22076881.55549 116014793.68449     10287.89549        49.000  
 16 04 02 14 11  2.1000000  0  3G07G09G16                                       
  24214892.14149 127250116.15249     14033.64149        49.000  
  22401605.51649 117721230.71149      3557.76249        50.000  
  22076685.82849 116013765.12549     10283.44949        49.000  
 16 04 02 14 11  2.2000000  0  3G07G09G16                                       
  24214625.12549 127248712.95349     14030.43049        49.000  
  22401537.87549 117720875.25049      3551.27349        49.000  
  22076490.18049 116012736.99249     10279.00049        49.000  
 16 04 02 14 11  2.3000000  0  3G07G09G16                                       
  24214358.18049 127247310.18049     14026.23449        49.000  
  22401470.36749 117720520.52349      3543.99249        49.000  
  22076294.63349 116011709.42249     10273.46549        49.000  
 16 04 02 14 11  2.4000000  0  3G07G09G16                                       
  24214091.29749 127245907.69949     14023.12949        49.000  
  22401402.98449 117720166.41849      3537.65649        49.000  
  22076099.15649 116010682.28149     10268.93049        49.000  
 16 04 02 14 11  2.5000000  0  3G07G09G16                                       
  24213824.46149 127244505.50049     14020.41449        49.000  
  22401335.71149 117719812.88749      3532.03549        50.000  
  22075903.77349 116009655.52749     10265.21949        49.000  
 16 04 02 14 11  2.6000000  0  3G07G09G16                                       
  24213557.69549 127243103.66049     14016.82449        49.000  
  22401268.56249 117719460.04749      3525.07849        50.000  
  22075708.49249 116008629.28549     10260.14549        49.000  
 16 04 02 14 11  2.7000000  0  3G07G09G16                                       
  24213290.98449 127241702.16049     14013.59849        49.000  
  22401201.53949 117719107.84849      3518.74249        50.000  
  22075513.28949 116007603.50849     10255.57049        49.000  
 16 04 02 14 11  2.8000000  0  3G07G09G16                                       
  24213024.35249 127240300.96149     14010.41849        49.000  
  22401134.64149 117718756.27049      3512.43849        50.000  
  22075318.16449 116006578.15249     10251.22749        49.000  
 16 04 02 14 11  2.9000000  0  3G07G09G16                                       
  24212757.77349 127238900.12949     14006.74249        49.000  
  22401067.85949 117718405.37549      3505.60549        50.000  
  22075123.14849 116005553.31649     10246.05549        49.000  
 16 04 02 14 11  3.0000000  0  3G07G09G16                                       
  24212491.26649 127237499.63349     14003.42249        49.000  
  22401001.21149 117718055.12149      3499.23049        49.000  
  22074928.20349 116004528.92649     10241.64849        49.000  
 16 04 02 14 11  3.1000000  0  3G07G09G16                                       
  24212224.81249 127236099.41449     14000.57449        49.000  
  22400934.68049 117717705.47749      3493.02349        49.000  
  22074733.34449 116003504.95349     10237.31649        49.000  
 16 04 02 14 11  3.2000000  0  3G07G09G16                                       
  24211958.43849 127234699.61349     13996.50449        49.000  
  22400868.28149 117717356.55149      3486.03949        50.000  
  22074538.58649 116002481.52749     10232.09449        49.000  
 16 04 02 14 11  3.3000000  0  3G07G09G16                                       
  24211692.13349 127233300.13749     13993.23049        49.000  
  22400802.00049 117717008.25849      3479.62149        50.000  
  22074343.92249 116001458.55149     10227.42249        49.000  
 16 04 02 14 11  3.4000000  0  3G07G09G16                                       
  24211425.87549 127231900.94949     13990.35949        49.000  
  22400735.83649 117716660.58649      3473.51649        50.000  
  22074149.33649 116000435.99649     10223.30949        49.000  
 16 04 02 14 11  3.5000000  0  3G07G09G16                                       
  24211159.67249 127230502.09049     13987.18849        49.000  
  22400669.79749 117716313.54749      3467.22749        50.000  
  22073954.83649 115999413.89849     10218.89549        49.000  
 16 04 02 14 11  3.6000000  0  3G07G09G16                                       
  24210893.53949 127229103.56249     13983.59849        49.000  
  22400603.88349 117715967.14549      3460.68049        50.000  
  22073760.40649 115998392.27049     10213.95749        49.000  
 16 04 02 14 11  3.7000000  0  3G07G09G16                                       
  24210627.47749 127227705.38749     13980.16449        49.000  
  22400538.09449 117715621.42649      3453.96949        50.000  
