     2.10           OBSERVATION DATA    G (GPS)             RINEX VERSION / TYPE
Convert v1.8.0                          09-Jun-2016 14:46   PGM / RUN BY / DATE 
Signal Strength values S1,S2 are in dBHz                    COMMENT             
                                                            MARKER NAME         
                                                            MARKER NUMBER       
                                                            OBSERVER / AGENCY   
                    NovAtel GPSCard                         REC # / TYPE / VERS 
                                                            ANT # / TYPE        
0.0000        0.0000        0.0000                          APPROX POSITION XYZ 
        0.0000        0.0000        0.0000                  ANTENNA: DELTA H/E/N
     1     0                                                WAVELENGTH FACT L1/2
     1     0     1   G27                                    WAVELENGTH FACT L1/2
                                                            COMMENT             
                                                            COMMENT             
                                                            COMMENT             
                                                            COMMENT             
                                                            COMMENT             
                                                            COMMENT             
     4    C1    L1    D1    S1                              # / TYPES OF OBSERV 
     0.100                                                  INTERVAL            
  2016    04    02    14    00    43.6000000    GPS         TIME OF FIRST OBS   
  2016    04    02    14    02     1.8000000    GPS         TIME OF LAST OBS    
Leap Seconds Unknown                                        COMMENT             
                                                            END OF HEADER       
 16 04 02 14 00 43.6000000  0  1G27                                             
  18159717.47749  95429958.18059      7567.68449        49.000  
 16 04 02 14 00 43.7000000  0  1G27                                             
  18159573.52349  95429201.68049      7562.94949        49.000  
 16 04 02 14 00 43.8000000  0  1G27                                             
  18159429.66449  95428445.56249      7559.21549        49.000  
 16 04 02 14 00 43.9000000  0  1G27                                             
  18159285.84449  95427689.80149      7555.78549        49.000  
 16 04 02 14 00 44.0000000  0  1G27                                             
  18159142.10949  95426934.45349      7551.68449        49.000  
 16 04 02 14 00 44.1000000  0  1G27                                             
  18158998.44549  95426179.52049      7547.49249        49.000  
 16 04 02 14 00 44.2000000  0  1G27                                             
  18158854.78949  95425424.95349      7543.75449        49.000  
 16 04 02 14 00 44.3000000  0  1G27                                             
  18158711.28949  95424670.82049      7539.40649        49.000  
 16 04 02 14 00 44.4000000  0  1G27                                             
  18158567.82849  95423917.06249      7535.77349        49.000  
 16 04 02 14 00 44.5000000  0  1G27                                             
  18158424.47749  95423163.75849      7531.07049        49.000  
 16 04 02 14 00 44.6000000  0  1G27                                             
  18158281.25049  95422410.86349      7527.01249        49.000  
 16 04 02 14 00 44.7000000  0  1G27                                             
  18158138.05549  95421658.36349      7523.13349        49.000  
 16 04 02 14 00 44.8000000  0  1G27                                             
  18157995.00049  95420906.32849      7518.43849        49.000  
 16 04 02 14 00 44.9000000  0  1G27                                             
  18157851.96949  95420154.69549      7514.41849        49.000  
 16 04 02 14 00 45.0000000  0  1G27                                             
  18157708.99249  95419403.45749      7510.44949        49.000  
 16 04 02 14 00 45.1000000  0  1G27                                             
  18157566.10949  95418652.60549      7506.62949        49.000  
 16 04 02 14 00 45.2000000  0  1G27                                             
  18157423.33649  95417902.19149      7502.26649        49.000  
 16 04 02 14 00 45.3000000  0  1G27                                             
  18157280.61749  95417152.19549      7497.99249        49.000  
 16 04 02 14 00 45.4000000  0  1G27                                             
  18157137.97749  95416402.53549      7494.63749        49.000  
 16 04 02 14 00 45.5000000  0  1G27                                             
  18156995.39849  95415653.31249      7490.38749        49.000  
 16 04 02 14 00 45.6000000  0  1G27                                             
  18156852.92249  95414904.55949      7485.69149        49.000  
 16 04 02 14 00 45.7000000  0  1G27                                             
  18156710.50849  95414156.14849      7482.10549        49.000  
 16 04 02 14 00 45.8000000  0  1G27                                             
  18156568.17249  95413408.18049      7477.70749        49.000  
 16 04 02 14 00 45.9000000  0  1G27                                             
  18156425.93049  95412660.69149      7472.88749        49.000  
 16 04 02 14 00 46.0000000  0  1G27                                             
  18156283.73449  95411913.51649      7469.76249        49.000  
 16 04 02 14 00 46.1000000  0  1G27                                             
  18156141.64149  95411166.79349      7465.47349        49.000  
 16 04 02 14 00 46.2000000  0  1G27                                             
  18155999.57049  95410420.41449      7461.88349        49.000  
 16 04 02 14 00 46.3000000  0  1G27                                             
  18155857.62549  95409674.45749      7457.87149        49.000  
 16 04 02 14 00 46.4000000  0  1G27                                             
  18155715.71949  95408928.91049      7453.61349        49.000  
 16 04 02 14 00 46.5000000  0  1G27                                             
  18155573.91449  95408183.75449      7449.59049        49.000  
 16 04 02 14 00 46.6000000  0  1G27                                             
  18155432.21949  95407439.04349      7445.11749        49.000  
 16 04 02 14 00 46.7000000  0  1G27                                             
  18155290.59449  95406694.78549      7440.59849        49.000  
 16 04 02 14 00 46.8000000  0  1G27                                             
  18155149.06249  95405950.93849      7436.43849        49.000  
 16 04 02 14 00 46.9000000  0  1G27                                             
  18155007.58649  95405207.47349      7432.75049        49.000  
 16 04 02 14 00 47.0000000  0  1G27                                             
  18154866.17249  95404464.40649      7428.70749        49.000  
 16 04 02 14 00 47.1000000  0  1G27                                             
  18154724.85949  95403721.78149      7424.44549        49.000  
 16 04 02 14 00 47.2000000  0  1G27                                             
  18154583.60949  95402979.49249      7420.90649        49.000  
 16 04 02 14 00 47.3000000  0  1G27                                             
  18154442.45349  95402237.70349      7415.94549        49.000  
 16 04 02 14 00 47.4000000  0  1G27                                             
  18154301.37549  95401496.34049      7411.53549        49.000  
 16 04 02 14 00 47.5000000  0  1G27                                             
  18154160.37549  95400755.37949      7407.69549        49.000  
 16 04 02 14 00 47.6000000  0  1G27                                             
  18154019.43049  95400014.80549      7403.71149        49.000  
 16 04 02 14 00 47.7000000  0  1G27                                             
  18153878.59449  95399274.71949      7398.98849        49.000  
 16 04 02 14 00 47.8000000  0  1G27                                             
  18153737.85949  95398535.02349      7394.90649        49.000  
 16 04 02 14 00 47.9000000  0  1G27                                             
  18153597.17249  95397795.70749      7391.21949        49.000  
 16 04 02 14 00 48.0000000  0  1G27                                             
  18153456.60249  95397056.84449      7386.78549        49.000  
 16 04 02 14 00 48.1000000  0  1G27                                             
  18153316.07849  95396318.37149      7382.78549        49.000  
 16 04 02 14 00 48.2000000  0  1G27                                             
  18153175.61749  95395580.25849      7379.28949        49.000  
 16 04 02 14 00 48.3000000  0  1G27                                             
  18153035.25049  95394842.62549      7374.45349        49.000  
 16 04 02 14 00 48.4000000  0  1G27                                             
  18152894.94549  95394105.35249      7370.75449        49.000  
 16 04 02 14 00 48.5000000  0  1G27                                             
  18152754.73449  95393368.52749      7366.31649        49.000  
 16 04 02 14 00 48.6000000  0  1G27                                             
  18152614.61749  95392632.14549      7361.81649        49.000  
 16 04 02 14 00 48.7000000  0  1G27                                             
  18152474.54749  95391896.07049      7358.84449        49.000  
 16 04 02 14 00 48.8000000  0  1G27                                             
  18152334.56249  95391160.39149      7355.02349        49.000  
 16 04 02 14 00 48.9000000  0  1G27                                             
  18152194.64849  95390425.14849      7350.62549        49.000  
 16 04 02 14 00 49.0000000  0  1G27                                             
  18152054.79749  95389690.36349      7346.01649        49.000  
 16 04 02 14 00 49.1000000  0  1G27                                             
  18151915.05549  95388956.03549      7341.17649        49.000  
 16 04 02 14 00 49.2000000  0  1G27                                             
  18151775.35949  95388222.03149      7338.10249        49.000  
 16 04 02 14 00 49.3000000  0  1G27                                             
  18151635.76649  95387488.45749      7333.93049        49.000  
 16 04 02 14 00 49.4000000  0  1G27                                             
  18151496.25849  95386755.30949      7329.63349        49.000  
 16 04 02 14 00 49.5000000  0  1G27                                             
  18151356.82049  95386022.57449      7325.38349        49.000  
 16 04 02 14 00 49.6000000  0  1G27                                             
  18151217.47749  95385290.24649      7321.49249        49.000  
 16 04 02 14 00 49.7000000  0  1G27                                             
  18151078.19549  95384558.29349      7317.75049        49.000  
 16 04 02 14 00 49.8000000  0  1G27                                             
  18150938.96149  95383826.73849      7313.76249        49.000  
 16 04 02 14 00 49.9000000  0  1G27                                             
  18150799.84449  95383095.66449      7308.66849        49.000  
 16 04 02 14 00 50.0000000  0  1G27                                             
  18150660.78949  95382365.00449      7304.52349        49.000  
 16 04 02 14 00 50.1000000  0  1G27                                             
  18150521.81249  95381634.70349      7301.04749        49.000  
 16 04 02 14 00 50.2000000  0  1G27                                             
  18150382.93049  95380904.84449      7296.87949        49.000  
 16 04 02 14 00 50.3000000  0  1G27                                             
  18150244.10949  95380175.34849      7293.19949        49.000  
 16 04 02 14 00 50.4000000  0  1G27                                             
  18150105.38349  95379446.30949      7288.52349        49.000  
 16 04 02 14 00 50.5000000  0  1G27                                             
  18149966.73449  95378717.69949      7283.98049        49.000  
 16 04 02 14 00 50.6000000  0  1G27                                             
  18149828.18849  95377989.56249      7279.51249        49.000  
 16 04 02 14 00 50.7000000  0  1G27                                             
  18149689.68049  95377261.72349      7276.50049        49.000  
 16 04 02 14 00 50.8000000  0  1G27                                             
  18149551.26649  95376534.32449      7272.16849        49.000  
 16 04 02 14 00 50.9000000  0  1G27                                             
  18149412.93049  95375807.33249      7268.13749        49.000  
 16 04 02 14 00 51.0000000  0  1G27                                             
  18149274.64149  95375080.66449      7264.95349        49.000  
 16 04 02 14 00 51.1000000  0  1G27                                             
  18149136.43849  95374354.43849      7260.43449        49.000  
 16 04 02 14 00 51.2000000  0  1G27                                             
  18148998.30549  95373628.63349      7256.12949        49.000  
 16 04 02 14 00 51.3000000  0  1G27                                             
  18148860.26649  95372903.23449      7251.93049        49.000  
 16 04 02 14 00 51.4000000  0  1G27                                             
  18148722.29749  95372178.22349      7248.36349        49.000  
 16 04 02 14 00 51.5000000  0  1G27                                             
  18148584.39849  95371453.55549      7244.83249        49.000  
 16 04 02 14 00 51.6000000  0  1G27                                             
  18148446.60249  95370729.42249      7239.44949        49.000  
 16 04 02 14 00 51.7000000  0  1G27                                             
  18148308.87549  95370005.64149      7235.91049        49.000  
 16 04 02 14 00 51.8000000  0  1G27                                             
  18148171.25049  95369282.25849      7231.82849        49.000  
 16 04 02 14 00 51.9000000  0  1G27                                             
  18148033.68049  95368559.34449      7227.28149        49.000  
 16 04 02 14 00 52.0000000  0  1G27                                             
  18147896.18849  95367836.85249      7223.00449        49.000  
 16 04 02 14 00 52.1000000  0  1G27                                             
  18147758.76649  95367114.67649      7219.83649        49.000  
 16 04 02 14 00 52.2000000  0  1G27                                             
  18147621.43849  95366392.97349      7215.19149        49.000  
 16 04 02 14 00 52.3000000  0  1G27                                             
  18147484.18849  95365671.71149      7210.71549        49.000  
 16 04 02 14 00 52.4000000  0  1G27                                             
  18147347.02349  95364950.81249      7207.04349        49.000  
 16 04 02 14 00 52.5000000  0  1G27                                             
  18147209.92249  95364230.34049      7202.76249        49.000  
 16 04 02 14 00 52.6000000  0  1G27                                             
  18147072.89149  95363510.27049      7198.90249        49.000  
 16 04 02 14 00 52.7000000  0  1G27                                             
  18146935.93049  95362790.55949      7195.19949        49.000  
 16 04 02 14 00 52.8000000  0  1G27                                             
  18146799.05549  95362071.27049      7191.08249        49.000  
 16 04 02 14 00 52.9000000  0  1G27                                             
  18146662.26649  95361352.45749      7186.12949        49.000  
 16 04 02 14 00 53.0000000  0  1G27                                             
  18146525.54749  95360634.09049      7181.46549        49.000  
 16 04 02 14 00 53.1000000  0  1G27                                             
  18146388.92249  95359916.13349      7177.56649        49.000  
 16 04 02 14 00 53.2000000  0  1G27                                             
  18146252.35249  95359198.55149      7173.92249        49.000  
 16 04 02 14 00 53.3000000  0  1G27                                             
  18146115.88349  95358481.38349      7169.76649        49.000  
 16 04 02 14 00 53.4000000  0  1G27                                             
  18145979.47749  95357764.62549      7165.61749        49.000  
 16 04 02 14 00 53.5000000  0  1G27                                             
  18145843.16449  95357048.28949      7161.41449        49.000  
 16 04 02 14 00 53.6000000  0  1G27                                             
  18145706.92249  95356332.33649      7157.70749        49.000  
 16 04 02 14 00 53.7000000  0  1G27                                             
  18145570.75849  95355616.78949      7153.59449        49.000  
 16 04 02 14 00 53.8000000  0  1G27                                             
  18145434.67249  95354901.64849      7149.46549        49.000  
 16 04 02 14 00 53.9000000  0  1G27                                             
  18145298.67249  95354186.93449      7145.23049        49.000  
 16 04 02 14 00 54.0000000  0  1G27                                             
  18145162.73449  95353472.58649      7141.62949        49.000  
 16 04 02 14 00 54.1000000  0  1G27                                             
  18145026.86749  95352758.60549      7137.98049        49.000  
 16 04 02 14 00 54.2000000  0  1G27                                             
  18144891.10249  95352045.12949      7132.90649        49.000  
 16 04 02 14 00 54.3000000  0  1G27                                             
  18144755.41449  95351332.05149      7128.71149        49.000  
 16 04 02 14 00 54.4000000  0  1G27                                             
  18144619.78949  95350619.37149      7124.82049        49.000  
 16 04 02 14 00 54.5000000  0  1G27                                             
  18144484.25849  95349907.12149      7120.75049        49.000  
 16 04 02 14 00 54.6000000  0  1G27                                             
  18144348.78149  95349195.25849      7116.72349        49.000  
 16 04 02 14 00 54.7000000  0  1G27                                             
  18144213.39149  95348483.76649      7113.14849        49.000  
 16 04 02 14 00 54.8000000  0  1G27                                             
  18144078.07849  95347772.71549      7108.77049        49.000  
 16 04 02 14 00 54.9000000  0  1G27                                             
  18143942.83649  95347062.01249      7105.13349        49.000  
 16 04 02 14 00 55.0000000  0  1G27                                             
  18143807.68049  95346351.71949      7101.17249        49.000  
 16 04 02 14 00 55.1000000  0  1G27                                             
  18143672.59449  95345641.85549      7096.72349        49.000  
 16 04 02 14 00 55.2000000  0  1G27                                             
  18143537.57849  95344932.36749      7092.90249        49.000  
 16 04 02 14 00 55.3000000  0  1G27                                             
  18143402.64849  95344223.30149      7088.75449        49.000  
 16 04 02 14 00 55.4000000  0  1G27                                             
  18143267.80549  95343514.66449      7084.51649        49.000  
 16 04 02 14 00 55.5000000  0  1G27                                             
  18143133.03149  95342806.42649      7080.59449        49.000  
 16 04 02 14 00 55.6000000  0  1G27                                             
  18142998.34449  95342098.56649      7076.77049        49.000  
 16 04 02 14 00 55.7000000  0  1G27                                             
  18142863.73449  95341391.19549      7071.75849        49.000  
 16 04 02 14 00 55.8000000  0  1G27                                             
  18142729.18849  95340684.16049      7068.39849        49.000  
 16 04 02 14 00 55.9000000  0  1G27                                             
  18142594.72749  95339977.58249      7063.86349        49.000  
 16 04 02 14 00 56.0000000  0  1G27                                             
  18142460.32849  95339271.37149      7060.15649        49.000  
 16 04 02 14 00 56.1000000  0  1G27                                             
  18142326.02349  95338565.57049      7056.24249        49.000  
 16 04 02 14 00 56.2000000  0  1G27                                             
  18142191.77349  95337860.19949      7051.80149        49.000  
 16 04 02 14 00 56.3000000  0  1G27                                             
  18142057.61749  95337155.18449      7048.34449        49.000  
 16 04 02 14 00 56.4000000  0  1G27                                             
  18141923.53149  95336450.62149      7043.91449        49.000  
 16 04 02 14 00 56.5000000  0  1G27                                             
  18141789.53949  95335746.47349      7039.46549        49.000  
 16 04 02 14 00 56.6000000  0  1G27                                             
  18141655.62549  95335042.69549      7035.96149        49.000  
 16 04 02 14 00 56.7000000  0  1G27                                             
  18141521.78149  95334339.34849      7031.59449        49.000  
 16 04 02 14 00 56.8000000  0  1G27                                             
  18141388.00849  95333636.43049      7027.26249        49.000  
 16 04 02 14 00 56.9000000  0  1G27                                             
  18141254.32849  95332933.92249      7023.05149        49.000  
 16 04 02 14 00 57.0000000  0  1G27                                             
  18141120.73449  95332231.80549      7019.17249        49.000  
 16 04 02 14 00 57.1000000  0  1G27                                             
  18140987.20349  95331530.10249      7015.27749        49.000  
 16 04 02 14 00 57.2000000  0  1G27                                             
  18140853.75849  95330828.82449      7010.86749        49.000  
 16 04 02 14 00 57.3000000  0  1G27                                             
  18140720.39149  95330127.96549      7006.53149        49.000  
 16 04 02 14 00 57.4000000  0  1G27                                             
  18140587.10949  95329427.55549      7002.07049        49.000  
 16 04 02 14 00 57.5000000  0  1G27                                             
  18140453.89149  95328727.48049      6998.79749        49.000  
 16 04 02 14 00 57.6000000  0  1G27                                             
  18140320.74249  95328027.81249      6994.89149        49.000  
 16 04 02 14 00 57.7000000  0  1G27                                             
  18140187.68049  95327328.58649      6990.55949        49.000  
 16 04 02 14 00 57.8000000  0  1G27                                             
  18140054.69549  95326629.72749      6986.63749        49.000  
 16 04 02 14 00 57.9000000  0  1G27                                             
  18139921.77349  95325931.24649      6982.86349        49.000  
 16 04 02 14 00 58.0000000  0  1G27                                             
  18139788.95349  95325233.28149      6977.67249        49.000  
 16 04 02 14 00 58.1000000  0  1G27                                             
  18139656.19549  95324535.63349      6974.49649        49.000  
 16 04 02 14 00 58.2000000  0  1G27                                             
  18139523.53149  95323838.39149      6970.46549        49.000  
 16 04 02 14 00 58.3000000  0  1G27                                             
  18139390.94549  95323141.62949      6965.69949        49.000  
 16 04 02 14 00 58.4000000  0  1G27                                             
  18139258.43049  95322445.28149      6961.60949        49.000  
 16 04 02 14 00 58.5000000  0  1G27                                             
  18139125.98449  95321749.27049      6958.14849        49.000  
 16 04 02 14 00 58.6000000  0  1G27                                             
  18138993.62549  95321053.72349      6953.78149        49.000  
 16 04 02 14 00 58.7000000  0  1G27                                             
  18138861.33649  95320358.54749      6949.86349        49.000  
 16 04 02 14 00 58.8000000  0  1G27                                             
  18138729.11749  95319663.73449      6946.13749        49.000  
 16 04 02 14 00 58.9000000  0  1G27                                             
  18138596.99249  95318969.39849      6941.59849        49.000  
 16 04 02 14 00 59.0000000  0  1G27                                             
  18138464.93849  95318275.42249      6937.78949        49.000  
 16 04 02 14 00 59.1000000  0  1G27                                             
  18138332.95349  95317581.87149      6933.55549        49.000  
 16 04 02 14 00 59.2000000  0  1G27                                             
  18138201.06249  95316888.73449      6929.50449        49.000  
 16 04 02 14 00 59.3000000  0  1G27                                             
  18138069.24249  95316196.00049      6925.35249        49.000  
 16 04 02 14 00 59.4000000  0  1G27                                             
  18137937.49249  95315503.67249      6921.29749        49.000  
 16 04 02 14 00 59.5000000  0  1G27                                             
  18137805.82049  95314811.70749      6917.78149        49.000  
 16 04 02 14 00 59.6000000  0  1G27                                             
  18137674.23449  95314120.21149      6913.28149        49.000  
 16 04 02 14 00 59.7000000  0  1G27                                             
  18137542.71149  95313429.05549      6909.63749        49.000  
 16 04 02 14 00 59.8000000  0  1G27                                             
  18137411.25849  95312738.30149      6905.71549        49.000  
 16 04 02 14 00 59.9000000  0  1G27                                             
  18137279.89849  95312048.01649      6900.82449        49.000  
 16 04 02 14 01  0.0000000  0  1G27                                             
  18137148.62549  95311358.18849      6896.21949        49.000  
 16 04 02 14 01  0.1000000  0  1G27                                             
  18137017.42249  95310668.70749      6892.75849        49.000  
 16 04 02 14 01  0.2000000  0  1G27                                             
  18136886.28149  95309979.63349      6888.94949        49.000  
 16 04 02 14 01  0.3000000  0  1G27                                             
  18136755.25049  95309291.02349      6884.26649        49.000  
 16 04 02 14 01  0.4000000  0  1G27                                             
  18136624.27349  95308602.79749      6880.34049        49.000  
 16 04 02 14 01  0.5000000  0  1G27                                             
  18136493.39149  95307914.98049      6876.17649        49.000  
 16 04 02 14 01  0.6000000  0  1G27                                             
  18136362.60249  95307227.62949      6871.52749        49.000  
 16 04 02 14 01  0.7000000  0  1G27                                             
  18136231.87549  95306540.65649      6867.91049        49.000  
 16 04 02 14 01  0.8000000  0  1G27                                             
  18136101.23449  95305854.03949      6864.23449        49.000  
 16 04 02 14 01  0.9000000  0  1G27                                             
  18135970.65649  95305167.83249      6860.12949        49.000  
 16 04 02 14 01  1.0000000  0  1G27                                             
  18135840.15649  95304482.08649      6855.53549        49.000  
 16 04 02 14 01  1.1000000  0  1G27                                             
  18135709.72749  95303796.68849      6852.13349        49.000  
 16 04 02 14 01  1.2000000  0  1G27                                             
  18135579.38349  95303111.73049      6847.73449        49.000  
 16 04 02 14 01  1.3000000  0  1G27                                             
  18135449.10249  95302427.10949      6844.46549        49.000  
 16 04 02 14 01  1.4000000  0  1G27                                             
  18135318.92249  95301742.92649      6839.82449        49.000  
 16 04 02 14 01  1.5000000  0  1G27                                             
  18135188.80549  95301059.15649      6835.94549        49.000  
 16 04 02 14 01  1.6000000  0  1G27                                             
  18135058.75849  95300375.76249      6832.09849        49.000  
 16 04 02 14 01  1.7000000  0  1G27                                             
  18134928.79749  95299692.83649      6827.28149        49.000  
 16 04 02 14 01  1.8000000  0  1G27                                             
  18134798.93049  95299010.34449      6823.07849        49.000  
 16 04 02 14 01  1.9000000  0  1G27                                             
  18134669.11749  95298328.18449      6819.57849        49.000  
 16 04 02 14 01  2.0000000  0  1G27                                             
  18134539.39849  95297646.48849      6815.13349        49.000  
 16 04 02 14 01  2.1000000  0  1G27                                             
  18134409.73449  95296965.08249      6812.13349        49.000  
 16 04 02 14 01  2.2000000  0  1G27                                             
  18134280.17249  95296284.21949      6806.82849        49.000  
 16 04 02 14 01  2.3000000  0  1G27                                             
  18134150.68049  95295603.71949      6802.90249        49.000  
 16 04 02 14 01  2.4000000  0  1G27                                             
  18134021.25849  95294923.60549      6799.29749        49.000  
 16 04 02 14 01  2.5000000  0  1G27                                             
  18133891.92249  95294243.94949      6794.60249        49.000  
 16 04 02 14 01  2.6000000  0  1G27                                             
  18133762.67249  95293564.71549      6790.50049        49.000  
 16 04 02 14 01  2.7000000  0  1G27                                             
  18133633.49249  95292885.87549      6786.39849        49.000  
 16 04 02 14 01  2.8000000  0  1G27                                             
  18133504.40649  95292207.50449      6781.73449        49.000  
 16 04 02 14 01  2.9000000  0  1G27                                             
  18133375.39149  95291529.51649      6778.00849        49.000  
 16 04 02 14 01  3.0000000  0  1G27                                             
  18133246.44549  95290851.87149      6774.61749        49.000  
 16 04 02 14 01  3.1000000  0  1G27                                             
  18133117.57849  95290174.69549      6769.89149        49.000  
 16 04 02 14 01  3.2000000  0  1G27                                             
  18132988.78949  95289497.85549      6766.41849        49.000  
 16 04 02 14 01  3.3000000  0  1G27                                             
  18132860.08649  95288821.52349      6761.43849        49.000  
 16 04 02 14 01  3.4000000  0  1G27                                             
  18132731.43849  95288145.51249      6758.17249        49.000  
 16 04 02 14 01  3.5000000  0  1G27                                             
  18132602.87549  95287469.88349      6754.60949        49.000  
 16 04 02 14 01  3.6000000  0  1G27                                             
  18132474.39149  95286794.65249      6750.46949        49.000  
 16 04 02 14 01  3.7000000  0  1G27                                             
  18132345.99249  95286119.89549      6745.65649        49.000  
 16 04 02 14 01  3.8000000  0  1G27                                             
  18132217.67249  95285445.54349      6741.53949        49.000  
 16 04 02 14 01  3.9000000  0  1G27                                             
  18132089.41449  95284771.56249      6737.89149        49.000  
 16 04 02 14 01  4.0000000  0  1G27                                             
  18131961.23449  95284097.98849      6733.85249        49.000  
 16 04 02 14 01  4.1000000  0  1G27                                             
  18131833.14849  95283424.88349      6729.02049        49.000  
 16 04 02 14 01  4.2000000  0  1G27                                             
  18131705.14149  95282752.19949      6724.74649        49.000  
 16 04 02 14 01  4.3000000  0  1G27                                             
  18131577.21149  95282079.94149      6720.64549        49.000  
 16 04 02 14 01  4.4000000  0  1G27                                             
  18131449.35949  95281408.08649      6716.60949        49.000  
 16 04 02 14 01  4.5000000  0  1G27                                             
  18131321.58649  95280736.62149      6712.78949        49.000  
 16 04 02 14 01  4.6000000  0  1G27                                             
  18131193.88349  95280065.47349      6709.73849        49.000  
 16 04 02 14 01  4.7000000  0  1G27                                             
  18131066.26649  95279394.82449      6704.62549        49.000  
 16 04 02 14 01  4.8000000  0  1G27                                             
  18130938.71149  95278724.53949      6700.83249        49.000  
 16 04 02 14 01  4.9000000  0  1G27                                             
  18130811.23449  95278054.64849      6697.06649        49.000  
 16 04 02 14 01  5.0000000  0  1G27                                             
  18130683.84449  95277385.15649      6693.10549        49.000  
 16 04 02 14 01  5.1000000  0  1G27                                             
  18130556.51649  95276716.06249      6689.06649        49.000  
 16 04 02 14 01  5.2000000  0  1G27                                             
  18130429.27349  95276047.44949      6684.21949        49.000  
 16 04 02 14 01  5.3000000  0  1G27                                             
  18130302.11749  95275379.21949      6680.28149        49.000  
 16 04 02 14 01  5.4000000  0  1G27                                             
  18130175.02349  95274711.32049      6677.16449        49.000  
 16 04 02 14 01  5.5000000  0  1G27                                             
  18130048.01649  95274043.88749      6672.59449        49.000  
 16 04 02 14 01  5.6000000  0  1G27                                             
  18129921.08649  95273376.89849      6668.09449        49.000  
 16 04 02 14 01  5.7000000  0  1G27                                             
  18129794.23449  95272710.26649      6664.41449        49.000  
 16 04 02 14 01  5.8000000  0  1G27                                             
  18129667.45349  95272044.03149      6660.43449        49.000  
 16 04 02 14 01  5.9000000  0  1G27                                             
  18129540.75049  95271378.21149      6656.29749        49.000  
 16 04 02 14 01  6.0000000  0  1G27                                             
  18129414.12549  95270712.80549      6651.99249        49.000  
 16 04 02 14 01  6.1000000  0  1G27                                             
  18129287.57849  95270047.80949      6648.08649        49.000  
 16 04 02 14 01  6.2000000  0  1G27                                             
  18129161.10949  95269383.19549      6644.18849        49.000  
 16 04 02 14 01  6.3000000  0  1G27                                             
  18129034.70349  95268718.95349      6640.56249        49.000  
 16 04 02 14 01  6.4000000  0  1G27                                             
  18128908.38349  95268055.12149      6636.63749        49.000  
 16 04 02 14 01  6.5000000  0  1G27                                             
  18128782.14849  95267391.76249      6631.70749        49.000  
 16 04 02 14 01  6.6000000  0  1G27                                             
  18128656.00049  95266728.80149      6627.49649        49.000  
 16 04 02 14 01  6.7000000  0  1G27                                             
  18128529.92249  95266066.25849      6623.37149        49.000  
 16 04 02 14 01  6.8000000  0  1G27                                             
  18128403.93049  95265404.16049      6618.99649        49.000  
 16 04 02 14 01  6.9000000  0  1G27                                             
  18128278.00849  95264742.44549      6615.24249        49.000  
 16 04 02 14 01  7.0000000  0  1G27                                             
  18128152.17249  95264081.17249      6610.80149        49.000  
 16 04 02 14 01  7.1000000  0  1G27                                             
  18128026.41449  95263420.30949      6606.53549        49.000  
 16 04 02 14 01  7.2000000  0  1G27                                             
  18127900.75049  95262759.89149      6602.36749        49.000  
 16 04 02 14 01  7.3000000  0  1G27                                             
  18127775.15649  95262099.89849      6597.86349        49.000  
 16 04 02 14 01  7.4000000  0  1G27                                             
  18127649.63349  95261440.31649      6593.81249        49.000  
 16 04 02 14 01  7.5000000  0  1G27                                             
  18127524.18049  95260781.05949      6590.71549        49.000  
 16 04 02 14 01  7.6000000  0  1G27                                             
  18127398.80549  95260122.23449      6586.48049        49.000  
 16 04 02 14 01  7.7000000  0  1G27                                             
  18127273.51649  95259463.81649      6582.37549        49.000  
 16 04 02 14 01  7.8000000  0  1G27                                             
  18127148.29749  95258805.84849      6577.72749        49.000  
 16 04 02 14 01  7.9000000  0  1G27                                             
  18127023.17249  95258148.30949      6573.37149        49.000  
 16 04 02 14 01  8.0000000  0  1G27                                             
  18126898.10249  95257491.10949      6570.05949        49.000  
 16 04 02 14 01  8.1000000  0  1G27                                             
  18126773.11749  95256834.32849      6565.99649        49.000  
 16 04 02 14 01  8.2000000  0  1G27                                             
  18126648.22749  95256178.01249      6561.34849        49.000  
 16 04 02 14 01  8.3000000  0  1G27                                             
  18126523.39849  95255522.03549      6557.77749        49.000  
 16 04 02 14 01  8.4000000  0  1G27                                             
  18126398.64849  95254866.48449      6553.60549        49.000  
 16 04 02 14 01  8.5000000  0  1G27                                             
  18126273.98449  95254211.36749      6549.45749        49.000  
 16 04 02 14 01  8.6000000  0  1G27                                             
  18126149.39849  95253556.66449      6545.01649        49.000  
 16 04 02 14 01  8.7000000  0  1G27                                             
  18126024.89149  95252902.38349      6540.75849        49.000  
 16 04 02 14 01  8.8000000  0  1G27                                             
  18125900.46949  95252248.48049      6537.27049        49.000  
 16 04 02 14 01  8.9000000  0  1G27                                             
  18125776.10249  95251594.93049      6533.68049        49.000  
 16 04 02 14 01  9.0000000  0  1G27                                             
  18125651.81249  95250941.81249      6529.40249        49.000  
 16 04 02 14 01  9.1000000  0  1G27                                             
  18125527.60249  95250289.06249      6525.50849        49.000  
 16 04 02 14 01  9.2000000  0  1G27                                             
  18125403.47749  95249636.78549      6521.02749        49.000  
 16 04 02 14 01  9.3000000  0  1G27                                             
  18125279.42249  95248984.86349      6517.33249        49.000  
 16 04 02 14 01  9.4000000  0  1G27                                             
  18125155.45349  95248333.38749      6512.83649        49.000  
 16 04 02 14 01  9.5000000  0  1G27                                             
  18125031.55549  95247682.30949      6508.83249        49.000  
 16 04 02 14 01  9.6000000  0  1G27                                             
  18124907.73449  95247031.60949      6505.13349        49.000  
 16 04 02 14 01  9.7000000  0  1G27                                             
  18124783.99249  95246381.35549      6500.56649        49.000  
 16 04 02 14 01  9.8000000  0  1G27                                             
  18124660.33649  95245731.50049      6496.65649        49.000  
 16 04 02 14 01  9.9000000  0  1G27                                             
  18124536.75049  95245082.03549      6492.59449        49.000  
 16 04 02 14 01 10.0000000  0  1G27                                             
  18124413.23449  95244432.96149      6488.86349        49.000  
 16 04 02 14 01 10.1000000  0  1G27                                             
  18124289.78949  95243784.25849      6485.07849        49.000  
 16 04 02 14 01 10.2000000  0  1G27                                             
  18124166.43849  95243136.02049      6480.62549        49.000  
 16 04 02 14 01 10.3000000  0  1G27                                             
  18124043.15649  95242488.19949      6476.19549        49.000  
 16 04 02 14 01 10.4000000  0  1G27                                             
  18123919.96949  95241840.83649      6471.65649        49.000  
 16 04 02 14 01 10.5000000  0  1G27                                             
  18123796.85249  95241193.84449      6467.91849        49.000  
 16 04 02 14 01 10.6000000  0  1G27                                             
  18123673.81249  95240547.23049      6464.23049        49.000  
 16 04 02 14 01 10.7000000  0  1G27                                             
  18123550.84449  95239901.03149      6460.16849        49.000  
 16 04 02 14 01 10.8000000  0  1G27                                             
  18123427.96949  95239255.24249      6456.00849        49.000  
 16 04 02 14 01 10.9000000  0  1G27                                             
  18123305.14149  95238609.78949      6452.64549        49.000  
 16 04 02 14 01 11.0000000  0  1G27                                             
  18123182.40649  95237964.79749      6448.17249        49.000  
 16 04 02 14 01 11.1000000  0  1G27                                             
  18123059.74249  95237320.20349      6443.91849        49.000  
 16 04 02 14 01 11.2000000  0  1G27                                             
  18122937.14849  95236676.00849      6440.21549        49.000  
 16 04 02 14 01 11.3000000  0  1G27                                             
  18122814.62549  95236032.15649      6436.73449        49.000  
 16 04 02 14 01 11.4000000  0  1G27                                             
  18122692.21149  95235388.82849      6431.49249        49.000  
 16 04 02 14 01 11.5000000  0  1G27                                             
  18122569.85949  95234745.87549      6427.63749        49.000  
 16 04 02 14 01 11.6000000  0  1G27                                             
  18122447.59449  95234103.30949      6423.70749        49.000  
 16 04 02 14 01 11.7000000  0  1G27                                             
  18122325.40649  95233461.21549      6418.96149        49.000  
 16 04 02 14 01 11.8000000  0  1G27                                             
  18122203.28149  95232819.47749      6415.46149        49.000  
 16 04 02 14 01 11.9000000  0  1G27                                             
  18122081.23449  95232178.12549      6411.77349        49.000  
 16 04 02 14 01 12.0000000  0  1G27                                             
  18121959.25849  95231537.09849      6408.74649        49.000  
 16 04 02 14 01 12.1000000  0  1G27                                             
  18121837.36749  95230896.55149      6403.62549        49.000  
 16 04 02 14 01 12.2000000  0  1G27                                             
  18121715.55549  95230256.38749      6399.60949        49.000  
 16 04 02 14 01 12.3000000  0  1G27                                             
  18121593.81249  95229616.64549      6395.50049        49.000  
 16 04 02 14 01 12.4000000  0  1G27                                             
  18121472.14849  95228977.30549      6391.39149        49.000  
 16 04 02 14 01 12.5000000  0  1G27                                             
  18121350.57049  95228338.41849      6386.95349        49.000  
 16 04 02 14 01 12.6000000  0  1G27                                             
  18121229.07049  95227699.91049      6383.09849        49.000  
 16 04 02 14 01 12.7000000  0  1G27                                             
  18121107.64149  95227061.79349      6379.18049        49.000  
 16 04 02 14 01 12.8000000  0  1G27                                             
  18120986.30549  95226424.12549      6374.83649        49.000  
 16 04 02 14 01 12.9000000  0  1G27                                             
  18120865.03149  95225786.80149      6371.43049        49.000  
 16 04 02 14 01 13.0000000  0  1G27                                             
  18120743.85249  95225149.97749      6366.38349        49.000  
 16 04 02 14 01 13.1000000  0  1G27                                             
  18120622.73449  95224513.50849      6362.73049        49.000  
 16 04 02 14 01 13.2000000  0  1G27                                             
  18120501.71149  95223877.48449      6358.32849        49.000  
 16 04 02 14 01 13.3000000  0  1G27                                             
  18120380.75049  95223241.83249      6354.71549        49.000  
 16 04 02 14 01 13.4000000  0  1G27                                             
  18120259.86749  95222606.59049      6350.55549        49.000  
 16 04 02 14 01 13.5000000  0  1G27                                             
  18120139.06249  95221971.75849      6346.52049        49.000  
 16 04 02 14 01 13.6000000  0  1G27                                             
  18120018.35249  95221337.39149      6341.54749        49.000  
 16 04 02 14 01 13.7000000  0  1G27                                             
  18119897.71949  95220703.46949      6337.27749        49.000  
 16 04 02 14 01 13.8000000  0  1G27                                             
  18119777.15649  95220069.92649      6333.37549        49.000  
 16 04 02 14 01 13.9000000  0  1G27                                             
  18119656.66449  95219436.72349      6330.20349        49.000  
 16 04 02 14 01 14.0000000  0  1G27                                             
  18119536.23449  95218803.91049      6326.21549        49.000  
 16 04 02 14 01 14.1000000  0  1G27                                             
  18119415.89849  95218171.56649      6321.52749        49.000  
 16 04 02 14 01 14.2000000  0  1G27                                             
  18119295.64849  95217539.62149      6317.60949        49.000  
 16 04 02 14 01 14.3000000  0  1G27                                             
  18119175.46149  95216908.04349      6313.92249        49.000  
 16 04 02 14 01 14.4000000  0  1G27                                             
  18119055.35249  95216276.87149      6309.91049        49.000  
 16 04 02 14 01 14.5000000  0  1G27                                             
  18118935.33649  95215646.19549      6304.84849        49.000  
 16 04 02 14 01 14.6000000  0  1G27                                             
  18118815.38349  95215015.83249      6301.66049        49.000  
 16 04 02 14 01 14.7000000  0  1G27                                             
  18118695.51649  95214385.89549      6297.62549        49.000  
 16 04 02 14 01 14.8000000  0  1G27                                             
  18118575.71949  95213756.35249      6293.58649        49.000  
 16 04 02 14 01 14.9000000  0  1G27                                             
  18118455.99249  95213127.19149      6289.89549        49.000  
 16 04 02 14 01 15.0000000  0  1G27                                             
  18118336.34449  95212498.43849      6285.74649        49.000  
 16 04 02 14 01 15.1000000  0  1G27                                             
  18118216.76649  95211870.03149      6282.27049        49.000  
 16 04 02 14 01 15.2000000  0  1G27                                             
  18118097.26649  95211242.07849      6277.66049        49.000  
 16 04 02 14 01 15.3000000  0  1G27                                             
  18117977.84449  95210614.51249      6273.92249        49.000  
 16 04 02 14 01 15.4000000  0  1G27                                             
  18117858.50849  95209987.38749      6269.23449        49.000  
 16 04 02 14 01 15.5000000  0  1G27                                             
  18117739.26649  95209360.74249      6264.44149        49.000  
 16 04 02 14 01 15.6000000  0  1G27                                             
  18117620.08649  95208734.43849      6261.00849        49.000  
 16 04 02 14 01 15.7000000  0  1G27                                             
  18117500.99249  95208108.61349      6256.22749        49.000  
 16 04 02 14 01 15.8000000  0  1G27                                             
  18117381.98449  95207483.18849      6252.31649        49.000  
 16 04 02 14 01 15.9000000  0  1G27                                             
  18117263.03149  95206858.10549      6248.79349        49.000  
 16 04 02 14 01 16.0000000  0  1G27                                             
  18117144.17249  95206233.44949      6244.82849        49.000  
 16 04 02 14 01 16.1000000  0  1G27                                             
  18117025.36749  95205609.16049      6240.94949        49.000  
 16 04 02 14 01 16.2000000  0  1G27                                             
  18116906.65649  95204985.28949      6236.77749        49.000  
 16 04 02 14 01 16.3000000  0  1G27                                             
  18116788.01649  95204361.83649      6232.52349        49.000  
 16 04 02 14 01 16.4000000  0  1G27                                             
  18116669.46949  95203738.84049      6228.00049        49.000  
 16 04 02 14 01 16.5000000  0  1G27                                             
  18116550.98449  95203116.22749      6224.15649        49.000  
 16 04 02 14 01 16.6000000  0  1G27                                             
  18116432.58649  95202494.02049      6220.24649        49.000  
 16 04 02 14 01 16.7000000  0  1G27                                             
  18116314.25049  95201872.16049      6216.72749        49.000  
 16 04 02 14 01 16.8000000  0  1G27                                             
  18116195.98449  95201250.70349      6212.81649        49.000  
 16 04 02 14 01 16.9000000  0  1G27                                             
  18116077.80549  95200629.65649      6208.73849        49.000  
 16 04 02 14 01 17.0000000  0  1G27                                             
  18115959.69549  95200009.02349      6204.44949        49.000  
 16 04 02 14 01 17.1000000  0  1G27                                             
  18115841.65649  95199388.73849      6201.00049        49.000  
 16 04 02 14 01 17.2000000  0  1G27                                             
  18115723.71149  95198768.91049      6196.57849        49.000  
 16 04 02 14 01 17.3000000  0  1G27                                             
  18115605.83649  95198149.46149      6192.53549        49.000  
 16 04 02 14 01 17.4000000  0  1G27                                             
  18115488.04749  95197530.45349      6188.26249        49.000  
 16 04 02 14 01 17.5000000  0  1G27                                             
  18115370.32849  95196911.83249      6184.35249        49.000  
 16 04 02 14 01 17.6000000  0  1G27                                             
  18115252.66449  95196293.53149      6181.17649        49.000  
 16 04 02 14 01 17.7000000  0  1G27                                             
  18115135.10949  95195675.76649      6175.91449        49.000  
 16 04 02 14 01 17.8000000  0  1G27                                             
  18115017.62549  95195058.37949      6171.93049        49.000  
 16 04 02 14 01 17.9000000  0  1G27                                             
  18114900.20349  95194441.33649      6168.39849        49.000  
 16 04 02 14 01 18.0000000  0  1G27                                             
  18114782.86749  95193824.73849      6164.08649        49.000  
 16 04 02 14 01 18.1000000  0  1G27                                             
  18114665.60249  95193208.52749      6160.30949        49.000  
 16 04 02 14 01 18.2000000  0  1G27                                             
  18114548.41449  95192592.69949      6156.37549        49.000  
 16 04 02 14 01 18.3000000  0  1G27                                             
  18114431.30549  95191977.31249      6151.96149        49.000  
 16 04 02 14 01 18.4000000  0  1G27                                             
  18114314.28149  95191362.30549      6148.17249        49.000  
 16 04 02 14 01 18.5000000  0  1G27                                             
  18114197.33649  95190747.77349      6143.38349        49.000  
 16 04 02 14 01 18.6000000  0  1G27                                             
  18114080.46149  95190133.62549      6139.43849        49.000  
 16 04 02 14 01 18.7000000  0  1G27                                             
  18113963.67249  95189519.88749      6135.42649        49.000  
 16 04 02 14 01 18.8000000  0  1G27                                             
  18113846.96949  95188906.60249      6130.88349        49.000  
 16 04 02 14 01 18.9000000  0  1G27                                             
  18113730.33649  95188293.68849      6127.26249        49.000  
 16 04 02 14 01 19.0000000  0  1G27                                             
  18113613.78149  95187681.19549      6123.03149        49.000  
 16 04 02 14 01 19.1000000  0  1G27                                             
  18113497.30549  95187069.09849      6119.05949        49.000  
 16 04 02 14 01 19.2000000  0  1G27                                             
  18113380.90649  95186457.41849      6114.93849        49.000  
 16 04 02 14 01 19.3000000  0  1G27                                             
  18113264.58649  95185846.12149      6110.98049        49.000  
 16 04 02 14 01 19.4000000  0  1G27                                             
  18113148.34449  95185235.25049      6106.80549        49.000  
 16 04 02 14 01 19.5000000  0  1G27                                             
  18113032.18049  95184624.78549      6102.75849        49.000  
 16 04 02 14 01 19.6000000  0  1G27                                             
  18112916.07049  95184014.72349      6098.79749        49.000  
 16 04 02 14 01 19.7000000  0  1G27                                             
  18112800.07049  95183405.10549      6094.32049        49.000  
 16 04 02 14 01 19.8000000  0  1G27                                             
  18112684.14149  95182795.89849      6090.25049        49.000  
 16 04 02 14 01 19.9000000  0  1G27                                             
  18112568.28149  95182187.05949      6086.53549        49.000  
 16 04 02 14 01 20.0000000  0  1G27                                             
  18112452.50849  95181578.63749      6082.37549        49.000  
 16 04 02 14 01 20.1000000  0  1G27                                             
  18112336.80549  95180970.59849      6078.66849        49.000  
 16 04 02 14 01 20.2000000  0  1G27                                             
  18112221.18049  95180362.96549      6074.49649        49.000  
 16 04 02 14 01 20.3000000  0  1G27                                             
  18112105.62549  95179755.71549      6070.63749        49.000  
 16 04 02 14 01 20.4000000  0  1G27                                             
  18111990.14149  95179148.87149      6066.69949        49.000  
 16 04 02 14 01 20.5000000  0  1G27                                             
  18111874.72749  95178542.37149      6063.33249        49.000  
 16 04 02 14 01 20.6000000  0  1G27                                             
  18111759.39149  95177936.30549      6058.77349        49.000  
 16 04 02 14 01 20.7000000  0  1G27                                             
  18111644.14849  95177330.66849      6054.43049        49.000  
 16 04 02 14 01 20.8000000  0  1G27                                             
  18111528.97749  95176725.43049      6050.30949        49.000  
 16 04 02 14 01 20.9000000  0  1G27                                             
  18111413.89149  95176120.64549      6045.93049        49.000  
 16 04 02 14 01 21.0000000  0  1G27                                             
  18111298.85949  95175516.17249      6042.89549        49.000  
 16 04 02 14 01 21.1000000  0  1G27                                             
  18111183.92249  95174912.15249      6038.42649        49.000  
 16 04 02 14 01 21.2000000  0  1G27                                             
  18111069.05549  95174308.52749      6034.43849        49.000  
 16 04 02 14 01 21.3000000  0  1G27                                             
  18110954.27349  95173705.33249      6029.98049        49.000  
 16 04 02 14 01 21.4000000  0  1G27                                             
  18110839.56249  95173102.53549      6026.20349        49.000  
 16 04 02 14 01 21.5000000  0  1G27                                             
  18110724.92249  95172500.10549      6022.35549        49.000  
 16 04 02 14 01 21.6000000  0  1G27                                             
  18110610.36749  95171898.11349      6018.03149        49.000  
 16 04 02 14 01 21.7000000  0  1G27                                             
  18110495.89149  95171296.52349      6013.96149        49.000  
 16 04 02 14 01 21.8000000  0  1G27                                             
  18110381.48449  95170695.31249      6010.23049        49.000  
 16 04 02 14 01 21.9000000  0  1G27                                             
  18110267.15649  95170094.51649      6006.12149        49.000  
 16 04 02 14 01 22.0000000  0  1G27                                             
  18110152.92249  95169494.18049      6001.35249        49.000  
 16 04 02 14 01 22.1000000  0  1G27                                             
  18110038.75049  95168894.19949      5997.98849        49.000  
 16 04 02 14 01 22.2000000  0  1G27                                             
  18109924.65649  95168294.61749      5993.86749        49.000  
 16 04 02 14 01 22.3000000  0  1G27                                             
  18109810.64849  95167695.50049      5989.23049        49.000  
 16 04 02 14 01 22.4000000  0  1G27                                             
  18109696.69549  95167096.72349      5985.79749        49.000  
 16 04 02 14 01 22.5000000  0  1G27                                             
  18109582.83649  95166498.36349      5981.84449        49.000  
 16 04 02 14 01 22.6000000  0  1G27                                             
  18109469.04749  95165900.42649      5977.62149        49.000  
 16 04 02 14 01 22.7000000  0  1G27                                             
  18109355.32849  95165302.85949      5973.74249        49.000  
