     2.10           OBSERVATION DATA    G (GPS)             RINEX VERSION / TYPE
Convert v1.8.0                          09-Jun-2016 14:46   PGM / RUN BY / DATE 
Signal Strength values S1,S2 are in dBHz                    COMMENT             
                                                            MARKER NAME         
                                                            MARKER NUMBER       
                                                            OBSERVER / AGENCY   
                    NovAtel GPSCard                         REC # / TYPE / VERS 
                                                            ANT # / TYPE        
0.0000        0.0000        0.0000                          APPROX POSITION XYZ 
        0.0000        0.0000        0.0000                  ANTENNA: DELTA H/E/N
     1     0                                                WAVELENGTH FACT L1/2
     1     0     4   G04   G07   G26   G30                  WAVELENGTH FACT L1/2
                                                            COMMENT             
                                                            COMMENT             
                                                            COMMENT             
                                                            COMMENT             
                                                            COMMENT             
                                                            COMMENT             
     4    C1    L1    D1    S1                              # / TYPES OF OBSERV 
     0.100                                                  INTERVAL            
  2016    04    02    14    20    36.8000000    GPS         TIME OF FIRST OBS   
  2016    04    02    14    22     1.9000000    GPS         TIME OF LAST OBS    
Leap Seconds Unknown                                        COMMENT             
                                                            END OF HEADER       
 16 04 02 14 20 36.8000000  0  1G04                                             
  23231346.69549 122081550.18459      4643.48449        49.000  
 16 04 02 14 20 36.9000000  0  2G04G26                                          
  23231258.32849 122081085.89149      4641.38749        50.000  
  22588741.65649 118704637.96159     -2215.52749        50.000  
 16 04 02 14 20 37.0000000  0  2G04G26                                          
  23231170.03149 122080621.87149      4638.66049        50.000  
  22588783.85249 118704859.67649     -2218.85949        50.000  
 16 04 02 14 20 37.1000000  0  2G04G26                                          
  23231081.78149 122080158.16449      4635.73449        50.000  
  22588826.11749 118705081.74649     -2222.19949        50.000  
 16 04 02 14 20 37.2000000  0  2G04G26                                          
  23230993.58649 122079694.71549      4632.91849        50.000  
  22588868.43049 118705304.12549     -2225.55549        50.000  
 16 04 02 14 20 37.3000000  0  2G04G26                                          
  23230905.45349 122079231.57449      4629.67649        50.000  
  22588910.81249 118705526.85249     -2229.15649        50.000  
 16 04 02 14 20 37.4000000  0  2G04G26                                          
  23230817.40649 122078768.85549      4625.38349        50.000  
  22588953.28149 118705750.05149     -2233.94949        50.000  
 16 04 02 14 20 37.5000000  0  3G04G30G26                                       
  23230729.37549 122078306.37949      4623.03949        50.000  
  25966954.22749 136457264.41459      1935.33249        48.000  
  22588995.81249 118705973.53549     -2236.73849        50.000  
 16 04 02 14 20 37.6000000  0  4G04G30G26G07                                    
  23230641.41449 122077844.16049      4620.73849        50.000  
  25966917.41449 136457070.96549      1933.34849        48.000  
  22589038.39849 118706197.33249     -2239.56249        50.000  
  23125257.00049 121524044.46559     -8670.35549        50.000  
 16 04 02 14 20 37.7000000  0  4G04G30G26G07                                    
  23230553.53149 122077382.27749      4617.28549        50.000  
  25966880.65649 136456877.80549      1930.37549        48.000  
  22589081.06249 118706421.51249     -2243.53949        50.000  
  23125422.03949 121524911.75049     -8675.05949        50.000  
 16 04 02 14 20 37.8000000  0  4G04G30G26G07                                    
  23230465.70349 122076920.71549      4614.05149        50.000  
  25966843.94549 136456684.87949      1927.85949        48.000  
  22589123.78949 118706646.04749     -2247.22349        50.000  
  23125587.17249 121525779.49249     -8679.72349        50.000  
 16 04 02 14 20 37.9000000  0  4G04G30G26G07                                    
  23230377.90649 122076459.41449      4611.14849        50.000  
  25966807.25049 136456492.18449      1925.34849        48.000  
  22589166.58649 118706870.90249     -2250.55549        50.000  
  23125752.36749 121526647.63349     -8683.90649        50.000  
 16 04 02 14 20 38.0000000  0  4G04G30G26G07                                    
  23230290.18049 122075998.40249      4608.53949        50.000  
  25966770.61749 136456299.69949      1923.58649        48.000  
  22589209.43849 118707096.07849     -2253.57849        50.000  
  23125917.64149 121527516.18049     -8687.76249        50.000  
 16 04 02 14 20 38.1000000  0  4G04G30G26G07                                    
  23230202.50049 122075537.68049      4605.70749        50.000  
  25966734.04749 136456107.47349      1921.06249        48.000  
  22589252.35949 118707321.60949     -2256.96549        50.000  
  23126083.00849 121528385.16449     -8692.07449        50.000  
 16 04 02 14 20 38.2000000  0  4G04G30G26G07                                    
  23230114.89149 122075077.31649      4601.99249        50.000  
  25966697.52349 136455915.53949      1917.97749        48.000  
  22589295.34449 118707547.53149     -2261.00849        50.000  
  23126248.51649 121529254.64549     -8697.14149        50.000  
 16 04 02 14 20 38.3000000  0  4G04G30G26G07                                    
  23230027.34449 122074617.23449      4599.13349        50.000  
  25966660.99249 136455723.84049      1915.60549        48.000  
  22589338.40649 118707773.79349     -2264.37949        50.000  
  23126414.05549 121530124.53549     -8701.19549        50.000  
 16 04 02 14 20 38.4000000  0  4G04G30G26G07                                    
  23229939.85949 122074157.49649      4595.77349        50.000  
  25966624.57049 136455532.41849      1912.79349        48.000  
  22589381.53149 118708000.43849     -2268.29749        50.000  
  23126579.68049 121530994.89849     -8705.96549        50.000  
 16 04 02 14 20 38.5000000  0  4G04G30G26G07                                    
  23229852.42249 122073698.04749      4592.93849        50.000  
  25966588.18849 136455341.23849      1910.52749        48.000  
  22589424.72749 118708227.41849     -2271.53549        50.000  
  23126745.33649 121531865.69149     -8710.18449        50.000  
 16 04 02 14 20 38.6000000  0  4G04G30G26G07                                    
  23229765.05549 122073238.92649      4589.42649        50.000  
  25966551.85949 136455150.33649      1907.59849        48.000  
  22589468.00049 118708454.78549     -2275.51249        50.000  
  23126911.13349 121532736.94949     -8715.02349        50.000  
 16 04 02 14 20 38.7000000  0  4G04G30G26G07                                    
  23229677.74249 122072780.14149      4586.06649        50.000  
  25966515.57849 136454959.70349      1904.90249        48.000  
  22589511.32849 118708682.52049     -2279.32449        50.000  
  23127077.01649 121533608.66849     -8719.68449        50.000  
 16 04 02 14 20 38.8000000  0  4G04G30G26G07                                    
  23229590.49249 122072321.61349      4583.62149        50.000  
  25966479.33649 136454769.28149      1902.93849        48.000  
  22589554.72749 118708910.57049     -2282.42649        50.000  
  23127242.93049 121534480.78149     -8723.48049        50.000  
 16 04 02 14 20 38.9000000  0  4G04G30G26G07                                    
  23229503.28949 122071863.43849      4580.12949        50.000  
  25966443.16449 136454579.14549      1900.03149        48.000  
  22589598.19549 118709139.01249     -2286.25849        50.000  
  23127408.98449 121535353.37949     -8728.30549        50.000  
 16 04 02 14 20 39.0000000  0  4G04G30G26G07                                    
  23229416.15649 122071405.53549      4577.27049        50.000  
  25966407.03149 136454389.24249      1897.62549        48.000  
  22589641.72749 118709367.77349     -2289.53549        50.000  
  23127575.12549 121536226.38749     -8732.52349        50.000  
 16 04 02 14 20 39.1000000  0  4G04G30G26G07                                    
  23229329.08649 122070947.99649      4573.55149        50.000  
  25966370.95349 136454199.64149      1894.50449        48.000  
  22589685.35249 118709596.95349     -2293.66449        50.000  
  23127741.35249 121537099.88749     -8737.47749        50.000  
 16 04 02 14 20 39.2000000  0  4G04G30G26G07                                    
  23229242.08649 122070490.82449      4570.16849        50.000  
  25966334.93049 136454010.35249      1891.52049        48.000  
  22589729.03949 118709826.53549     -2297.64149        50.000  
  23127907.62549 121537973.89549     -8742.35949        50.000  
 16 04 02 14 20 39.3000000  0  4G04G30G26G07                                    
  23229155.13349 122070033.81649      4568.38349        50.000  
  25966298.93049 136453821.17649      1890.42649        48.000  
  22589772.78149 118710056.34849     -2300.02749        50.000  
  23128074.00049 121538848.20349     -8745.54349        50.000  
 16 04 02 14 20 39.4000000  0  4G04G30G26G07                                    
  23229068.23449 122069577.16849      4565.09849        50.000  
  25966262.98449 136453632.28949      1887.63749        48.000  
  22589816.58649 118710286.53949     -2303.63749        50.000  
  23128240.46949 121539722.98449     -8749.97349        50.000  
 16 04 02 14 20 39.5000000  0  4G04G30G26G07                                    
  23228981.39849 122069120.81249      4561.73449        50.000  
  25966227.09449 136453443.66049      1884.85549        48.000  
  22589860.46149 118710517.07849     -2307.39149        50.000  
  23128407.09449 121540598.21949     -8754.76249        50.000  
 16 04 02 14 20 39.6000000  0  4G04G30G26G07                                    
  23228894.62549 122068664.80549      4558.67249        50.000  
  25966191.25049 136453255.30149      1882.50449        48.000  
  22589904.40649 118710748.00849     -2310.99649        50.000  
  23128573.79749 121541473.90649     -8759.00049        50.000  
 16 04 02 14 20 39.7000000  0  4G04G30G26G07                                    
  23228807.89849 122068209.08249      4555.39849        50.000  
  25966155.43049 136453067.19949      1879.58649        48.000  
  22589948.42249 118710979.28549     -2314.65649        50.000  
  23128740.51649 121542350.02749     -8763.66049        50.000  
 16 04 02 14 20 39.8000000  0  4G04G30G26G07                                    
  23228721.23449 122067753.68449      4552.34449        50.000  
  25966119.68849 136452879.35249      1877.11349        48.000  
  22589992.50849 118711210.93449     -2318.27049        50.000  
  23128907.31249 121543226.61749     -8768.18049        50.000  
 16 04 02 14 20 39.9000000  0  4G04G30G26G07                                    
  23228634.61749 122067298.53949      4549.72349        50.000  
  25966083.96149 136452691.70749      1874.99649        48.000  
  22590036.64849 118711442.87149     -2321.30149        50.000  
  23129074.19549 121544103.58249     -8772.06249        50.000  
 16 04 02 14 20 40.0000000  0  4G04G30G26G07                                    
  23228548.07049 122066843.72749      4546.53949        50.000  
  25966048.30549 136452504.32849      1872.44149        48.000  
  22590080.85949 118711675.18849     -2325.02049        50.000  
  23129241.16449 121544981.01249     -8776.60249        50.000  
 16 04 02 14 20 40.1000000  0  4G04G30G26G07                                    
  23228461.57849 122066389.24649      4543.16849        50.000  
  25966012.69549 136452317.25049      1869.45349        48.000  
  22590125.15649 118711907.89149     -2328.82849        50.000  
  23129408.21949 121545858.91049     -8781.19949        50.000  
 16 04 02 14 20 40.2000000  0  4G04G30G26G07                                    
  23228375.13349 122065934.97349      4541.16449        50.000  
  25965977.12549 136452130.29749      1868.19549        48.000  
  22590169.48449 118712140.82849     -2331.18049        50.000  
  23129575.37549 121546737.15249     -8784.69549        50.000  
 16 04 02 14 20 40.3000000  0  4G04G30G26G07                                    
  23228288.74249 122065481.03549      4537.77749        50.000  
  25965941.60249 136451943.64549      1865.25449        48.000  
  22590213.88349 118712374.16849     -2335.08649        50.000  
  23129742.58649 121547615.85949     -8789.35949        50.000  
 16 04 02 14 20 40.4000000  0  4G04G30G26G07                                    
  23228202.41449 122065027.39149      4535.09449        50.000  
  25965906.12549 136451757.22349      1863.09449        48.000  
  22590258.34449 118712607.83649     -2338.28549        50.000  
  23129909.87549 121548494.99249     -8793.39549        50.000  
 16 04 02 14 20 40.5000000  0  4G04G30G26G07                                    
  23228116.14149 122064574.00449      4532.32849        50.000  
  25965870.69549 136451570.99649      1860.86749        48.000  
  22590302.87549 118712841.81649     -2341.56249        50.000  
  23130077.23449 121549374.51649     -8797.61749        50.000  
 16 04 02 14 20 40.6000000  0  4G04G30G26G07                                    
  23228029.93849 122064120.99249      4528.46549        50.000  
  25965835.32049 136451385.10249      1857.70749        48.000  
  22590347.47749 118713076.21149     -2345.69149        50.000  
  23130244.67249 121550254.54749     -8802.55149        50.000  
 16 04 02 14 20 40.7000000  0  4G04G30G26G07                                    
  23227943.79749 122063668.25449      4525.68849        50.000  
  25965800.02349 136451199.43049      1855.28149        48.000  
  22590392.15649 118713310.94149     -2349.23449        50.000  
  23130412.21949 121551135.00049     -8806.80549        50.000  
 16 04 02 14 20 40.8000000  0  4G04G30G26G07                                    
  23227857.69549 122063215.79349      4522.84849        50.000  
  25965764.72749 136451013.96149      1853.29349        48.000  
  22590436.88349 118713545.96949     -2352.18849        50.000  
  23130579.85249 121552015.84049     -8810.87949        50.000  
 16 04 02 14 20 40.9000000  0  4G04G30G26G07                                    
  23227771.66449 122062763.68849      4519.46149        50.000  
  25965729.50849 136450828.81649      1850.28949        48.000  
  22590481.69549 118713781.42249     -2356.24249        50.000  
  23130747.56249 121552897.18849     -8815.72349        50.000  
 16 04 02 14 20 41.0000000  0  4G04G30G26G07                                    
  23227685.69549 122062311.90649      4516.05949        50.000  
  25965694.32049 136450643.92249      1847.53549        48.000  
  22590526.56249 118714017.23049     -2360.04749        50.000  
  23130915.39149 121553778.99249     -8820.43049        50.000  
 16 04 02 14 20 41.1000000  0  4G04G30G26G07                                    
  23227599.77349 122061860.43049      4512.93849        50.000  
  25965659.19549 136450459.28949      1844.93849        48.000  
  22590571.50049 118714253.39849     -2363.68049        50.000  
  23131083.27349 121554661.22349     -8824.82849        50.000  
 16 04 02 14 20 41.2000000  0  4G04G30G26G07                                    
  23227513.92249 122061409.25849      4510.16449        50.000  
  25965624.10949 136450274.90249      1842.65649        48.000  
  22590616.50849 118714489.91449     -2366.86749        50.000  
  23131251.21149 121555543.89549     -8828.90649        50.000  
 16 04 02 14 20 41.3000000  0  4G04G30G26G07                                    
  23227428.10949 122060958.35549      4507.50849        50.000  
  25965589.07849 136450090.73449      1840.39149        48.000  
  22590661.58649 118714726.75849     -2370.31249        50.000  
  23131419.25849 121556426.98049     -8833.11749        50.000  
 16 04 02 14 20 41.4000000  0  4G04G30G26G07                                    
  23227342.35949 122060507.76249      4504.09449        50.000  
  25965554.07849 136449906.81249      1837.73849        48.000  
  22590706.71949 118714963.93449     -2373.72749        50.000  
  23131587.38349 121557310.49249     -8837.63749        50.000  
 16 04 02 14 20 41.5000000  0  4G04G30G26G07                                    
  23227256.70349 122060057.53149      4500.77749        50.000  
  25965519.10949 136449723.20749      1834.84049        48.000  
  22590751.93849 118715201.53949     -2377.75049        50.000  
  23131755.60249 121558194.51249     -8842.36349        50.000  
 16 04 02 14 20 41.6000000  0  4G04G30G26G07                                    
  23227171.07849 122059607.57849      4497.99249        50.000  
  25965484.21949 136449539.82049      1832.59049        48.000  
  22590797.21149 118715439.45749     -2380.94549        50.000  
  23131923.88349 121559078.94549     -8846.57849        50.000  
 16 04 02 14 20 41.7000000  0  4G04G30G26G07                                    
  23227085.50049 122059157.91849      4494.84449        49.000  
  25965449.36749 136449356.67649      1830.05949        48.000  
  22590842.54749 118715677.71949     -2384.47749        50.000  
  23132092.26649 121559963.79749     -8850.94549        50.000  
 16 04 02 14 20 41.8000000  0  4G04G30G26G07                                    
  23227000.00049 122058708.62949      4491.19949        49.000  
  25965414.57049 136449173.84449      1826.89549        48.000  
  22590887.96149 118715916.39549     -2388.61749        50.000  
  23132260.74249 121560849.15649     -8856.03549        50.000  
 16 04 02 14 20 41.9000000  0  4G04G30G26G07                                    
  23226914.56249 122058259.63349      4488.41849        50.000  
  25965379.84449 136448991.25049      1824.61749        48.000  
  22590933.43849 118716155.41049     -2391.89549        50.000  
  23132429.29749 121561734.94549     -8860.10549        50.000  
 16 04 02 14 20 42.0000000  0  4G04G30G26G07                                    
  23226829.17249 122057810.92649      4485.51649        50.000  
  25965345.14149 136448808.89149      1822.30549        48.000  
  22590978.98449 118716394.76249     -2395.32849        50.000  
  23132597.93849 121562621.14549     -8864.36349        50.000  
 16 04 02 14 20 42.1000000  0  4G04G30G26G07                                    
  23226743.84449 122057362.48049      4482.91049        50.000  
  25965310.47749 136448626.74249      1820.19149        48.000  
  22591024.59449 118716634.41849     -2398.23049        50.000  
  23132766.65649 121563507.74649     -8868.25049        50.000  
 16 04 02 14 20 42.2000000  0  4G04G30G26G07                                    
  23226658.57049 122056914.36349      4479.65649        50.000  
  25965275.86749 136448444.86349      1817.49249        48.000  
  22591070.27349 118716874.45749     -2401.90249        50.000  
  23132935.46149 121564394.82449     -8873.00449        50.000  
 16 04 02 14 20 42.3000000  0  4G04G30G26G07                                    
  23226573.34449 122056466.49249      4477.17649        50.000  
  25965241.29749 136448263.17249      1815.60249        48.000  
  22591116.00049 118717114.78949     -2405.02349        50.000  
  23133104.32849 121565282.24649     -8876.53949        50.000  
 16 04 02 14 20 42.4000000  0  4G04G30G26G07                                    
  23226488.18849 122056018.99249      4473.48049        50.000  
  25965206.78149 136448081.80949      1812.36749        48.000  
  22591161.82049 118717355.53949     -2409.24249        50.000  
  23133273.27349 121566170.20749     -8881.79349        50.000  
 16 04 02 14 20 42.5000000  0  4G04G30G26G07                                    
  23226403.08649 122055571.76649      4470.72749        50.000  
  25965172.32049 136447900.64849      1810.25849        48.000  
  22591207.69549 118717596.60249     -2412.44149        50.000  
  23133442.32049 121567058.55949     -8885.71549        50.000  
 16 04 02 14 20 42.6000000  0  4G04G30G26G07                                    
  23226318.03149 122055124.80949      4467.84849        50.000  
  25965137.89149 136447719.70749      1808.04749        48.000  
  22591253.62549 118717837.96949     -2415.57849        50.000  
  23133611.41449 121567947.31649     -8890.00049        50.000  
 16 04 02 14 20 42.7000000  0  4G04G30G26G07                                    
  23226233.04749 122054678.19949      4464.51649        50.000  
  25965103.52349 136447539.07449      1805.14849        48.000  
  22591299.64149 118718079.75849     -2419.57449        50.000  
  23133780.62549 121568836.55549     -8894.60549        50.000  
 16 04 02 14 20 42.8000000  0  4G04G30G26G07                                    
  23226148.12549 122054231.92249      4461.11349        50.000  
  25965069.19549 136447358.70349      1802.33649        48.000  
  22591345.71949 118718321.89549     -2423.26249        50.000  
  23133949.94549 121569726.25449     -8899.39849        50.000  
 16 04 02 14 20 42.9000000  0  4G04G30G26G07                                    
  23226063.25849 122053785.94549      4458.01649        50.000  
  25965034.92249 136447178.59449      1799.67249        48.000  
  22591391.86749 118718564.39849     -2426.84849        50.000  
  23134119.33649 121570616.39549     -8903.81249        50.000  
 16 04 02 14 20 43.0000000  0  4G04G30G26G07                                    
  23225978.45349 122053340.27349      4455.11749        50.000  
  25965000.69549 136446998.71949      1797.48049        48.000  
  22591438.08649 118718807.25849     -2430.38749        50.000  
  23134288.80549 121571506.96549     -8908.05149        50.000  
 16 04 02 14 20 43.1000000  0  4G04G30G26G07                                    
  23225893.70349 122052894.89849      4451.95349        50.000  
  25964966.50849 136446819.09049      1794.81649        48.000  
  22591484.35949 118719050.44549     -2433.90649        50.000  
  23134458.37549 121572397.97349     -8912.53149        50.000  
 16 04 02 14 20 43.2000000  0  4G04G30G26G07                                    
  23225809.00849 122052449.84049      4449.05149        50.000  
  25964932.37549 136446639.72749      1792.31249        48.000  
  22591530.70349 118719293.99649     -2437.32849        50.000  
  23134628.01649 121573289.43449     -8916.90249        50.000  
 16 04 02 14 20 43.3000000  0  4G04G30G26G07                                    
  23225724.38349 122052005.10949      4445.62549        50.000  
  25964898.28949 136446460.63749      1789.57049        48.000  
  22591577.11749 118719537.93049     -2441.10249        50.000  
  23134797.73449 121574181.34449     -8921.52049        50.000  
 16 04 02 14 20 43.4000000  0  4G04G30G26G07                                    
  23225639.80549 122051560.64149      4443.15649        49.000  
  25964864.25049 136446281.75449      1787.67649        48.000  
  22591623.59449 118719782.16849     -2444.11349        50.000  
  23134967.52349 121575073.65649     -8925.37949        50.000  
 16 04 02 14 20 43.5000000  0  4G04G30G26G07                                    
  23225555.26649 122051116.43049      4440.57449        50.000  
  25964830.25049 136446103.08249      1785.50049        48.000  
  22591670.12549 118720026.70749     -2447.05949        50.000  
  23135137.39849 121575966.35949     -8929.30949        50.000  
 16 04 02 14 20 43.6000000  0  4G04G30G26G07                                    
  23225470.79749 122050672.56249      4437.17249        50.000  
  25964796.30549 136445924.68049      1782.76249        48.000  
  22591716.73449 118720271.63749     -2451.03949        50.000  
  23135307.35949 121576859.52349     -8933.93449        50.000  
 16 04 02 14 20 43.7000000  0  4G04G30G26G07                                    
  23225386.39149 122050228.99249      4434.13749        50.000  
  25964762.41449 136445746.54349      1780.18449        48.000  
  22591763.40649 118720516.91449     -2454.52749        50.000  
  23135477.41449 121577753.14849     -8938.37149        50.000  
 16 04 02 14 20 43.8000000  0  4G04G30G26G07                                    
  23225302.03949 122049785.72749      4431.02349        50.000  
  25964728.56249 136445568.62949      1777.75049        48.000  
  22591810.14849 118720762.53549     -2457.99249        50.000  
  23135647.56249 121578647.18049     -8942.60949        50.000  
 16 04 02 14 20 43.9000000  0  4G04G30G26G07                                    
  23225217.75849 122049342.77049      4427.98849        50.000  
  25964694.77349 136445390.99249      1775.03549        48.000  
  22591856.94549 118721008.51649     -2461.54749        50.000  
  23135817.77349 121579541.68049     -8947.25449        50.000  
 16 04 02 14 20 44.0000000  0  4G04G30G26G07                                    
  23225133.51649 122048900.07049      4425.33249        50.000  
  25964661.00849 136445213.55549      1773.15649        48.000  
  22591903.81249 118721254.80549     -2464.69149        50.000  
  23135988.06249 121580436.55549     -8951.03949        50.000  
 16 04 02 14 20 44.1000000  0  4G04G30G26G07                                    
  23225049.33649 122048457.69149      4422.36749        50.000  
  25964627.30549 136445036.38749      1770.56649        48.000  
  22591950.73449 118721501.45749     -2468.09449        50.000  
  23136158.41449 121581331.89549     -8955.50049        50.000  
 16 04 02 14 20 44.2000000  0  4G04G30G26G07                                    
  23224965.21949 122048015.63749      4419.09049        49.000  
  25964593.63349 136444859.45749      1768.09449        48.000  
  22591997.74249 118721748.46549     -2471.82049        50.000  
  23136328.87549 121582227.66849     -8960.00849        50.000  
 16 04 02 14 20 44.3000000  0  4G04G30G26G07                                    
  23224881.14849 122047573.90649      4415.25049        50.000  
  25964560.05549 136444682.84849      1764.48449        48.000  
  22592044.82849 118721995.85949     -2476.10949        50.000  
  23136499.42249 121583123.92649     -8965.25449        50.000  
 16 04 02 14 20 44.4000000  0  4G04G30G26G07                                    
  23224797.14849 122047132.47749      4412.86349        50.000  
  25964526.48449 136444506.43849      1762.91849        48.000  
  22592091.96949 118722243.59849     -2479.10249        50.000  
  23136670.04749 121584020.60249     -8968.94149        50.000  
 16 04 02 14 20 44.5000000  0  4G04G30G26G07                                    
  23224713.18849 122046691.32449      4409.86349        50.000  
  25964492.95349 136444330.29749      1760.17249        48.000  
  22592139.17249 118722491.65649     -2482.42649        50.000  
  23136840.75849 121584917.69949     -8973.26249        50.000  
 16 04 02 14 20 44.6000000  0  4G04G30G26G07                                    
  23224629.29749 122046250.48049      4406.87549        50.000  
  25964459.47749 136444154.37549      1757.86349        48.000  
  22592186.44549 118722740.07449     -2485.95749        50.000  
  23137011.56249 121585815.23449     -8977.68849        49.000  
 16 04 02 14 20 44.7000000  0  4G04G30G26G07                                    
  23224545.46149 122045809.91849      4404.02049        49.000  
  25964426.04749 136443978.69949      1755.49649        48.000  
  22592233.77349 118722988.81649     -2489.16049        50.000  
  23137182.43849 121586713.17649     -8981.71949        50.000  
 16 04 02 14 20 44.8000000  0  4G04G30G26G07                                    
  23224461.69549 122045369.69949      4400.34449        49.000  
  25964392.67249 136443803.30149      1752.49249        48.000  
  22592281.18049 118723237.94949     -2493.30949        50.000  
  23137353.41449 121587611.59849     -8986.68449        50.000  
 16 04 02 14 20 44.9000000  0  4G04G30G26G07                                    
  23224377.96149 122044929.74649      4398.12149        49.000  
  25964359.33649 136443628.12149      1750.57849        48.000  
  22592328.64149 118723487.39849     -2496.08649        50.000  
  23137524.45349 121588510.42649     -8990.41449        50.000  
 16 04 02 14 20 45.0000000  0  4G04G30G26G07                                    
  23224294.28949 122044490.04749      4395.32849        49.000  
  25964326.03149 136443453.13749      1748.39149        48.000  
  22592376.16449 118723737.14549     -2499.32449        50.000  
  23137695.57049 121589409.64149     -8994.50449        50.000  
 16 04 02 14 20 45.1000000  0  4G04G30G26G07                                    
  23224210.71149 122044050.75449      4391.24649        49.000  
  25964292.80549 136443278.50849      1745.00049        48.000  
  22592423.78149 118723987.34049     -2503.89849        50.000  
  23137866.78149 121590309.38749     -8999.86749        50.000  
 16 04 02 14 20 45.2000000  0  4G04G30G26G07                                    
  23224127.17249 122043611.74249      4388.41049        50.000  
  25964259.61749 136443104.09849      1742.61749        48.000  
  22592471.45349 118724237.84849     -2506.95349        50.000  
  23138038.07049 121591209.53949     -9003.95749        49.000  
 16 04 02 14 20 45.3000000  0  4G04G30G26G07                                    
  23224043.67249 122043172.97749      4386.14549        50.000  
  25964226.46149 136442929.88749      1740.90649        48.000  
  22592519.18049 118724488.67649     -2509.89849        50.000  
  23138209.43849 121592110.09449     -9007.71549        50.000  
 16 04 02 14 20 45.4000000  0  4G04G30G26G07                                    
  23223960.22749 122042734.46149      4383.67249        50.000  
  25964193.34449 136442755.88749      1738.83649        48.000  
  22592566.96949 118724739.78949     -2512.77349        50.000  
  23138380.89149 121593011.01249     -9011.34049        50.000  
 16 04 02 14 20 45.5000000  0  4G04G30G26G07                                    
  23223876.85249 122042296.32049      4379.94949        50.000  
  25964160.29749 136442582.17249      1735.98849        48.000  
  22592614.82849 118724991.31249     -2516.89849        50.000  
  23138552.42249 121593912.44549     -9016.51249        50.000  
 16 04 02 14 20 45.6000000  0  4G04G30G26G07                                    
  23223793.52349 122041858.44949      4377.12149        50.000  
  25964127.28949 136442408.70349      1733.47749        48.000  
  22592662.75849 118725243.16449     -2520.30149        50.000  
  23138724.03949 121594814.27749     -9020.62149        50.000  
 16 04 02 14 20 45.7000000  0  4G04G30G26G07                                    
  23223710.26649 122041420.89549      4373.78149        50.000  
  25964094.32849 136442235.49249      1730.65649        48.000  
  22592710.75049 118725495.37549     -2524.02349        50.000  
  23138895.74249 121595716.56649     -9025.29749        50.000  
 16 04 02 14 20 45.8000000  0  4G04G30G26G07                                    
  23223627.06249 122040983.66849      4370.65649        50.000  
  25964061.42249 136442062.53949      1728.14849        48.000  
  22592758.82049 118725747.95749     -2527.70749        50.000  
  23139067.53149 121596619.30549     -9029.71949        50.000  
 16 04 02 14 20 45.9000000  0  4G04G30G26G07                                    
  23223543.91449 122040546.69549      4368.11349        50.000  
  25964028.54749 136441889.79349      1726.11349        48.000  
  22592806.93849 118726000.83249     -2530.61749        50.000  
  23139239.39149 121597522.44149     -9033.69549        50.000  
 16 04 02 14 20 46.0000000  0  4G04G30G26G07                                    
  23223460.81249 122040109.99249      4365.35549        50.000  
  25963995.71949 136441717.28149      1723.76249        48.000  
  22592855.11749 118726254.03949     -2533.79349        50.000  
  23139411.30549 121598425.97349     -9037.67649        50.000  
 16 04 02 14 20 46.1000000  0  4G04G30G26G07                                    
  23223377.78949 122039673.66049      4361.94549        50.000  
  25963962.94549 136441545.04749      1721.19549        48.000  
  22592903.38349 118726507.64549     -2537.68049        50.000  
  23139583.34449 121599330.00449     -9042.44549        50.000  
 16 04 02 14 20 46.2000000  0  4G04G30G26G07                                    
  23223294.81249 122039237.63749      4358.26649        50.000  
  25963930.21949 136441373.10249      1717.87949        48.000  
  22592951.71149 118726761.62149     -2541.86349        50.000  
  23139755.43849 121600234.48849     -9047.50849        50.000  
 16 04 02 14 20 46.3000000  0  4G04G30G26G07                                    
  23223211.90649 122038801.94949      4355.30549        49.000  
  25963897.54749 136441201.42249      1715.48049        48.000  
  22593000.11749 118727015.96949     -2545.26649        50.000  
  23139927.64849 121601139.43449     -9051.78149        50.000  
 16 04 02 14 20 46.4000000  0  4G04G30G26G07                                    
  23223129.04749 122038366.53149      4352.59049        50.000  
  25963864.92249 136441029.95749      1713.41849        48.000  
  22593048.57849 118727270.63349     -2548.45349        50.000  
  23140099.93049 121602044.78549     -9055.82849        50.000  
 16 04 02 14 20 46.5000000  0  4G04G30G26G07                                    
  23223046.24249 122037931.39549      4349.82049        50.000  
  25963832.32049 136440858.73449      1710.97349        48.000  
  22593097.10249 118727525.62549     -2551.65649        50.000  
  23140272.28949 121602950.54749     -9059.94149        50.000  
 16 04 02 14 20 46.6000000  0  4G04G30G26G07                                    
  23222963.49249 122037496.52749      4347.19549        50.000  
  25963799.78149 136440687.71949      1709.09449        48.000  
  22593145.68849 118727780.93849     -2554.69949        50.000  
  23140444.72749 121603856.71149     -9063.76249        50.000  
 16 04 02 14 20 46.7000000  0  4G04G30G26G07                                    
  23222880.79749 122037061.94949      4344.12949        50.000  
  25963767.29749 136440516.93049      1706.54349        48.000  
  22593194.33649 118728036.58249     -2558.18449        50.000  
  23140617.25849 121604763.30549     -9068.28549        50.000  
 16 04 02 14 20 46.8000000  0  4G04G30G26G07                                    
  23222798.17249 122036627.78149      4339.97749        50.000  
  25963734.86749 136440346.51249      1702.98049        48.000  
  22593243.06249 118728292.67649     -2562.71949        50.000  
  23140789.87549 121605670.43049     -9073.55949        50.000  
 16 04 02 14 20 46.9000000  0  4G04G30G26G07                                    
  23222715.60949 122036193.86749      4337.50049        50.000  
  25963702.47749 136440176.28949      1700.87549        48.000  
  22593291.85949 118728549.07849     -2565.83649        50.000  
  23140962.57049 121606577.95749     -9077.59449        50.000  
 16 04 02 14 20 47.0000000  0  4G04G30G26G07                                    
  23222633.09449 122035760.25449      4334.46549        50.000  
  25963670.13349 136440006.30149      1698.46949        48.000  
  22593340.71149 118728805.82449     -2569.32049        50.000  
  23141135.34449 121607485.89549     -9081.85549        50.000  
 16 04 02 14 20 47.1000000  0  4G04G30G26G07                                    
  23222550.64149 122035326.93049      4331.71149        50.000  
  25963637.85249 136439836.57049      1696.13749        48.000  
  22593389.64149 118729062.91049     -2572.51649        50.000  
  23141308.20349 121608394.27749     -9085.94149        50.000  
 16 04 02 14 20 47.2000000  0  4G04G30G26G07                                    
  23222468.24249 122034893.93049      4328.37949        50.000  
  25963605.59449 136439667.09449      1693.50049        48.000  
  22593438.62549 118729320.35549     -2576.23049        50.000  
  23141481.14149 121609303.11349     -9090.62549        50.000  
 16 04 02 14 20 47.3000000  0  4G04G30G26G07                                    
  23222385.89849 122034461.21949      4325.59849        50.000  
  25963573.38349 136439497.85949      1691.09849        48.000  
  22593487.68049 118729578.14149     -2579.56649        50.000  
  23141654.16449 121610212.35949     -9094.79749        50.000  
 16 04 02 14 20 47.4000000  0  4G04G30G26G07                                    
  23222303.61749 122034028.84049      4322.00449        50.000  
  25963541.23449 136439328.89849      1688.11749        48.000  
  22593536.81249 118729836.30549     -2583.57449        50.000  
  23141827.26649 121611122.07049     -9099.69149        50.000  
 16 04 02 14 20 47.5000000  0  4G04G30G26G07                                    
  23222221.39849 122033596.72349      4319.68049        50.000  
  25963509.11749 136439160.14849      1686.28549        48.000  
  22593585.99249 118730094.78549     -2586.51649        50.000  
  23142000.46149 121612032.19549     -9103.37949        50.000  
 16 04 02 14 20 47.6000000  0  4G04G30G26G07                                    
  23222139.23449 122033164.92649      4316.44949        50.000  
  25963477.05549 136438991.65649      1683.67249        48.000  
  22593635.24249 118730353.60949     -2590.04749        50.000  
  23142173.73449 121612942.74649     -9107.87949        50.000  
 16 04 02 14 20 47.7000000  0  4G04G30G26G07                                    
  23222057.11749 122032733.40249      4313.46149        50.000  
  25963445.03949 136438823.39149      1681.33649        48.000  
  22593684.57049 118730612.76649     -2593.47349        50.000  
  23142347.08649 121613853.71149     -9112.16049        50.000  
 16 04 02 14 20 47.8000000  0  4G04G30G26G07                                    
  23221975.07049 122032302.23449      4309.99249        50.000  
  25963413.07049 136438655.42249      1678.34049        48.000  
  22593733.96149 118730872.32049     -2597.39149        50.000  
  23142520.54749 121614765.17249     -9116.88349        50.000  
 16 04 02 14 20 47.9000000  0  4G04G30G26G07                                    
  23221893.06249 122031871.27749      4307.80949        50.000  
  25963381.13349 136438487.62949      1676.53549        48.000  
  22593783.39149 118731132.12949     -2599.89549        50.000  
  23142694.05549 121615676.97749     -9120.47349        50.000  
 16 04 02 14 20 48.0000000  0  4G04G30G26G07                                    
  23221811.12549 122031440.69949      4304.36349        50.000  
  25963349.26649 136438320.13749      1673.75449        48.000  
  22593832.91449 118731392.37149     -2604.12149        50.000  
  23142867.64849 121616589.29749     -9125.43049        50.000  
 16 04 02 14 20 48.1000000  0  4G04G30G26G07                                    
  23221729.23449 122031010.40249      4301.17249        50.000  
  25963317.43849 136438152.88349      1671.09849        48.000  
  22593882.50049 118731652.93449     -2607.62149        50.000  
  23143041.33649 121617502.01649     -9129.78149        50.000  
 16 04 02 14 20 48.2000000  0  4G04G30G26G07                                    
  23221647.41449 122030580.43449      4298.01249        50.000  
  25963285.66449 136437985.90649      1668.37949        48.000  
  22593932.15649 118731913.87549     -2611.30149        50.000  
  23143215.10249 121618415.20749     -9134.31249        50.000  
 16 04 02 14 20 48.3000000  0  4G04G30G26G07                                    
  23221565.64849 122030150.79749      4294.66049        50.000  
  25963253.94549 136437819.20349      1665.66849        48.000  
  22593981.88349 118732175.18449     -2614.90649        50.000  
  23143388.96149 121619328.85549     -9138.85549        50.000  
 16 04 02 14 20 48.4000000  0  4G04G30G26G07                                    
  23221483.94549 122029721.45749      4291.79749        50.000  
  25963222.26649 136437652.75049      1663.22349        48.000  
  22594031.67249 118732436.85249     -2618.43049        50.000  
  23143562.89149 121620242.94149     -9143.11349        50.000  
 16 04 02 14 20 48.5000000  0  4G04G30G26G07                                    
  23221402.28149 122029292.36349      4289.43849        50.000  
  25963190.64849 136437486.48849      1661.38749        48.000  
  22594081.52349 118732698.79749     -2621.21149        50.000  
  23143736.90649 121621157.39549     -9146.79349        50.000  
 16 04 02 14 20 48.6000000  0  4G04G30G26G07                                    
  23221320.69549 122028863.62549      4285.70749        50.000  
  25963159.06249 136437320.52049      1658.22749        48.000  
  22594131.44549 118732961.14849     -2625.39149        50.000  
  23143911.00049 121622072.34449     -9151.91049        50.000  
 16 04 02 14 20 48.7000000  0  4G04G30G26G07                                    
  23221239.16449 122028435.18049      4282.82849        50.000  
  25963127.54749 136437154.78949      1656.03549        48.000  
  22594181.42249 118733223.83249     -2628.60249        50.000  
  23144085.18849 121622987.71549     -9156.03549        50.000  
 16 04 02 14 20 48.8000000  0  4G04G30G26G07                                    
  23221157.68849 122028007.02749      4279.89149        50.000  
  25963096.05549 136436989.29749      1653.68449        48.000  
  22594231.47749 118733486.85249     -2631.90649        50.000  
  23144259.46149 121623903.50849     -9160.16849        50.000  
 16 04 02 14 20 48.9000000  0  4G04G30G26G07                                    
  23221076.25849 122027579.14149      4277.34849        50.000  
  25963064.60949 136436824.03549      1651.45349        48.000  
  22594281.58649 118733750.19949     -2635.07849        50.000  
  23144433.80549 121624819.71949     -9164.28549        50.000  
 16 04 02 14 20 49.0000000  0  4G04G30G26G07                                    
  23220994.89149 122027151.55549      4274.33249        50.000  
  25963033.20349 136436659.00049      1649.10949        48.000  
  22594331.76649 118734013.88349     -2638.51249        50.000  
  23144608.22749 121625736.33649     -9168.44949        50.000  
 16 04 02 14 20 49.1000000  0  4G04G30G26G07                                    
  23220913.59449 122026724.28149      4271.33249        50.000  
  25963001.85949 136436494.24249      1646.45749        48.000  
  22594382.00849 118734277.92249     -2642.04349        50.000  
  23144782.74249 121626653.41449     -9172.89849        50.000  
 16 04 02 14 20 49.2000000  0  4G04G30G26G07                                    
  23220832.32849 122026297.23449      4268.95749        50.000  
  25962970.53949 136436329.64549      1644.76249        48.000  
  22594432.30549 118734542.24249     -2644.82449        50.000  
  23144957.32049 121627570.84849     -9176.53149        50.000  
 16 04 02 14 20 49.3000000  0  4G04G30G26G07                                    
  23220751.13349 122025870.52049      4265.62949        50.000  
  25962939.25849 136436165.32849      1641.97349        48.000  
  22594482.66449 118734806.93049     -2648.49249        50.000  
  23145131.98449 121628488.75049     -9181.19549        50.000  
 16 04 02 14 20 49.4000000  0  4G04G30G26G07                                    
  23220669.99249 122025444.13749      4262.16049        50.000  
  25962908.04749 136436001.29349      1638.97349        48.000  
  22594533.10949 118735072.00049     -2652.59049        50.000  
  23145306.74249 121629407.10949     -9186.03149        50.000  
 16 04 02 14 20 49.5000000  0  4G04G30G26G07                                    
  23220588.90649 122025018.05549      4259.14149        50.000  
  25962876.87549 136435837.49249      1636.52049        48.000  
  22594583.60949 118735337.41449     -2656.02749        50.000  
  23145481.58649 121630325.89849     -9190.26649        50.000  
 16 04 02 14 20 49.6000000  0  4G04G30G26G07                                    
  23220507.87549 122024592.24249      4256.40249        50.000  
  25962845.75049 136435673.92249      1634.34449        48.000  
  22594634.17249 118735603.14149     -2659.18849        50.000  
  23145656.50049 121631245.09849     -9194.46149        50.000  
 16 04 02 14 20 49.7000000  0  4G04G30G26G07                                    
  23220426.90649 122024166.75849      4253.23449        50.000  
  25962814.68849 136435510.62149      1631.75849        48.000  
  22594684.80549 118735869.25049     -2662.79349        50.000  
  23145831.51649 121632164.76249     -9198.93849        50.000  
 16 04 02 14 20 49.8000000  0  4G04G30G26G07                                    
  23220345.98449 122023741.50049      4251.01249        50.000  
  25962783.64849 136435347.48849      1630.03149        48.000  
  22594735.49249 118736135.62549     -2665.46149        50.000  
  23146006.60249 121633084.77749     -9202.49649        50.000  
 16 04 02 14 20 49.9000000  0  4G04G30G26G07                                    
  23220265.13349 122023316.59449      4247.46149        50.000  
  25962752.66449 136435184.66849      1626.90649        48.000  
  22594786.25849 118736402.39849     -2669.50049        50.000  
  23146181.76649 121634005.27049     -9207.15649        50.000  
 16 04 02 14 20 50.0000000  0  4G04G30G26G07                                    
  23220184.33649 122022892.00849      4244.27349        50.000  
  25962721.72749 136435022.10249      1624.21149        48.000  
  22594837.08649 118736669.53549     -2673.21549        50.000  
  23146357.00049 121634926.23049     -9211.93049        50.000  
 16 04 02 14 20 50.1000000  0  4G04G30G26G07                                    
  23220103.59449 122022467.70749      4241.20349        50.000  
  25962690.82849 136434859.77049      1621.88349        48.000  
  22594887.98449 118736937.00449     -2676.60949        50.000  
  23146532.32849 121635847.59849     -9216.13349        50.000  
 16 04 02 14 20 50.2000000  0  4G04G30G26G07                                    
  23220022.92249 122022043.78149      4237.50049        50.000  
  25962659.99249 136434697.74649      1618.75449        48.000  
  22594938.96149 118737204.88349     -2680.72349        50.000  
  23146707.75849 121636769.47349     -9221.19149        50.000  
 16 04 02 14 20 50.3000000  0  4G04G30G26G07                                    
  23219942.30549 122021620.13749      4234.98049        50.000  
  25962629.20349 136434535.97749      1616.53549        48.000  
  22594990.00849 118737473.10549     -2683.86749        50.000  
  23146883.26649 121637691.76249     -9224.98449        50.000  
 16 04 02 14 20 50.4000000  0  4G04G30G26G07                                    
  23219861.73449 122021196.73449      4232.48849        50.000  
  25962598.45349 136434374.38349      1614.71149        48.000  
  22595041.10249 118737741.61349     -2686.84449        50.000  
  23147058.83649 121638614.43049     -9228.91849        50.000  
 16 04 02 14 20 50.5000000  0  4G04G30G26G07                                    
  23219781.23449 122020773.65249      4229.18449        50.000  
  25962567.75049 136434213.06649      1611.82449        48.000  
  22595092.25849 118738010.47749     -2690.44949        50.000  
  23147234.50049 121639537.55149     -9233.58649        50.000  
 16 04 02 14 20 50.6000000  0  4G04G30G26G07                                    
  23219700.79749 122020350.94549      4225.49649        50.000  
  25962537.10949 136434052.05549      1608.72749        48.000  
  22595143.50049 118738279.77049     -2694.66049        50.000  
  23147410.26649 121640461.18449     -9238.65249        50.000  
 16 04 02 14 20 50.7000000  0  4G04G30G26G07                                    
  23219620.39849 122019928.49649      4222.81249        50.000  
  25962506.52349 136433891.24649      1606.71149        48.000  
  22595194.79749 118738549.35549     -2697.76649        50.000  
  23147586.10249 121641385.18049     -9242.41849        50.000  
 16 04 02 14 20 50.8000000  0  4G04G30G26G07                                    
  23219540.06249 122019506.31649      4220.19149        50.000  
  25962475.96149 136433730.65249      1604.77749        48.000  
  22595246.15649 118738819.25449     -2700.68449        50.000  
  23147762.00849 121642309.59449     -9246.36749        50.000  
 16 04 02 14 20 50.9000000  0  4G04G30G26G07                                    
  23219459.78149 122019084.39549      4217.57849        50.000  
  25962445.43049 136433570.28949      1602.43849        48.000  
  22595297.57049 118739089.46949     -2703.86749        50.000  
  23147937.99249 121643234.41449     -9250.44149        50.000  
 16 04 02 14 20 51.0000000  0  4G04G30G26G07                                    
  23219379.55549 122018662.80949      4214.33649        50.000  
  25962414.96949 136433410.18449      1599.91449        48.000  
  22595349.06249 118739360.07049     -2707.59449        50.000  
  23148114.07049 121644159.68849     -9254.90649        50.000  
 16 04 02 14 20 51.1000000  0  4G04G30G26G07                                    
  23219299.37549 122018241.50049      4211.58649        50.000  
  25962384.55549 136433250.32849      1597.30149        48.000  
  22595400.62549 118739630.98849     -2710.99649        50.000  
  23148290.21949 121645085.37949     -9259.21549        50.000  
 16 04 02 14 20 51.2000000  0  4G04G30G26G07                                    
  23219219.26649 122017820.50849      4208.40649        50.000  
  25962354.18049 136433090.69949      1594.86749        48.000  
  22595452.25049 118739902.25449     -2714.41049        50.000  
  23148466.46149 121646011.50849     -9263.62949        50.000  
 16 04 02 14 20 51.3000000  0  4G04G30G26G07                                    
  23219139.21149 122017399.82049      4205.20349        50.000  
  25962323.85949 136432931.34449      1592.37949        48.000  
  22595503.93849 118740173.87949     -2718.02349        50.000  
  23148642.78149 121646938.07049     -9267.88349        50.000  
 16 04 02 14 20 51.4000000  0  4G04G30G26G07                                    
  23219059.20349 122016979.38349      4202.96149        50.000  
  25962293.57849 136432772.19149      1590.27049        48.000  
  22595555.68049 118740445.79749     -2720.84849        50.000  
  23148819.15649 121647865.02749     -9271.77349        50.000  
 16 04 02 14 20 51.5000000  0  4G04G30G26G07                                    
  23218979.24249 122016559.23849      4200.09449        50.000  
  25962263.32049 136432613.26649      1588.13749        48.000  
  22595607.50049 118740718.05949     -2724.25449        50.000  
  23148995.63349 121648792.40649     -9275.93049        50.000  
 16 04 02 14 20 51.6000000  0  4G04G30G26G07                                    
  23218899.35249 122016139.42249      4196.44949        50.000  
  25962233.13349 136432454.61749      1585.10949        48.000  
  22595659.37549 118740990.68849     -2728.07049        50.000  
  23149172.18049 121649720.24249     -9280.71549        50.000  
 16 04 02 14 20 51.7000000  0  4G04G30G26G07                                    
  23218819.51649 122015719.95349      4193.21949        50.000  
  25962203.01649 136432296.25449      1582.53149        48.000  
  22595711.32049 118741263.71149     -2731.81249        50.000  
  23149348.82849 121650648.55949     -9285.23849        50.000  
 16 04 02 14 20 51.8000000  0  4G04G30G26G07                                    
  23218739.74249 122015300.73049      4190.41449        50.000  
  25962172.92249 136432138.08649      1580.14149        48.000  
  22595763.33649 118741537.02049     -2735.12549        50.000  
  23149525.55549 121651577.24249     -9289.43849        50.000  
 16 04 02 14 20 51.9000000  0  4G04G30G26G07                                    
  23218660.02349 122014881.83649      4187.42649        50.000  
  25962142.87549 136431980.21949      1577.46949        48.000  
  22595815.41449 118741810.71549     -2738.60549        50.000  
  23149702.36749 121652506.40649     -9293.72349        50.000  
 16 04 02 14 20 52.0000000  0  4G04G30G26G07                                    
  23218580.37549 122014463.25449      4184.03549        50.000  
  25962112.87549 136431822.56249      1575.17649        48.000  
  22595867.56249 118742084.74649     -2742.18049        50.000  
  23149879.25849 121653435.99649     -9298.26249        50.000  
 16 04 02 14 20 52.1000000  0  4G04G30G26G07                                    
  23218500.76649 122014044.93849      4181.51249        50.000  
  25962082.93849 136431665.17649      1572.65249        48.000  
  22595919.77349 118742359.11749     -2745.42249        50.000  
  23150056.23449 121654366.00849     -9302.38749        50.000  
 16 04 02 14 20 52.2000000  0  4G04G30G26G07                                    
  23218421.22749 122013626.94149      4178.24649        50.000  
  25962053.03149 136431508.02049      1570.01649        48.000  
  22595972.05549 118742633.82849     -2749.00049        50.000  
  23150233.29749 121655296.44549     -9306.85249        50.000  
 16 04 02 14 20 52.3000000  0  4G04G30G26G07                                    
  23218341.75049 122013209.34049      4174.09449        50.000  
  25962023.18849 136431351.20749      1566.55549        48.000  
  22596024.41449 118742908.99249     -2753.56249        50.000  
  23150410.45349 121656227.42249     -9312.25449        50.000  
 16 04 02 14 20 52.4000000  0  4G04G30G26G07                                    
  23218262.32849 122012791.94549      4172.27049        50.000  
  25961993.38349 136431194.57049      1564.87549        48.000  
  22596076.82849 118743184.42249     -2756.18049        50.000  
  23150587.69549 121657158.75049     -9315.62549        50.000  
 16 04 02 14 20 52.5000000  0  4G04G30G26G07                                    
  23218182.95349 122012374.87149      4169.23849        50.000  
  25961963.62549 136431038.16849      1562.77749        48.000  
  22596129.30549 118743460.19149     -2759.38349        50.000  
  23150765.00049 121658090.50449     -9319.76249        50.000  
 16 04 02 14 20 52.6000000  0  4G04G30G26G07                                    
  23218103.63349 122011958.02349      4167.01649        50.000  
  25961933.89849 136430881.96549      1560.88749        48.000  
  22596181.83649 118743736.24249     -2762.19149        50.000  
  23150942.37549 121659022.64149     -9323.51649        50.000  
 16 04 02 14 20 52.7000000  0  4G04G30G26G07                                    
  23218024.37549 122011541.51249      4163.68449        50.000  
  25961904.22749 136430726.03949      1558.25049        48.000  
  22596234.43849 118744012.67649     -2765.87149        50.000  
  23151119.84449 121659955.23049     -9327.98849        50.000  
 16 04 02 14 20 52.8000000  0  4G04G30G26G07                                    
  23217945.17249 122011125.28949      4160.57049        50.000  
  25961874.60249 136430570.33649      1555.55149        48.000  
  22596287.10949 118744289.43849     -2769.46149        50.000  
  23151297.39149 121660888.24249     -9332.45349        50.000  
 16 04 02 14 20 52.9000000  0  4G04G30G26G07                                    
  23217866.03149 122010709.40249      4157.27749        50.000  
  25961845.02349 136430414.94549      1552.66449        48.000  
  22596339.85249 118744566.59049     -2773.38349        50.000  
  23151475.03149 121661821.73049     -9337.14549        50.000  
 16 04 02 14 20 53.0000000  0  4G04G30G26G07                                    
  23217786.95349 122010293.82049      4154.02349        50.000  
  25961815.50049 136430259.77349      1550.19549        48.000  
  22596392.65649 118744844.07849     -2776.75449        50.000  
  23151652.75049 121662755.64849     -9341.62949        50.000  
 16 04 02 14 20 53.1000000  0  4G04G30G26G07                                    
  23217707.92249 122009878.53949      4151.19949        50.000  
  25961786.02349 136430104.86749      1547.72349        48.000  
  22596445.52349 118745121.92649     -2780.25449        50.000  
  23151830.55549 121663690.00049     -9345.89149        50.000  
 16 04 02 14 20 53.2000000  0  4G04G30G26G07                                    
  23217628.95349 122009463.55949      4148.35949        50.000  
  25961756.58649 136429950.19549      1545.54349        48.000  
  22596498.46149 118745400.10949     -2783.52049        50.000  
  23152008.43849 121664624.78149     -9350.00849        50.000  
 16 04 02 14 20 53.3000000  0  4G04G30G26G07                                    
  23217550.03949 122009048.81649      4145.77349        49.000  
  25961727.18049 136429795.71549      1543.49249        48.000  
  22596551.46149 118745678.58249     -2786.44549        50.000  
  23152186.39849 121665559.93449     -9353.79349        50.000  
 16 04 02 14 20 53.4000000  0  4G04G30G26G07                                    
  23217471.15649 122008634.30149      4143.79349        49.000  
  25961697.82049 136429641.41849      1541.88349        48.000  
  22596604.50049 118745957.33249     -2789.06249        50.000  
  23152364.41449 121666495.45749     -9357.32049        49.000  
 16 04 02 14 20 53.5000000  0  4G04G30G26G07                                    
  23217392.34449 122008220.14549      4140.23449        49.000  
  25961668.50049 136429487.41049      1538.96549        48.000  
  22596657.61749 118746236.46549     -2792.87949        50.000  
  23152542.52349 121667431.44949     -9362.06649        50.000  
 16 04 02 14 20 53.6000000  0  4G04G30G26G07                                    
  23217313.59449 122007806.29349      4136.94949        50.000  
  25961639.24249 136429333.66049      1536.22749        48.000  
  22596710.80549 118746515.96549     -2796.76649        50.000  
  23152720.73449 121668367.88749     -9366.70349        50.000  
 16 04 02 14 20 53.7000000  0  4G04G30G26G07                                    
  23217234.88349 122007392.68849      4134.42649        50.000  
  25961610.01649 136429180.11349      1534.21149        48.000  
  22596764.04749 118746795.75849     -2799.69549        50.000  
  23152899.00849 121669304.71149     -9370.53149        50.000  
 16 04 02 14 20 53.8000000  0  4G04G30G26G07                                    
  23217156.23449 122006979.40249      4131.15249        50.000  
  25961580.85249 136429026.82849      1531.53949        48.000  
