     2.10           OBSERVATION DATA    G (GPS)             RINEX VERSION / TYPE
Convert v1.8.0                          07-Jun-2016 18:55   PGM / RUN BY / DATE 
Signal Strength values S1,S2 are in dBHz                    COMMENT             
                                                            MARKER NAME         
                                                            MARKER NUMBER       
                                                            OBSERVER / AGENCY   
                    NovAtel GPSCard                         REC # / TYPE / VERS 
                                                            ANT # / TYPE        
0.0000        0.0000        0.0000                          APPROX POSITION XYZ 
        0.0000        0.0000        0.0000                  ANTENNA: DELTA H/E/N
     1     1                                                WAVELENGTH FACT L1/2
     1     1     6   G02   G05   G06   G09   G25   G29      WAVELENGTH FACT L1/2
                                                            COMMENT             
                                                            COMMENT             
                                                            COMMENT             
                                                            COMMENT             
                                                            COMMENT             
                                                            COMMENT             
     8    C1    L1    D1    S1    P2    L2    D2    S2      # / TYPES OF OBSERV 
     0.100                                                  INTERVAL            
  2016    04    02    12    56     6.6000000    GPS         TIME OF FIRST OBS   
  2016    04    02    13    00    27.7000000    GPS         TIME OF LAST OBS    
Leap Seconds Unknown                                        COMMENT             
                                                            END OF HEADER       
 16 04 02 12 56  6.6000000  0  1G25                                             
  25738906.89149 135258868.11759      3860.69149        49.000  

 16 04 02 12 56  6.7000000  0  1G25                                             
  25738833.43849 135258482.12149      3859.10949        49.000  

 16 04 02 12 56  6.8000000  0  2G02G25                                          
  22380617.18049 117610936.39559      5413.50049        49.000  

  25738760.04749 135258096.31649      3857.07049        49.000  

 16 04 02 12 56  6.9000000  0  2G02G25                                          
  22380514.21149 117610395.32049      5407.82449        49.000  

  25738686.66449 135257710.71149      3854.89849        49.000  

 16 04 02 12 56  7.0000000  0  1G02                                             
  22380411.32849 117609854.75049      5403.16849        49.000  

 16 04 02 12 56  7.1000000  0  1G02                                             
  22380308.55549 117609314.70749      5397.79749        49.000  

 16 04 02 12 56  7.2000000  0  1G02                                             
  22380205.87549 117608775.18449      5392.77749        49.000  

 16 04 02 12 56  7.3000000  0  1G02                                             
  22380103.29749 117608236.12549      5387.84849        49.000  

 16 04 02 12 56  7.4000000  0  1G02                                             
  22380000.81249 117607697.62549      5382.28149        49.000  

 16 04 02 12 56  7.5000000  0  1G02                                             
  22379898.45349 117607159.70349      5376.75849        49.000  

 16 04 02 12 56  7.6000000  0  1G02                                             
  22379796.20349 117606622.23449      5371.95749        49.000  

 16 04 02 12 56  7.7000000  0  1G02                                             
  22379694.03949 117606085.35549      5366.11749        49.000  

 16 04 02 12 56  7.8000000  0  1G02                                             
  22379591.96949 117605549.01649      5360.93849        49.000  

 16 04 02 12 56  7.9000000  0  1G02                                             
  22379489.99249 117605013.15649      5355.93849        49.000  

 16 04 02 12 56  8.0000000  0  1G02                                             
  22379388.14149 117604477.82449      5350.66849        49.000  

 16 04 02 12 56  8.1000000  0  1G02                                             
  22379286.36749 117603943.02749      5345.20749        49.000  

 16 04 02 12 56  8.2000000  0  1G02                                             
  22379184.69549 117603408.78149      5339.87949        49.000  

 16 04 02 12 56  8.3000000  0  1G02                                             
  22379083.12549 117602875.02749      5334.76249        49.000  

 16 04 02 12 56  8.4000000  0  1G02                                             
  22378981.68049 117602341.85949      5329.18849        49.000  

 16 04 02 12 56  8.5000000  0  1G02                                             
  22378880.30549 117601809.13749      5324.59049        49.000  

 16 04 02 12 56  8.6000000  0  1G02                                             
  22378779.04749 117601276.96149      5319.14849        49.000  

 16 04 02 12 56  8.7000000  0  1G02                                             
  22378677.88349 117600745.31649      5313.85949        49.000  

 16 04 02 12 56  8.8000000  0  1G02                                             
  22378576.81249 117600214.16849      5308.89149        49.000  

 16 04 02 12 56  8.9000000  0  1G02                                             
  22378475.83649 117599683.56249      5303.29749        49.000  

 16 04 02 12 56  9.0000000  0  1G02                                             
  22378374.98449 117599153.54749      5297.35549        49.000  

 16 04 02 12 56  9.1000000  0  1G02                                             
  22378274.23449 117598624.08649      5291.87549        49.000  

 16 04 02 12 56  9.2000000  0  1G02                                             
  22378173.55549 117598095.09449      5287.15249        49.000  

 16 04 02 12 56  9.3000000  0  1G02                                             
  22378072.98449 117597566.61349      5282.21149        49.000  

 16 04 02 12 56  9.4000000  0  1G02                                             
  22377972.53149 117597038.67649      5276.79749        49.000  

 16 04 02 12 56  9.5000000  0  1G02                                             
  22377872.16449 117596511.24649      5271.65649        49.000  

 16 04 02 12 56  9.6000000  0  1G02                                             
  22377771.90649 117595984.32849      5266.60249        49.000  

 16 04 02 12 56  9.7000000  0  1G02                                             
  22377671.74249 117595457.93849      5261.16049        49.000  

 16 04 02 12 56  9.8000000  0  1G02                                             
  22377571.71149 117594932.17249      5255.05949        49.000  

 16 04 02 12 56  9.9000000  0  1G02                                             
  22377471.75049 117594406.87149      5250.04749        49.000  

 16 04 02 12 56 10.0000000  0  1G02                                             
  22377371.89149 117593882.10249      5245.18049        49.000  

 16 04 02 12 56 10.1000000  0  1G02                                             
  22377272.12549 117593357.85549      5239.69549        49.000  

 16 04 02 12 56 10.2000000  0  1G02                                             
  22377172.46949 117592834.12549      5234.80549        49.000  

 16 04 02 12 56 10.3000000  0  1G02                                             
  22377072.89149 117592310.83249      5230.30949        49.000  

 16 04 02 12 56 10.4000000  0  1G02                                             
  22376973.42249 117591788.12949      5224.44549        49.000  

 16 04 02 12 56 10.5000000  0  1G02                                             
  22376874.05549 117591265.98049      5218.73049        49.000  

 16 04 02 12 56 10.6000000  0  1G02                                             
  22376774.78949 117590744.29349      5214.16849        49.000  

 16 04 02 12 56 10.7000000  0  1G02                                             
  22376675.61749 117590223.14549      5208.98049        49.000  

 16 04 02 12 56 10.8000000  0  1G02                                             
  22376576.54749 117589702.55949      5203.05949        49.000  

 16 04 02 12 56 10.9000000  0  1G02                                             
  22376477.60249 117589182.60949      5196.77749        49.000  

 16 04 02 12 56 11.0000000  0  1G02                                             
  22376378.76649 117588663.19549      5191.26649        49.000  

 16 04 02 12 56 11.1000000  0  1G02                                             
  22376280.01649 117588144.24649      5186.63749        49.000  

 16 04 02 12 56 11.2000000  0  1G02                                             
  22376181.35249 117587625.79349      5182.16849        49.000  

 16 04 02 12 56 11.3000000  0  1G02                                             
  22376082.79749 117587107.85549      5176.92649        49.000  

 16 04 02 12 56 11.4000000  0  1G02                                             
  22375984.34449 117586590.45349      5171.50449        49.000  

 16 04 02 12 56 11.5000000  0  1G02                                             
  22375886.00049 117586073.64149      5165.25849        49.000  

 16 04 02 12 56 11.6000000  0  1G02                                             
  22375787.72749 117585557.27049      5160.97749        49.000  

 16 04 02 12 56 11.7000000  0  1G02                                             
  22375689.56249 117585041.40649      5156.06249        49.000  

 16 04 02 12 56 11.8000000  0  1G02                                             
  22375591.50849 117584526.10549      5150.42649        49.000  

 16 04 02 12 56 11.9000000  0  1G02                                             
  22375493.54749 117584011.31649      5145.23849        49.000  

 16 04 02 12 56 12.0000000  0  1G02                                             
  22375395.69549 117583497.06249      5139.84449        49.000  

 16 04 02 12 56 12.1000000  0  1G02                                             
  22375297.93049 117582983.32049      5134.66449        49.000  

 16 04 02 12 56 12.2000000  0  1G02                                             
  22375200.25849 117582470.10249      5129.70749        49.000  

 16 04 02 12 56 12.3000000  0  1G02                                             
  22375102.68849 117581957.36349      5124.52749        49.000  

 16 04 02 12 56 12.4000000  0  1G02                                             
  22375005.22749 117581445.18449      5119.43049        49.000  

 16 04 02 12 56 12.5000000  0  1G02                                             
  22374907.86749 117580933.57849      5113.20349        49.000  

 16 04 02 12 56 12.6000000  0  1G02                                             
  22374810.61749 117580422.48449      5108.06649        49.000  

 16 04 02 12 56 12.7000000  0  1G02                                             
  22374713.45349 117579911.88749      5103.45749        49.000  

 16 04 02 12 56 12.8000000  0  1G02                                             
  22374616.39149 117579401.80949      5098.26249        49.000  

 16 04 02 12 56 12.9000000  0  1G02                                             
  22374519.43049 117578892.25049      5092.94549        49.000  

 16 04 02 12 56 13.0000000  0  1G02                                             
  22374422.57049 117578383.25449      5087.30949        49.000    22374419.43041
  91619506.35251      3964.13741        22.000  
 16 04 02 12 56 13.1000000  0  1G02                                             
  22374325.81249 117577874.78549      5082.03949        49.000    22374322.68041
  91619110.15241      3960.03141        20.000  
 16 04 02 12 56 13.2000000  0  1G02                                             
  22374229.14149 117577366.80149      5077.02349        49.000    22374223.04741
  91618714.32841      3956.12541        20.000  
 16 04 02 12 56 13.3000000  0  1G02                                             
  22374132.58649 117576859.38349      5071.59449        49.000    22374126.49241
  91618318.94941      3951.89141        20.000  
 16 04 02 12 56 13.4000000  0  1G02                                             
  22374036.10949 117576352.40649      5067.05149        49.000    22374026.10941
  91617923.88341      3948.35241        20.000  
 16 04 02 12 56 13.5000000  0  1G02                                             
  22373939.73449 117575845.95749      5061.89849        49.000    22373929.72741
  91617529.22341      3944.33641        20.000  
 16 04 02 12 56 13.6000000  0  1G02                                             
  22373843.47749 117575340.06649      5056.15249        49.000    22373833.07841
  91617135.00041      3939.85941        20.000  
 16 04 02 12 56 13.7000000  0  1G02                                             
  22373747.31249 117574834.71949      5050.56649        49.000    22373736.90641
  91616741.19941      3935.50841        20.000  
 16 04 02 12 56 13.8000000  0  2G02G06                                          
  22373651.25049 117574329.88349      5045.82449        49.000    22373636.93041
  91616347.79341      3931.81241        20.000  
  25772598.67249 135435919.58259      6496.76649        49.000  

 16 04 02 12 56 13.9000000  0  2G02G06                                          
  22373555.28149 117573825.57449      5040.35549        49.000    22373540.96141
  91615954.82441      3927.55141        20.000  
  25772475.07049 135435270.06649      6493.68049        49.000  

 16 04 02 12 56 14.0000000  0  2G02G06                                          
  22373459.40649 117573321.78949      5035.10549        49.000    22373449.00041
  91615562.26241      3923.46141        20.000  
  25772351.50849 135434620.83249      6490.78549        49.000  

 16 04 02 12 56 14.1000000  0  2G02G06                                          
  22373363.64849 117572818.58649      5029.52049        49.000    22373353.24241
  91615170.15641      3919.10541        20.000  
  25772228.03149 135433971.95749      6487.43049        49.000  

 16 04 02 12 56 14.2000000  0  2G02G06                                          
  22373267.97749 117572315.83649      5024.80149        49.000    22373258.32041
  91614778.40241      3915.43041        21.000  
  25772104.58649 135433323.28149      6485.14149        49.000  

 16 04 02 12 56 14.3000000  0  2G02G06                                          
  22373172.41449 117571813.64149      5019.42249        49.000    22373162.75841
  91614387.07841      3911.23841        20.000  
  25771981.21149 135432674.94149      6482.02349        49.000  

 16 04 02 12 56 14.4000000  0  2G02G06                                          
  22373076.94549 117571311.89149      5014.81649        49.000    22373071.17241
  91613996.09441      3907.64841        20.000  
  25771857.86749 135432026.80549      6479.81649        49.000  

 16 04 02 12 56 14.5000000  0  2G02G06                                          
  22372981.58649 117570810.76649      5008.81649        49.000    22372975.80541
  91613605.59441      3902.97341        20.000  
  25771734.60949 135431379.06249      6476.15249        49.000  

 16 04 02 12 56 14.6000000  0  2G02G06                                          
  22372886.31249 117570310.12549      5003.66849        49.000    22372876.62541
  91613215.46941      3898.96141        20.000  
  25771611.41449 135430731.55149      6473.52749        49.000  

 16 04 02 12 56 14.7000000  0  2G02G06                                          
  22372791.14149 117569810.00049      4998.71149        49.000    22372781.45341
  91612825.74641      3895.09841        20.000  
  25771488.25049 135430084.34849      6470.66849        49.000  

 16 04 02 12 56 14.8000000  0  2G02G06                                          
  22372696.05549 117569310.40649      4993.27049        49.000    22372690.28941
  91612436.44141      3890.85941        20.000  
  25771365.14149 135429437.41849      6467.71149        49.000  

 16 04 02 12 56 14.9000000  0  2G02G06                                          
  22372601.09449 117568811.36749      4987.92249        49.000  

  25771242.09449 135428790.82449      6464.65649        49.000  

 16 04 02 12 56 15.0000000  0  2G02G06                                          
  22372506.23449 117568312.83249      4982.53149        49.000  

  25771119.10949 135428144.48449      6461.74249        49.000  

 16 04 02 12 56 15.1000000  0  2G02G06                                          
  22372411.46149 117567814.80149      4977.78149        49.000  

  25770996.16449 135427498.41849      6459.27749        49.000  

 16 04 02 12 56 15.2000000  0  2G02G06                                          
  22372316.78949 117567317.27749      4972.52049        49.000  

  25770873.29749 135426852.62549      6456.32049        49.000  

 16 04 02 12 56 15.3000000  0  2G02G06                                          
  22372222.23449 117566820.37549      4966.43449        49.000  

  25770750.47749 135426207.22349      6452.52049        49.000  

 16 04 02 12 56 15.4000000  0  2G02G06                                          
  22372127.75049 117566323.96949      4961.28149        49.000  

  25770627.72749 135425562.07449      6449.80949        49.000  

 16 04 02 12 56 15.5000000  0  2G02G06                                          
  22372033.39149 117565828.10949      4955.99249        49.000    22372035.24241
  91609744.07451      3861.81241        20.000  
  25770505.01649 135424917.23049      6446.97749        49.000  

 16 04 02 12 56 15.6000000  0  2G02G06                                          
  22371939.14149 117565332.78149      4950.41049        49.000    22371940.14141
  91609358.10541      3857.46541        20.000  
  25770382.37549 135424272.68449      6443.82849        49.000  

 16 04 02 12 56 15.7000000  0  2G02G06                                          
  22371844.98449 117564837.98849      4945.26249        49.000    22371845.98441
  91608972.54741      3853.44941        20.000  
  25770259.78149 135423628.45749      6440.94949        49.000  

 16 04 02 12 56 15.8000000  0  2G02G06                                          
  22371750.91449 117564343.70349      4940.23449        49.000    22371748.47741
  91608587.38741      3849.53541        20.000  
  25770137.22749 135422984.48449      6438.21949        49.000  

 16 04 02 12 56 15.9000000  0  2G02G06                                          
  22371656.95349 117563849.92249      4935.16849        49.000    22371654.51641
  91608202.62941      3845.58641        20.000  
  25770014.73449 135422340.78149      6435.47349        49.000  

 16 04 02 12 56 16.0000000  0  2G02G06                                          
  22371563.09449 117563356.69549      4929.42649        49.000    22371558.78941
  91607818.30541      3841.11341        20.000  
  25769892.31249 135421697.40649      6432.10549        49.000  

 16 04 02 12 56 16.1000000  0  2G02G06                                          
  22371469.33649 117562863.99649      4924.42249        49.000    22371465.03941
  91607434.39141      3837.21141        20.000  
  25769769.93849 135421054.31649      6429.45749        49.000  

 16 04 02 12 56 16.2000000  0  2G02G06                                          
  22371375.66449 117562371.79749      4919.25049        49.000    22371368.28941
  91607050.87141      3833.18041        20.000  
  25769647.60949 135420411.48849      6426.64849        49.000  

 16 04 02 12 56 16.3000000  0  2G02G06                                          
  22371282.10249 117561880.15649      4913.94549        49.000    22371274.73441
  91606667.78141      3829.04741        20.000  
  25769525.34449 135419768.98849      6423.68449        49.000  

 16 04 02 12 56 16.4000000  0  2G02G06                                          
  22371188.61749 117561388.97349      4909.19549        49.000  

  25769403.11749 135419126.70749      6421.32849        49.000  

 16 04 02 12 56 16.5000000  0  2G02G06                                          
  22371095.25049 117560898.30949      4904.06649        49.000  

  25769280.94549 135418484.71549      6418.57049        49.000  

 16 04 02 12 56 16.6000000  0  2G02G06                                          
  22371001.99249 117560408.22749      4898.10549        49.000  

  25769158.83649 135417843.06249      6414.96549        49.000  

 16 04 02 12 56 16.7000000  0  2G02G06                                          
  22370908.83649 117559918.67649      4892.55949        49.000  

  25769036.78949 135417201.71149      6411.69949        49.000  

 16 04 02 12 56 16.8000000  0  2G02G06                                          
  22370815.78149 117559429.66049      4887.51649        49.000  

  25768914.79749 135416560.66049      6409.11749        49.000  

 16 04 02 12 56 16.9000000  0  2G02G06                                          
  22370722.81249 117558941.11349      4882.98449        49.000  

  25768792.85249 135415919.83649      6406.85249        49.000  

 16 04 02 12 56 17.0000000  0  2G02G06                                          
  22370629.95349 117558453.09049      4877.54749        49.000  

  25768670.96149 135415279.30549      6403.87549        49.000  

 16 04 02 12 56 17.1000000  0  2G02G06                                          
  22370537.18049 117557965.56249      4872.60949        49.000  

  25768549.11749 135414639.03549      6401.24249        49.000  

 16 04 02 12 56 17.2000000  0  2G02G06                                          
  22370444.51649 117557478.64149      4866.57049        49.000  

  25768427.35949 135413999.13349      6397.51249        49.000  

 16 04 02 12 56 17.3000000  0  2G02G06                                          
  22370351.96149 117556992.26649      4860.92649        49.000  

  25768305.64849 135413359.53949      6394.36749        49.000  

 16 04 02 12 56 17.4000000  0  2G02G06                                          
  22370259.50049 117556506.35949      4856.28549        49.000  

  25768183.96949 135412720.17649      6391.88749        49.000  

 16 04 02 12 56 17.5000000  0  2G02G06                                          
  22370167.14849 117556021.02749      4850.67649        49.000  

  25768062.36749 135412081.16449      6388.68049        49.000  

 16 04 02 12 56 17.6000000  0  2G02G06                                          
  22370074.88349 117555536.23049      4845.32849        49.000  

  25767940.82049 135411442.43849      6385.73449        49.000  

 16 04 02 12 56 17.7000000  0  2G02G06                                          
  22369982.71149 117555051.87549      4841.05949        49.000  

  25767819.31249 135410803.92649      6383.82049        49.000  

 16 04 02 12 56 17.8000000  0  2G02G06                                          
  22369890.62549 117554568.03149      4835.69949        49.000  

  25767697.85949 135410165.68449      6380.79749        49.000  

 16 04 02 12 56 17.9000000  0  2G02G06                                          
  22369798.66449 117554084.76649      4829.80149        49.000  

  25767576.47749 135409527.78549      6377.36749        49.000  

 16 04 02 12 56 18.0000000  0  2G02G06                                          
  22369706.79749 117553602.00849      4824.85949        49.000  

  25767455.13349 135408890.16449      6374.61749        49.000  

 16 04 02 12 56 18.1000000  0  2G02G06                                          
  22369615.03149 117553119.75049      4819.87949        49.000  

  25767333.84449 135408252.80549      6371.96949        49.000  

 16 04 02 12 56 18.2000000  0  1G06                                             
  25767212.66449 135407615.83649      6368.17649        49.000  

 16 04 02 12 56 18.3000000  0  1G06                                             
  25767091.50049 135406979.11349      6365.51249        49.000  

 16 04 02 12 56 18.4000000  0  1G06                                             
  25766970.39849 135406342.69549      6362.52749        49.000  

 16 04 02 12 56 18.5000000  0  1G06                                             
  25766849.33649 135405706.52049      6360.26649        49.000  

 16 04 02 12 56 18.6000000  0  1G06                                             
  25766728.31249 135405070.60949      6357.76249        49.000  

 16 04 02 12 56 18.7000000  0  1G06                                             
  25766607.35949 135404434.99649      6354.59049        49.000  

 16 04 02 12 56 18.8000000  0  1G06                                             
  25766486.48449 135403799.75049      6350.86749        49.000  

 16 04 02 12 56 18.9000000  0  1G06                                             
  25766365.64149 135403164.73449      6348.70349        49.000  

 16 04 02 12 56 19.0000000  0  1G06                                             
  25766244.83649 135402529.98049      6346.02049        49.000    25766250.39141
 105508486.90651      4944.94941        20.000  
 16 04 02 12 56 19.1000000  0  1G06                                             
  25766124.10949 135401895.53949      6342.96149        49.000    25766129.65641
 105507992.53141      4942.56641        20.000  
 16 04 02 12 56 19.2000000  0  1G06                                             
  25766003.43049 135401261.43849      6339.63349        49.000    25766007.87541
 105507498.42241      4939.97341        21.000  
 16 04 02 12 56 19.3000000  0  1G06                                             
  25765882.80549 135400627.56249      6337.24249        49.000    25765887.25841
 105507004.48841      4938.10941        20.000  
 16 04 02 12 56 19.4000000  0  1G06                                             
  25765762.25049 135399993.98849      6334.16449        49.000    25765770.59441
 105506510.80541      4935.71141        20.000  
 16 04 02 12 56 19.5000000  0  1G06                                             
  25765641.74249 135399360.73849      6330.87149        49.000    25765650.09441
 105506017.38341      4933.14541        20.000  
 16 04 02 12 56 19.6000000  0  1G06                                             
  25765521.26649 135398727.72749      6328.58649        49.000    25765527.93841
 105505524.14141      4931.36741        20.000  
 16 04 02 12 56 19.7000000  0  1G06                                             
  25765400.86749 135398095.02349      6325.40249        49.000    25765407.53941
 105505031.14141      4928.88341        20.000  
 16 04 02 12 56 19.8000000  0  1G06                                             
  25765280.53949 135397462.68849      6322.07049        49.000    25765285.18841
 105504538.42641      4926.28941        20.000  
 16 04 02 12 56 19.9000000  0  1G06                                             
  25765160.25049 135396830.53549      6320.03549        49.000    25765164.89141
 105504045.84841      4924.70341        20.000  
 16 04 02 12 56 20.0000000  0  1G06                                             
  25765040.00849 135396198.75049      6316.39549        49.000    25765047.49241
 105503553.55141      4921.86341        20.000  
 16 04 02 12 56 20.1000000  0  1G06                                             
  25764919.82849 135395567.21949      6313.69549        49.000    25764927.31241
 105503061.45341      4919.76241        20.000  
 16 04 02 12 56 20.2000000  0  1G06                                             
  25764799.69549 135394935.95749      6311.03149        49.000    25764803.28941
 105502569.56641      4917.68841        20.000  
 16 04 02 12 56 20.3000000  0  1G06                                             
  25764679.62549 135394305.00049      6308.29349        49.000    25764683.21941
 105502077.91441      4915.55541        20.000  
 16 04 02 12 56 20.4000000  0  1G06                                             
  25764559.59449 135393674.26649      6306.03949        49.000    25764560.46941
 105501586.44141      4913.79741        20.000  
 16 04 02 12 56 20.5000000  0  1G06                                             
  25764439.64149 135393043.91849      6302.00449        49.000    25764440.52341
 105501095.27741      4910.65241        20.000  
 16 04 02 12 56 20.6000000  0  1G06                                             
  25764319.75849 135392413.86349      6298.88749        49.000    25764320.90641
 105500604.33641      4908.22341        20.000  
 16 04 02 12 56 20.7000000  0  1G06                                             
  25764199.91449 135391784.07049      6296.34849        49.000    25764201.07041
 105500113.60241      4906.24641        20.000  
 16 04 02 12 56 20.8000000  0  1G06                                             
  25764080.12549 135391154.58249      6293.39149        49.000    25764079.80541
 105499623.10941      4903.94141        20.000  
 16 04 02 12 56 20.9000000  0  1G06                                             
  25763960.38349 135390525.34449      6290.83249        49.000    25763960.06241
 105499132.78541      4901.94941        20.000  
 16 04 02 12 56 21.0000000  0  1G06                                             
  25763840.68049 135389896.41449      6287.91849        49.000    25763836.47741
 105498642.69141      4899.67641        20.000  
 16 04 02 12 56 21.1000000  0  1G06                                             
  25763721.05549 135389267.75849      6285.18449        49.000    25763716.83641
 105498152.81241      4897.54341        20.000  
 16 04 02 12 56 21.2000000  0  1G06                                             
  25763601.46949 135388639.41449      6281.78549        49.000    25763601.16441
 105497663.17641      4894.89541        20.000  
 16 04 02 12 56 21.3000000  0  1G06                                             
  25763481.96949 135388011.41449      6278.52749        49.000    25763481.65641
 105497173.80941      4892.35941        20.000  
 16 04 02 12 56 21.4000000  0  1G06                                             
  25763362.52349 135387383.61749      6276.43449        49.000  

 16 04 02 12 56 21.5000000  0  1G06                                             
  25763243.10949 135386756.10949      6273.62949        49.000  

 16 04 02 12 56 21.6000000  0  1G06                                             
  25763123.76649 135386128.93849      6270.28149        49.000  

 16 04 02 12 56 21.7000000  0  1G06                                             
  25763004.48449 135385502.08649      6266.91849        49.000  

 16 04 02 12 56 21.8000000  0  1G06                                             
  25762885.21149 135384875.46549      6264.86349        49.000  

 16 04 02 12 56 21.9000000  0  1G06                                             
  25762766.02349 135384249.13349      6261.97349        49.000  

 16 04 02 12 56 22.0000000  0  1G06                                             
  25762646.89849 135383623.05149      6259.48449        49.000    25762644.53141
 105493721.44151      4877.52041        20.000  
 16 04 02 12 56 22.1000000  0  1G06                                             
  25762527.81249 135382997.26249      6256.37149        49.000    25762525.44541
 105493233.81241      4875.09441        20.000  
 16 04 02 12 56 22.2000000  0  1G06                                             
  25762408.78949 135382371.83649      6252.75849        49.000    25762407.36741
 105492746.47341      4872.27741        20.000  
 16 04 02 12 56 22.3000000  0  1G06                                             
  25762289.82849 135381746.69949      6249.74249        49.000    25762288.40641
 105492259.35541      4869.93041        20.000  
 16 04 02 12 56 22.4000000  0  1G06                                             
  25762170.89849 135381121.81249      6247.35549        49.000  

 16 04 02 12 56 22.5000000  0  1G06                                             
  25762052.03949 135380497.20349      6244.49649        49.000  

 16 04 02 12 56 22.6000000  0  1G06                                             
  25761933.22749 135379872.93049      6241.17649        49.000  

 16 04 02 12 56 22.7000000  0  1G06                                             
  25761814.47749 135379248.91049      6238.79749        49.000  

 16 04 02 12 56 22.8000000  0  1G06                                             
  25761695.78949 135378625.15649      6236.03149        49.000  

 16 04 02 12 56 22.9000000  0  1G06                                             
  25761577.15649 135378001.71549      6232.94149        49.000  

 16 04 02 12 56 23.0000000  0  1G06                                             
  25761458.57849 135377378.57849      6229.73849        49.000  

 16 04 02 12 56 23.1000000  0  1G06                                             
  25761340.04749 135376755.69149      6227.28149        49.000  

 16 04 02 12 56 23.2000000  0  1G06                                             
  25761221.58649 135376133.10249      6224.58249        49.000  

 16 04 02 12 56 23.3000000  0  1G06                                             
  25761103.16449 135375510.77349      6221.79749        49.000  

 16 04 02 12 56 23.4000000  0  1G06                                             
  25760984.81249 135374888.74249      6218.86749        49.000  

 16 04 02 12 56 23.5000000  0  1G06                                             
  25760866.49249 135374266.98049      6216.23049        49.000    25760864.20341
 105486431.07451      4843.81641        20.000  
 16 04 02 12 56 23.6000000  0  1G06                                             
  25760748.22749 135373645.47349      6213.62149        49.000  

 16 04 02 12 56 23.7000000  0  1G06                                             
  25760630.02349 135373024.29749      6210.37149        49.000  

 16 04 02 12 56 23.8000000  0  1G06                                             
  25760511.85249 135372403.34849      6207.86749        49.000  

 16 04 02 12 56 23.9000000  0  1G06                                             
  25760393.75849 135371782.75449      6204.42249        49.000  

 16 04 02 12 56 24.0000000  0  1G06                                             
  25760275.71149 135371162.40649      6202.21149        49.000  

 16 04 02 12 56 24.1000000  0  1G06                                             
  25760157.71149 135370542.30949      6199.25049        49.000  

 16 04 02 12 56 24.2000000  0  1G06                                             
  25760039.78149 135369922.57449      6195.84049        49.000  

 16 04 02 12 56 24.3000000  0  1G06                                             
  25759921.90649 135369303.11349      6193.10949        49.000  

 16 04 02 12 56 24.4000000  0  1G06                                             
  25759804.07849 135368683.97349      6189.73049        49.000  

 16 04 02 12 56 24.5000000  0  1G06                                             
  25759686.32049 135368065.13349      6186.87949        49.000  

 16 04 02 12 56 24.6000000  0  1G06                                             
  25759568.59449 135367446.54349      6184.48049        49.000  

 16 04 02 12 56 24.7000000  0  1G06                                             
  25759450.93049 135366828.21549      6181.77049        49.000  

 16 04 02 12 56 24.8000000  0  1G06                                             
  25759333.33649 135366210.20749      6178.61749        49.000  

 16 04 02 12 56 24.9000000  0  1G06                                             
  25759215.78949 135365592.51249      6175.46949        49.000  

 16 04 02 12 56 25.0000000  0  1G06                                             
  25759098.30549 135364975.08649      6172.64149        49.000    25759094.48441
 105479184.78151      4809.85241        20.000  
 16 04 02 12 56 25.1000000  0  1G06                                             
  25758980.86749 135364357.92249      6170.00449        49.000    25758977.03941
 105478703.86341      4807.79741        20.000  
 16 04 02 12 56 25.2000000  0  1G06                                             
  25758863.45349 135363741.03949      6167.48849        49.000    25758855.74241
 105478223.16441      4805.83641        20.000  
 16 04 02 12 56 25.3000000  0  1G06                                             
  25758746.11749 135363124.45349      6164.27349        49.000    25758738.40641
 105477742.69541      4803.32841        20.000  
 16 04 02 12 56 25.4000000  0  1G06                                             
  25758628.85249 135362508.19949      6160.99649        49.000    25758625.03941
 105477262.48041      4800.77741        20.000  
 16 04 02 12 56 25.5000000  0  1G06                                             
  25758511.64149 135361892.27049      6157.80549        49.000    25758507.82841
 105476782.51641      4798.28941        20.000  
 16 04 02 12 56 25.6000000  0  1G06                                             
  25758394.47749 135361276.54749      6155.60249        49.000    25758394.56241
 105476302.71141      4796.57041        20.000  
 16 04 02 12 56 25.7000000  0  1G06                                             
  25758277.36749 135360661.12949      6152.79349        49.000    25758277.44541
 105475823.14841      4794.38741        20.000  
 16 04 02 12 56 25.8000000  0  1G06                                             
  25758160.32849 135360045.97349      6150.15249        49.000    25758163.57841
 105475343.78541      4792.32441        20.000  
 16 04 02 12 56 25.9000000  0  1G06                                             
  25758043.32049 135359431.07449      6147.67649        49.000  

 16 04 02 12 56 26.0000000  0  1G06                                             
  25757926.39149 135358816.50049      6144.29749        49.000  

 16 04 02 12 56 26.1000000  0  1G06                                             
  25757809.50049 135358202.21949      6141.25849        49.000  

 16 04 02 12 56 26.2000000  0  1G06                                             
  25757692.65649 135357588.18449      6139.05149        49.000  

 16 04 02 12 56 26.3000000  0  1G06                                             
  25757575.86749 135356974.44549      6135.82849        49.000  

 16 04 02 12 56 26.4000000  0  1G06                                             
  25757459.12549 135356361.02749      6132.59049        49.000  

 16 04 02 12 56 26.5000000  0  1G06                                             
  25757342.46149 135355747.96149      6129.05949        49.000  

 16 04 02 12 56 26.6000000  0  1G06                                             
  25757225.85949 135355135.10949      6126.93049        49.000  

 16 04 02 12 56 26.7000000  0  1G06                                             
  25757109.28949 135354522.55149      6124.21549        49.000  

 16 04 02 12 56 26.8000000  0  1G06                                             
  25756992.78149 135353910.26649      6121.45749        49.000  

 16 04 02 12 56 26.9000000  0  1G06                                             
  25756876.32849 135353298.27349      6118.38749        49.000  

 16 04 02 12 56 27.0000000  0  1G06                                             
  25756759.93049 135352686.60949      6114.92249        49.000  

 16 04 02 12 56 27.1000000  0  1G06                                             
  25756643.59449 135352075.26249      6112.03149        49.000  

 16 04 02 12 56 27.2000000  0  1G06                                             
  25756527.28149 135351464.14849      6109.44549        49.000  

 16 04 02 12 56 27.3000000  0  1G06                                             
  25756411.04749 135350853.36349      6106.46949        49.000  

 16 04 02 12 56 27.4000000  0  1G06                                             
  25756294.85249 135350242.79749      6104.23449        49.000  

 16 04 02 12 56 27.5000000  0  1G06                                             
  25756178.72749 135349632.53549      6101.19149        49.000  

 16 04 02 12 56 27.6000000  0  1G06                                             
  25756062.64849 135349022.55149      6098.19549        49.000  

 16 04 02 12 56 27.7000000  0  1G06                                             
  25755946.63349 135348412.86749      6095.48849        49.000  

 16 04 02 12 56 27.8000000  0  1G06                                             
  25755830.65649 135347803.42249      6093.09849        49.000  

 16 04 02 12 56 27.9000000  0  1G06                                             
  25755714.72749 135347194.23049      6090.32049        49.000  

 16 04 02 12 56 28.0000000  0  1G06                                             
  25755598.86749 135346585.41049      6086.82449        49.000  

 16 04 02 12 56 28.1000000  0  1G06                                             
  25755483.05549 135345976.78149      6084.85949        49.000  

 16 04 02 12 56 28.2000000  0  1G06                                             
  25755367.28949 135345368.46949      6081.82849        49.000  

 16 04 02 12 56 28.3000000  0  1G06                                             
  25755251.59449 135344760.45349      6078.47749        49.000    25755251.42241
 105463447.62951      4736.47741        20.000  
 16 04 02 12 56 28.4000000  0  1G06                                             
  25755135.96149 135344152.77749      6075.30149        49.000    25755135.78141
 105462974.09841      4734.00441        20.000  
 16 04 02 12 56 28.5000000  0  1G06                                             
  25755020.36749 135343545.33249      6072.96149        49.000    25755016.28141
 105462500.74641      4732.17641        20.000  
 16 04 02 12 56 28.6000000  0  1G06                                             
  25754904.84449 135342938.19549      6069.73449        49.000    25754900.74241
 105462027.64141      4729.66441        20.000  
 16 04 02 12 56 28.7000000  0  1G06                                             
  25754789.37549 135342331.41449      6066.20349        49.000  

 16 04 02 12 56 28.8000000  0  1G06                                             
  25754673.94549 135341724.91449      6063.53149        49.000  

 16 04 02 12 56 28.9000000  0  1G06                                             
  25754558.57849 135341118.67649      6060.95749        49.000  

 16 04 02 12 56 29.0000000  0  1G06                                             
  25754443.26649 135340512.69949      6058.36349        49.000  

 16 04 02 12 56 29.1000000  0  1G06                                             
  25754328.00849 135339907.02749      6055.24649        49.000  

 16 04 02 12 56 29.2000000  0  1G06                                             
  25754212.81249 135339301.62949      6052.57849        49.000  

 16 04 02 12 56 29.3000000  0  1G06                                             
  25754097.64849 135338696.45749      6050.44549        49.000  

 16 04 02 12 56 29.4000000  0  1G06                                             
  25753982.55549 135338091.58249      6047.27049        49.000  

 16 04 02 12 56 29.5000000  0  1G06                                             
  25753867.52349 135337487.07449      6043.49649        49.000  

 16 04 02 12 56 29.6000000  0  1G06                                             
  25753752.52349 135336882.77349      6041.39149        49.000  

 16 04 02 12 56 29.7000000  0  1G06                                             
  25753637.58649 135336278.81249      6038.12149        49.000  

 16 04 02 12 56 29.8000000  0  1G06                                             
  25753522.71949 135335675.11749      6035.57849        49.000  

 16 04 02 12 56 29.9000000  0  1G06                                             
  25753407.89849 135335071.74249      6032.07849        49.000  

 16 04 02 12 56 30.0000000  0  1G06                                             
  25753293.14149 135334468.57849      6030.17249        49.000  

 16 04 02 12 56 30.1000000  0  1G06                                             
  25753178.40649 135333865.67649      6027.59849        49.000  

 16 04 02 12 56 30.2000000  0  1G06                                             
  25753063.73449 135333263.08249      6024.43049        49.000  

 16 04 02 12 56 30.3000000  0  1G06                                             
  25752949.12549 135332660.81649      6021.23049        49.000  

 16 04 02 12 56 30.4000000  0  1G06                                             
  25752834.55549 135332058.76249      6019.09049        49.000  

 16 04 02 12 56 30.5000000  0  1G06                                             
  25752720.05549 135331457.02349      6015.94549        49.000  

 16 04 02 12 56 30.6000000  0  1G06                                             
  25752605.61749 135330855.64849      6012.05149        49.000  

 16 04 02 12 56 30.7000000  0  1G06                                             
  25752491.22749 135330254.52049      6009.66449        49.000  

 16 04 02 12 56 30.8000000  0  1G06                                             
  25752376.90649 135329653.69949      6006.62949        49.000  

 16 04 02 12 56 30.9000000  0  1G06                                             
  25752262.62549 135329053.14549      6004.32049        49.000  

 16 04 02 12 56 31.0000000  0  1G06                                             
  25752148.40649 135328452.87149      6001.37549        49.000  

 16 04 02 12 56 31.1000000  0  1G06                                             
  25752034.22749 135327852.85949      5998.90249        49.000  

 16 04 02 12 56 31.2000000  0  1G06                                             
  25751920.09449 135327253.10949      5996.09049        49.000  

 16 04 02 12 56 31.3000000  0  1G06                                             
  25751806.02349 135326653.67649      5992.77049        49.000  

 16 04 02 12 56 31.4000000  0  1G06                                             
  25751692.00849 135326054.52049      5989.95349        49.000  

 16 04 02 12 56 31.5000000  0  1G06                                             
  25751578.03949 135325455.60949      5987.74249        49.000  

 16 04 02 12 56 31.6000000  0  1G06                                             
  25751464.12549 135324856.98049      5984.98849        49.000  

 16 04 02 12 56 31.7000000  0  1G06                                             
  25751350.26649 135324258.64149      5981.88749        49.000  

 16 04 02 12 56 31.8000000  0  1G06                                             
  25751236.46949 135323660.62949      5978.52349        49.000  

 16 04 02 12 56 31.9000000  0  1G06                                             
  25751122.72749 135323062.91449      5975.66449        49.000  

 16 04 02 12 56 32.0000000  0  1G06                                             
  25751009.03949 135322465.42249      5973.35249        49.000  

 16 04 02 12 56 32.1000000  0  1G06                                             
  25750895.37549 135321868.13749      5971.49649        49.000    25750899.34441
 105445626.78951      4653.11341        20.000  
 16 04 02 12 56 32.2000000  0  1G06                                             
  25750781.76649 135321271.18849      5968.16449        49.000    25750785.75041
 105445161.64141      4650.52041        20.000  
 16 04 02 12 56 32.3000000  0  1G06                                             
  25750668.23449 135320674.55549      5964.68049        49.000    25750668.31241
 105444696.73841      4647.80141        20.000  
 16 04 02 12 56 32.4000000  0  1G06                                             
  25750554.75849 135320078.21149      5961.70349        49.000    25750554.83641
 105444232.06241      4645.48441        20.000  
 16 04 02 12 56 32.5000000  0  1G06                                             
  25750441.33649 135319482.16049      5959.12949        49.000  

 16 04 02 12 56 32.6000000  0  1G06                                             
  25750327.96149 135318886.37149      5956.57049        49.000  

 16 04 02 12 56 32.7000000  0  1G06                                             
  25750214.62549 135318290.81249      5954.22749        49.000  

 16 04 02 12 56 32.8000000  0  1G06                                             
  25750101.35249 135317695.55549      5951.11349        49.000  

 16 04 02 12 56 32.9000000  0  1G06                                             
  25749988.14149 135317100.61349      5947.90649        49.000  

 16 04 02 12 56 33.0000000  0  1G06                                             
  25749875.00849 135316506.02749      5944.14849        49.000  

 16 04 02 12 56 33.1000000  0  1G06                                             
  25749761.89849 135315911.66449      5942.10949        49.000  

 16 04 02 12 56 33.2000000  0  1G06                                             
  25749648.83649 135315317.55549      5939.67649        49.000  

 16 04 02 12 56 33.3000000  0  1G06                                             
  25749535.84449 135314723.78549      5936.38349        49.000  

 16 04 02 12 56 33.4000000  0  1G06                                             
  25749422.88349 135314130.26249      5933.62549        49.000  

 16 04 02 12 56 33.5000000  0  1G06                                             
  25749309.99249 135313537.01649      5931.18049        49.000  

 16 04 02 12 56 33.6000000  0  1G06                                             
  25749197.14849 135312944.00449      5928.77349        49.000  

 16 04 02 12 56 33.7000000  0  1G06                                             
  25749084.35249 135312351.23849      5926.35949        49.000  

 16 04 02 12 56 33.8000000  0  1G06                                             
  25748971.61749 135311758.81249      5922.66049        49.000  

 16 04 02 12 56 33.9000000  0  1G06                                             
  25748858.94549 135311166.72349      5919.19949        49.000  

 16 04 02 12 56 34.0000000  0  1G06                                             
  25748746.32049 135310574.91449      5916.60249        49.000  

 16 04 02 12 56 34.1000000  0  1G06                                             
  25748633.75849 135309983.40649      5913.50049        49.000  

 16 04 02 12 56 34.2000000  0  1G06                                             
  25748521.25849 135309392.16849      5910.77049        49.000  

 16 04 02 12 56 34.3000000  0  1G06                                             
  25748408.80549 135308801.25449      5907.57049        49.000  

 16 04 02 12 56 34.4000000  0  1G06                                             
  25748296.41449 135308210.60249      5905.05549        49.000  

 16 04 02 12 56 34.5000000  0  1G06                                             
  25748184.07049 135307620.24649      5902.17649        49.000  

 16 04 02 12 56 34.6000000  0  1G06                                             
  25748071.77349 135307030.07049      5900.21549        49.000  

 16 04 02 12 56 34.7000000  0  1G06                                             
  25747959.53149 135306440.26249      5896.73049        49.000  

 16 04 02 12 56 34.8000000  0  1G06                                             
  25747847.34449 135305850.70749      5894.11349        49.000  

 16 04 02 12 56 34.9000000  0  1G06                                             
  25747735.21149 135305261.45349      5891.03949        49.000  

 16 04 02 12 56 35.0000000  0  1G06                                             
  25747623.14849 135304672.51649      5887.78149        49.000  

 16 04 02 12 56 35.1000000  0  1G06                                             
  25747511.11749 135304083.80549      5885.59449        49.000  

 16 04 02 12 56 35.2000000  0  1G06                                             
  25747399.15649 135303495.39849      5882.82049        49.000  

 16 04 02 12 56 35.3000000  0  1G06                                             
  25747287.23449 135302907.24649      5880.05949        49.000  

 16 04 02 12 56 35.4000000  0  1G06                                             
  25747175.36749 135302319.41049      5876.93049        49.000  

 16 04 02 12 56 35.5000000  0  1G06                                             
  25747063.54749 135301731.78949      5874.82049        49.000  

 16 04 02 12 56 35.6000000  0  1G06                                             
  25746951.78149 135301144.44949      5871.80949        49.000    25746936.20341
 105429398.65251      4575.43441        20.000  
 16 04 02 12 56 35.7000000  0  1G06                                             
  25746840.08649 135300557.48049      5868.03149        49.000    25746827.29741
 105428941.27341      4572.49241        20.000  
 16 04 02 12 56 35.8000000  0  1G06                                             
  25746728.45349 135299970.80949      5865.00049        49.000    25746715.65641
 105428484.12541      4570.12941        20.000  
 16 04 02 12 56 35.9000000  0  1G06                                             
  25746616.85949 135299384.36749      5863.05549        49.000    25746601.39841
 105428027.15641      4568.61341        20.000  
 16 04 02 12 56 36.0000000  0  1G06                                             
  25746505.31249 135298798.18849      5860.49249        49.000    25746489.85241
 105427570.39841      4566.61741        20.000  
 16 04 02 12 56 36.1000000  0  1G06                                             
  25746393.81249 135298212.25449      5857.84449        49.000    25746378.17241
 105427113.83241      4564.55541        20.000  
 16 04 02 12 56 36.2000000  0  1G06                                             
  25746282.37549 135297626.65249      5854.62549        49.000    25746266.73441
 105426657.52741      4562.04741        20.000  
 16 04 02 12 56 36.3000000  0  1G06                                             
  25746170.98449 135297041.30149      5852.04749        49.000    25746155.22741
 105426201.41841      4560.03541        20.000  
 16 04 02 12 56 36.4000000  0  1G06                                             
  25746059.64849 135296456.23849      5849.17649        49.000    25746043.89141
 105425745.53141      4557.79741        22.000  
 16 04 02 12 56 36.5000000  0  1G06                                             
  25745948.36749 135295871.45349      5846.39849        49.000  

 16 04 02 12 57 37.9000000  0  1G05                                             
  22949360.23449 120599701.74259     14637.02749        49.000  

 16 04 02 12 57 38.0000000  0  1G05                                             
  22949081.75849 120598238.36749     14630.62149        49.000  

 16 04 02 12 57 38.1000000  0  1G05                                             
  22948803.39149 120596775.58249     14624.67649        49.000  

 16 04 02 12 57 38.2000000  0  1G05                                             
  22948525.14149 120595313.36749     14619.06649        49.000  

 16 04 02 12 57 38.3000000  0  1G05                                             
  22948246.99249 120593851.75049     14612.97749        49.000  

 16 04 02 12 57 38.4000000  0  1G05                                             
  22947968.96949 120592390.74649     14607.12149        49.000  

 16 04 02 12 57 38.5000000  0  1G05                                             
  22947691.02349 120590930.23849     14602.05149        49.000  

 16 04 02 12 57 38.6000000  0  1G05                                             
  22947413.22749 120589470.41849     14595.15249        49.000  

 16 04 02 12 57 38.7000000  0  1G05                                             
  22947135.53949 120588011.18449     14589.04749        49.000  

 16 04 02 12 57 38.8000000  0  1G05                                             
  22946857.96949 120586552.53549     14583.46949        49.000  

 16 04 02 12 57 38.9000000  0  1G05                                             
  22946580.54749 120585094.46949     14577.53949        49.000  

 16 04 02 12 57 39.0000000  0  1G05                                             
  22946303.21149 120583637.03149     14571.29349        49.000  

 16 04 02 12 57 39.1000000  0  1G05                                             
  22946025.96149 120582180.16849     14565.38749        49.000  

 16 04 02 12 57 39.2000000  0  1G05                                             
  22945748.84449 120580723.92649     14559.29749        49.000  

 16 04 02 12 57 39.3000000  0  1G05                                             
  22945471.84449 120579268.26249     14553.44149        49.000  

 16 04 02 12 57 39.4000000  0  1G05                                             
  22945194.95349 120577813.18849     14547.90249        49.000  

 16 04 02 12 57 39.5000000  0  1G05                                             
  22944918.18049 120576358.70749     14541.70749        49.000  

 16 04 02 12 57 39.6000000  0  1G05                                             
  22944641.52349 120574904.87949     14535.10249        49.000  

 16 04 02 12 57 39.7000000  0  1G05                                             
  22944364.99249 120573451.65649     14529.00049        49.000  

 16 04 02 12 57 39.8000000  0  1G05                                             
  22944088.57049 120571999.05549     14522.77749        49.000  

 16 04 02 12 57 39.9000000  0  1G05                                             
  22943812.23449 120570547.03949     14517.34049        49.000  

 16 04 02 12 57 40.0000000  0  1G05                                             
  22943536.02349 120569095.55149     14511.72749        49.000  

 16 04 02 12 57 40.1000000  0  1G05                                             
  22943259.93049 120567644.64849     14505.98449        49.000  

 16 04 02 12 57 40.2000000  0  1G05                                             
  22942983.94549 120566194.35549     14499.67249        49.000  

 16 04 02 12 57 40.3000000  0  1G05                                             
  22942708.10949 120564744.68849     14493.73449        49.000  

 16 04 02 12 57 40.4000000  0  1G05                                             
  22942432.35949 120563295.60549     14487.55149        49.000  

 16 04 02 12 57 40.5000000  0  1G05                                             
  22942156.75049 120561847.12549     14481.60249        49.000  

 16 04 02 12 57 40.6000000  0  1G05                                             
  22941881.23449 120560399.26649     14475.28149        49.000  

 16 04 02 12 57 40.7000000  0  1G05                                             
  22941605.82849 120558952.01649     14469.44549        49.000  

 16 04 02 12 57 40.8000000  0  1G05                                             
  22941330.53149 120557505.32849     14463.67649        49.000  

 16 04 02 12 57 40.9000000  0  1G05                                             
