     2.10           OBSERVATION DATA    G (GPS)             RINEX VERSION / TYPE
Convert v1.8.0                          07-Jun-2016 18:41   PGM / RUN BY / DATE 
Signal Strength values S1,S2 are in dBHz                    COMMENT             
                                                            MARKER NAME         
                                                            MARKER NUMBER       
                                                            OBSERVER / AGENCY   
                    NovAtel GPSCard                         REC # / TYPE / VERS 
                                                            ANT # / TYPE        
0.0000        0.0000        0.0000                          APPROX POSITION XYZ 
        0.0000        0.0000        0.0000                  ANTENNA: DELTA H/E/N
     1     1                                                WAVELENGTH FACT L1/2
     1     1     6   G01   G08   G11   G18   G21   G24      WAVELENGTH FACT L1/2
                                                            COMMENT             
                                                            COMMENT             
                                                            COMMENT             
                                                            COMMENT             
                                                            COMMENT             
                                                            COMMENT             
     8    C1    L1    D1    S1    P2    L2    D2    S2      # / TYPES OF OBSERV 
     0.100                                                  INTERVAL            
  2016    04    02    12    00    36.6000000    GPS         TIME OF FIRST OBS   
  2016    04    02    12    04    27.9000000    GPS         TIME OF LAST OBS    
Leap Seconds Unknown                                        COMMENT             
                                                            END OF HEADER       
 16 04 02 12 00 36.6000000  0  2G01G18                                          
  22044466.67249 115844453.94549      4028.27049        48.000  

  20438412.82049 107404583.39549     10429.81649        50.000  

 16 04 02 12 00 36.7000000  0  2G01G18                                          
  22044390.03949 115844051.21149      4026.46549        48.000  

  20438214.39849 107403540.65249     10424.66049        50.000  

 16 04 02 12 00 36.8000000  0  2G01G18                                          
  22044313.43049 115843648.66049      4024.98049        48.000  

  20438016.07049 107402498.41049     10420.12949        50.000  

 16 04 02 12 00 36.9000000  0  3G01G24G18                                       
  22044236.84449 115843246.17649      4023.96549        48.000  

  22539128.91449 118443921.66459     -1459.24649        48.000  

  20437817.81249 107401456.55949     10415.73849        50.000  

 16 04 02 12 00 37.0000000  0  4G01G24G18G11                                    
  22044160.28949 115842843.98849      4021.05549        48.000  

  22539156.73449 118444067.85249     -1463.37949        48.000  

  20437619.67249 107400415.34449     10409.53149        50.000  

  20303596.07849 106696116.50459      3584.56249        50.000  

 16 04 02 12 00 37.1000000  0  4G01G24G18G11                                    
  22044083.79749 115842441.98449      4019.18049        48.000  

  22539184.63349 118444214.34449     -1466.52749        48.000  

  20437421.63349 107399374.61749     10404.59449        50.000  

  20303527.89149 106695758.18849      3581.68849        50.000  

 16 04 02 12 00 37.2000000  0  4G01G24G18G11                                    
  22044007.32849 115842040.14549      4017.51649        48.000  

  22539212.56249 118444361.13749     -1469.46949        48.000  

  20437223.68049 107398334.38749     10399.68449        50.000  

  20303459.75049 106695400.12949      3579.09449        50.000  

 16 04 02 12 00 37.3000000  0  4G01G24G18G11                                    
  22043930.87549 115841638.37949      4016.83249        48.000  

  22539240.54749 118444508.12549     -1471.43049        48.000  

  20437025.80549 107397294.55549     10395.68049        50.000  

  20303391.65649 106695042.25849      3577.33649        50.000  

 16 04 02 12 00 37.4000000  0  4G01G24G18G11                                    
  22043854.46149 115841236.78149      4015.43049        48.000  

  22539268.57849 118444655.41049     -1474.13349        48.000  

  20436828.03949 107396255.20749     10391.09449        50.000  

  20303323.61749 106694684.64849      3574.89849        50.000  

 16 04 02 12 00 37.5000000  0  4G01G24G18G11                                    
  22043778.07849 115840835.37149      4013.36749        48.000  

  22539296.67249 118444803.01649     -1477.57049        48.000  

  20436630.35249 107395216.37149     10385.76649        50.000  

  20303255.61749 106694327.33649      3571.73849        50.000  

 16 04 02 12 00 37.6000000  0  4G01G24G18G11                                    
  22043701.72749 115840434.16449      4011.14549        48.000  

  22539324.82849 118444950.94149     -1480.87549        48.000  

  20436432.77349 107394178.06649     10380.38349        50.000  

  20303187.68849 106693970.33249      3568.61349        50.000  

 16 04 02 12 00 37.7000000  0  4G01G24G18G11                                    
  22043625.39849 115840033.07449      4009.99249        48.000  

  22539353.02349 118445099.12149     -1483.30949        48.000  

  20436235.27349 107393140.21949     10375.80549        50.000  

  20303119.78949 106693613.54749      3566.35949        50.000  

 16 04 02 12 00 37.8000000  0  4G01G24G18G11                                    
  22043549.09449 115839632.17249      4008.15649        48.000  

  22539381.28149 118445247.61349     -1486.43849        48.000  

  20436037.88349 107392102.86349     10370.72749        50.000  

  20303051.97749 106693257.04749      3563.55949        50.000  

 16 04 02 12 00 37.9000000  0  4G01G24G18G11                                    
  22043472.83649 115839231.46149      4006.37149        48.000  

  22539409.60949 118445396.42249     -1489.50849        48.000  

  20435840.57849 107391066.02749     10365.72349        50.000  

  20302984.18849 106692900.84449      3560.63349        50.000  

 16 04 02 12 00 38.0000000  0  4G01G24G18G11                                    
  22043396.62549 115838830.94949      4004.18449        48.000  

  22539437.99249 118445545.56649     -1493.02749        48.000  

  20435643.38349 107390029.71149     10360.48449        50.000  

  20302916.49249 106692544.94949      3557.45749        50.000  

 16 04 02 12 00 38.1000000  0  4G01G24G18G11                                    
  22043320.42249 115838430.52749      4003.48049        48.000  

  22539466.40649 118445694.92249     -1494.99649        48.000  

  20435446.25049 107388993.80549     10356.60249        50.000  

  20302848.79749 106692189.23849      3555.78949        50.000  

 16 04 02 12 00 38.2000000  0  4G01G24G18G11                                    
  22043244.25049 115838030.32049      4001.16049        48.000  

  22539494.89149 118445844.61749     -1498.57849        48.000  

  20435249.22749 107387958.44949     10350.76249        50.000  

  20302781.18049 106691833.85249      3552.30149        50.000  

 16 04 02 12 00 38.3000000  0  4G01G24G18G11                                    
  22043168.12549 115837630.26649      3999.75449        48.000  

  22539523.45349 118445994.59849     -1501.25849        48.000  

  20435052.29749 107386923.55949     10346.32049        50.000  

  20302713.60249 106691478.71549      3549.89549        50.000  

 16 04 02 12 00 38.4000000  0  4G01G24G18G11                                    
  22043092.02349 115837230.33649      3998.61749        48.000  

  22539552.03949 118446144.82849     -1503.69549        48.000  

  20434855.46149 107385889.12949     10341.69949        50.000  

  20302646.06249 106691123.81249      3547.68049        50.000  

 16 04 02 12 00 38.5000000  0  4G01G24G18G11                                    
  22043015.95349 115836830.57449      3996.89149        48.000  

  22539580.68049 118446295.36349     -1506.87949        48.000  

  20434658.71149 107384855.18449     10336.86749        50.000  

  20302578.57849 106690769.17249      3545.05949        50.000  

 16 04 02 12 00 38.6000000  0  4G01G24G18G11                                    
  22042939.93049 115836431.06649      3994.19549        48.000  

  22539609.39849 118446446.25849     -1510.61749        48.000  

  20434462.06249 107383821.80549     10331.09849        50.000  

  20302511.15649 106690414.89549      3541.25449        50.000  

 16 04 02 12 00 38.7000000  0  4G01G24G18G11                                    
  22042863.92249 115836031.66849      3993.12949        48.000  

  22539638.15649 118446597.40649     -1513.05149        48.000  

  20434265.50849 107382788.88749     10326.48049        50.000  

  20302443.78149 106690060.83649      3539.01249        50.000  

 16 04 02 12 00 38.8000000  0  4G01G24G18G11                                    
  22042787.94549 115835632.42249      3991.56649        48.000  

  22539666.96949 118446748.84049     -1515.83649        48.000  

  20434069.03149 107381756.42649     10321.85949        50.000  

  20302376.45349 106689707.02049      3536.55949        50.000  

 16 04 02 12 00 38.9000000  0  4G01G24G18G11                                    
  22042712.01649 115835233.38349      3989.77749        48.000  

  22539695.85949 118446900.59449     -1518.80949        48.000  

  20433872.66449 107380724.49249     10316.78549        50.000  

  20302309.18049 106689353.52049      3533.69549        50.000  

 16 04 02 12 00 39.0000000  0  4G01G24G18G11                                    
  22042636.08649 115834834.41849      3988.91849        48.000  

  22539724.77349 118447052.55949     -1521.02049        48.000  

  20433676.37549 107379692.96949     10312.64149        50.000  

  20302241.94549 106689000.19149      3531.88349        50.000  

 16 04 02 12 00 39.1000000  0  4G01G24G18G11                                    
  22042560.20349 115834435.66049      3987.00049        48.000  

  22539753.75849 118447204.85549     -1524.42649        48.000  

  20433480.18849 107378661.96549     10307.50849        50.000  

  20302174.77349 106688647.17249      3528.87149        50.000  

 16 04 02 12 00 39.2000000  0  4G01G24G18G11                                    
  22042484.35949 115834037.10249      3984.62949        48.000  

  22539782.79749 118447357.47349     -1527.87549        48.000  

  20433284.08649 107377631.48849     10301.96949        50.000  

  20302107.63349 106688294.46949      3525.52349        50.000  

 16 04 02 12 00 39.3000000  0  4G01G24G18G11                                    
  22042408.55549 115833638.76649      3982.51649        48.000  

  22539811.92249 118447510.45749     -1531.27349        48.000  

  20433088.10249 107376601.57049     10296.57849        50.000  

  20302040.57849 106687942.09049      3522.32049        50.000  

 16 04 02 12 00 39.4000000  0  4G01G24G18G11                                    
  22042332.78949 115833240.56649      3981.03549        48.000  

  22539841.07849 118447663.68449     -1533.88749        48.000  

  20432892.19549 107375572.07849     10292.22349        50.000  

  20301973.58649 106687589.93049      3519.97349        50.000  

 16 04 02 12 00 39.5000000  0  4G01G24G18G11                                    
  22042257.04749 115832842.53549      3979.55149        48.000  

  22539870.28949 118447817.21549     -1536.81249        48.000  

  20432696.39149 107374543.12149     10286.85949        50.000  

  20301906.62549 106687238.06249      3517.16849        50.000  

 16 04 02 12 00 39.6000000  0  4G01G24G18G11                                    
  22042181.34449 115832444.69149      3977.82049        48.000  

  22539899.57049 118447971.07449     -1539.87949        48.000  

  20432500.67249 107373514.65249     10282.08649        50.000  

  20301839.74249 106686886.48049      3514.50449        50.000  

 16 04 02 12 00 39.7000000  0  4G01G24G18G11                                    
  22042105.67249 115832047.04349      3975.73849        48.000  

  22539928.91449 118448125.23849     -1543.03549        48.000  

  20432305.06249 107372486.69549     10277.05149        50.000  

  20301772.89149 106686535.18449      3511.60949        50.000  

 16 04 02 12 00 39.8000000  0  4G01G24G18G11                                    
  22042030.01649 115831649.48449      3974.71149        48.000  

  22539958.28949 118448279.62549     -1545.34449        48.000  

  20432109.52349 107371459.18049     10272.57049        50.000  

  20301706.09449 106686184.09849      3509.30949        50.000  

 16 04 02 12 00 39.9000000  0  4G01G24G18G11                                    
  22041954.40649 115831252.15249      3972.36749        48.000  

  22539987.72749 118448434.37149     -1549.00449        48.000  

  20431914.09449 107370432.18449     10267.20749        50.000  

  20301639.34449 106685833.32449      3506.23049        50.000  

 16 04 02 12 00 40.0000000  0  4G01G24G18G11                                    
  22041878.82049 115830854.96549      3971.08649        48.000  

  22540017.22749 118448589.37949     -1551.52049        48.000  

  20431718.75849 107369405.67649     10262.44949        50.000  

  20301572.64149 106685482.80949      3503.65249        50.000  

 16 04 02 12 00 40.1000000  0  4G01G24G18G11                                    
  22041803.25849 115830457.90249      3969.94149        48.000  

  22540046.77349 118448744.65649     -1553.99249        48.000  

  20431523.50849 107368379.62149     10258.05549        50.000  

  20301505.98449 106685132.53149      3501.58249        50.000  

 16 04 02 12 00 40.2000000  0  4G01G24G18G11                                    
  22041727.74249 115830060.97749      3968.62949        48.000  

  22540076.36749 118448900.17249     -1556.38349        48.000  

  20431328.33649 107367354.01249     10253.55149        50.000  

  20301439.37549 106684782.46949      3499.30149        50.000  

 16 04 02 12 00 40.3000000  0  4G01G24G18G11                                    
  22041652.25049 115829664.23849      3966.69549        48.000  

  22540106.04749 118449056.03549     -1559.91049        48.000  

  20431133.26649 107366328.92249     10248.27749        50.000  

  20301372.82049 106684432.71949      3496.23449        50.000  

 16 04 02 12 00 40.4000000  0  4G01G24G18G11                                    
  22041576.79749 115829267.71149      3964.27749        48.000  

  22540135.76649 118449212.20749     -1563.29349        48.000  

  20430938.29749 107365304.35549     10242.88349        50.000  

  20301306.31249 106684083.26249      3492.96149        50.000  

 16 04 02 12 00 40.5000000  0  4G01G24G18G11                                    
  22041501.36749 115828871.32049      3962.95349        48.000  

  22540165.53949 118449368.65649     -1566.14149        48.000  

  20430743.41449 107364280.26249     10238.16849        50.000  

  20301239.85949 106683734.06649      3490.37549        50.000  

 16 04 02 12 00 40.6000000  0  4G01G24G18G11                                    
  22041425.99249 115828475.14849      3960.82049        48.000  

  22540195.37549 118449525.46149     -1569.50849        48.000  

  20430548.64149 107363256.72349     10232.65249        50.000  

  20301173.47749 106683385.18049      3487.29749        50.000  

 16 04 02 12 00 40.7000000  0  4G01G24G18G11                                    
  22041350.64149 115828079.17249      3958.91449        48.000  

  22540225.28149 118449682.57849     -1572.74249        48.000  

  20430353.96149 107362233.68049     10227.67649        50.000  

  20301107.14149 106683036.59849      3484.34049        50.000  

 16 04 02 12 00 40.8000000  0  4G01G24G18G11                                    
  22041275.31249 115827683.35549      3957.29749        48.000  

  22540255.23449 118449839.98449     -1575.60549        48.000  

  20430159.37549 107361211.12549     10222.81649        50.000  

  20301040.85249 106682688.27049      3481.69949        50.000  

 16 04 02 12 00 40.9000000  0  4G01G24G18G11                                    
  22041200.02349 115827287.68049      3956.00449        48.000  

  22540285.23449 118449997.65249     -1578.25849        48.000  

  20429964.87549 107360189.03149     10218.24649        50.000  

  20300974.60949 106682340.18449      3479.40249        50.000  

 16 04 02 12 00 41.0000000  0  4G01G24G18G11                                    
  22041124.75049 115826892.11749      3955.10549        48.000  

  22540315.28149 118450155.57849     -1580.42249        48.000  

  20429770.46149 107359167.39149     10214.04749        50.000  

  20300908.43849 106681992.33249      3477.45349        50.000  

 16 04 02 12 00 41.1000000  0  4G01G24G18G11                                    
  22041049.50849 115826496.72349      3953.04349        48.000  

  22540345.36749 118450313.77349     -1583.58649        48.000  

  20429576.14149 107358146.23049     10208.77349        50.000  

  20300842.28949 106681644.73849      3474.28149        50.000  

 16 04 02 12 00 41.2000000  0  4G01G24G18G11                                    
  22040974.32849 115826101.57849      3950.55549        48.000  

  22540375.54749 118450472.36349     -1587.53549        48.000  

  20429381.93049 107357125.64849     10203.09049        50.000  

  20300776.19549 106681297.49649      3470.84049        50.000  

 16 04 02 12 00 41.3000000  0  4G01G24G18G11                                    
  22040899.16449 115825706.60249      3948.89849        48.000  

  22540405.78949 118450631.24649     -1590.37949        48.000  

  20429187.81249 107356105.55149     10198.30149        50.000  

  20300710.17249 106680950.52749      3468.28949        50.000  

 16 04 02 12 00 41.4000000  0  4G01G24G18G11                                    
  22040824.02349 115825311.71549      3948.01649        48.000  

  22540436.06249 118450790.33649     -1592.49649        48.000  

  20428993.76649 107355085.87949     10194.12149        50.000  

  20300644.17249 106680603.75449      3466.27349        50.000  

 16 04 02 12 00 41.5000000  0  4G01G24G18G11                                    
  22040748.91449 115824917.04749      3945.98049        48.000  

  22540466.39149 118450949.79349     -1595.88349        48.000  

  20428799.82849 107354066.74249     10188.86349        50.000  

  20300578.24249 106680257.29349      3463.22349        50.000  

 16 04 02 12 00 41.6000000  0  4G01G24G18G11                                    
  22040673.84449 115824522.55549      3944.05549        48.000  

  22540496.78949 118451109.53949     -1599.05149        48.000  

  20428605.98449 107353048.09849     10183.68449        50.000  

  20300512.35249 106679911.11749      3460.30149        50.000  

 16 04 02 12 00 41.7000000  0  4G01G24G18G11                                    
  22040598.79749 115824128.15649      3943.08249        48.000  

  22540527.23449 118451269.50049     -1601.19149        48.000  

  20428412.22749 107352029.88749     10179.38349        50.000  

  20300446.51649 106679565.13749      3458.22749        50.000  

 16 04 02 12 00 41.8000000  0  4G01G24G18G11                                    
  22040523.77349 115823733.94949      3941.28149        48.000  

  22540557.74249 118451429.79349     -1604.39549        48.000  

  20428218.56249 107351012.18049     10174.48849        50.000  

  20300380.74249 106679219.44949      3455.53149        50.000  

 16 04 02 12 00 41.9000000  0  4G01G24G18G11                                    
  22040448.79749 115823339.94949      3939.07049        48.000  

  22540588.31249 118451590.41849     -1607.91049        48.000  

  20428025.00849 107349995.01249     10168.90249        50.000  

  20300315.02349 106678874.08249      3452.14549        50.000  

 16 04 02 12 00 42.0000000  0  4G01G24G18G11                                    
  22040373.85949 115822946.11749      3937.43849        48.000  

  22540618.93049 118451751.32449     -1610.68849        48.000  

  20427831.52349 107348978.33249     10164.14549        50.000  

  20300249.35949 106678528.97349      3449.61349        50.000  

 16 04 02 12 00 42.1000000  0  4G01G24G18G11                                    
  22040298.93049 115822552.37949      3936.44149        48.000  

  22540649.60949 118451912.46549     -1612.98849        48.000  

  20427638.14149 107347962.07049     10159.84849        50.000  

  20300183.72749 106678184.07049      3447.41449        50.000  

 16 04 02 12 00 42.2000000  0  4G01G24G18G11                                    
  22040224.05549 115822158.87149      3934.46549        48.000  

  22540680.34449 118452073.96549     -1616.37549        48.000  

  20427444.85949 107346946.37149     10154.49649        50.000  

  20300118.15649 106677839.50049      3444.41849        50.000  

 16 04 02 12 00 42.3000000  0  4G01G24G18G11                                    
  22040149.19549 115821765.47749      3933.33249        48.000  

  22540711.10249 118452235.69949     -1618.72349        48.000  

  20427251.66449 107345931.10549     10150.09849        50.000  

  20300052.63349 106677495.14549      3442.22349        50.000  

 16 04 02 12 00 42.4000000  0  4G01G24G18G11                                    
  22040074.37549 115821372.27049      3931.21149        48.000  

  22540741.93849 118452397.74649     -1621.89549        48.000  

  20427058.55549 107344916.33649     10144.93049        50.000  

  20299987.16449 106677151.06649      3439.21949        50.000  

 16 04 02 12 00 42.5000000  0  4G01G24G18G11                                    
  22039999.58649 115820979.25049      3929.44949        48.000  

  22540772.83649 118452560.11749     -1625.16049        48.000  

  20426865.54749 107343902.09049     10139.82849        50.000  

  20299921.74249 106676807.28549      3436.43849        50.000  

 16 04 02 12 00 42.6000000  0  4G01G24G18G11                                    
  22039924.82849 115820586.38349      3927.85949        48.000  

  22540803.78949 118452722.76249     -1627.98849        48.000  

  20426672.63349 107342888.31649     10134.99249        50.000  

  20299856.36749 106676463.76649      3433.80149        50.000  

 16 04 02 12 00 42.7000000  0  4G01G24G18G11                                    
  22039850.10249 115820193.67249      3926.48849        48.000  

  22540834.78949 118452885.69549     -1630.63349        48.000  

  20426479.81249 107341875.02049     10130.56249        50.000  

  20299791.04749 106676120.50849      3431.42249        50.000  

 16 04 02 12 00 42.8000000  0  4G01G24G18G11                                    
  22039775.39849 115819801.10949      3924.80149        48.000  

  22540865.85249 118453048.89849     -1633.59449        48.000  

  20426287.08649 107340862.20749     10125.51249        50.000  

  20299725.77349 106675777.48849      3428.73049        50.000  

 16 04 02 12 00 42.9000000  0  4G01G24G18G11                                    
  22039700.73449 115819408.74249      3922.80949        48.000  

  22540896.96149 118453212.41849     -1636.78549        48.000  

  20426094.45349 107339849.91049     10120.28549        50.000  

  20299660.56249 106675434.78149      3425.63349        50.000  

 16 04 02 12 00 43.0000000  0  4G01G24G18G11                                    
  22039626.10249 115819016.53549      3921.18849        48.000  

  22540928.13349 118453376.23849     -1639.67649        48.000  

  20425901.91449 107338838.09849     10115.45349        50.000  

  20299595.36749 106675092.32849      3423.08249        50.000  

 16 04 02 12 00 43.1000000  0  4G01G24G18G11                                    
  22039551.50049 115818624.51249      3919.36349        48.000  

  22540959.37549 118453540.36349     -1642.80949        48.000  

  20425709.46949 107337826.79349     10110.41849        50.000  

  20299530.25849 106674750.16849      3420.14149        50.000  

 16 04 02 12 00 43.2000000  0  4G01G24G18G11                                    
  22039476.93049 115818232.61349      3918.32449        48.000  

  22540990.64849 118453704.73449     -1645.14549        48.000  

  20425517.10249 107336815.93049     10106.05549        50.000  

  20299465.18849 106674408.23049      3417.98449        50.000  

 16 04 02 12 00 43.3000000  0  4G01G24G18G11                                    
  22039402.39149 115817840.91049      3916.29749        48.000  

  22541021.99249 118453869.44949     -1648.50849        48.000  

  20425324.84449 107335805.59849     10100.74649        50.000  

  20299400.18049 106674066.59849      3414.91449        50.000  

 16 04 02 12 00 43.4000000  0  4G01G24G18G11                                    
  22039327.89149 115817449.37949      3914.44549        48.000  

  22541053.39149 118454034.44149     -1651.63749        48.000  

  20425132.67249 107334795.75049     10095.73849        50.000  

  20299335.20349 106673725.22749      3412.18049        50.000  

 16 04 02 12 00 43.5000000  0  4G01G24G18G11                                    
  22039253.42249 115817058.02349      3912.64149        48.000  

  22541084.86749 118454199.73849     -1654.61349        48.000  

  20424940.60249 107333786.40649     10090.64149        50.000  

  20299270.29749 106673384.14549      3409.25849        50.000  

 16 04 02 12 00 43.6000000  0  4G01G24G18G11                                    
  22039178.99249 115816666.88749      3910.42249        48.000  

  22541116.38349 118454365.37549     -1658.06249        48.000  

  20424748.63349 107332777.60549     10085.15649        50.000  

  20299205.46149 106673043.37949      3406.04749        50.000  

 16 04 02 12 00 43.7000000  0  4G01G24G18G11                                    
  22039104.58649 115816275.86349      3909.52049        48.000  

  22541147.95349 118454531.27349     -1660.24249        48.000  

  20424556.75049 107331769.24649     10080.97349        50.000  

  20299140.65649 106672702.83249      3404.07849        50.000  

 16 04 02 12 00 43.8000000  0  4G01G24G18G11                                    
  22039030.20349 115815885.01249      3907.65249        48.000  

  22541179.57849 118454697.44949     -1663.28549        48.000  

  20424364.95349 107330761.36749     10076.01249        50.000  

  20299075.89849 106672362.55149      3401.30949        50.000  

 16 04 02 12 00 43.9000000  0  4G01G24G18G11                                    
  22038955.86749 115815494.39149      3905.41049        48.000  

  22541211.26649 118454863.99649     -1666.88349        48.000  

  20424173.26649 107329754.05949     10070.48849        50.000  

  20299011.21149 106672022.61349      3397.98449        50.000  

 16 04 02 12 00 44.0000000  0  4G01G24G18G11                                    
  22038881.56249 115815103.90249      3903.87549        48.000  

  22541243.00849 118455030.80149     -1669.60549        48.000  

  20423981.67249 107328747.20749     10065.68049        50.000  

  20298946.57049 106671682.90649      3395.48849        50.000  

 16 04 02 12 00 44.1000000  0  4G01G24G18G11                                    
  22038807.28949 115814713.60949      3902.05149        48.000  

  22541274.80549 118455197.93449     -1672.84449        48.000  

  20423790.17249 107327740.86749     10060.77749        50.000  

  20298881.98449 106671343.50449      3392.68849        50.000  

 16 04 02 12 00 44.2000000  0  4G01G24G18G11                                    
  22038733.04749 115814323.44149      3900.78949        48.000  

  22541306.65649 118455365.31249     -1675.46549        48.000  

  20423598.76649 107326734.98449     10056.04349        50.000  

  20298817.44549 106671004.33249      3390.22349        50.000  

 16 04 02 12 00 44.3000000  0  4G01G24G18G11                                    
  22038658.83649 115813933.45749      3899.14849        48.000  

  22541338.57049 118455532.99649     -1678.19149        48.000  

  20423407.44549 107325729.60249     10051.26649        50.000  

  20298752.95349 106670665.42649      3387.68049        50.000  

 16 04 02 12 00 44.4000000  0  4G01G24G18G11                                    
  22038584.64849 115813543.63349      3897.46549        48.000  

  22541370.53949 118455700.97349     -1681.32849        48.000  

  20423216.21949 107324724.71149     10046.28149        50.000  

  20298688.51649 106670326.80949      3384.80949        50.000  

 16 04 02 12 00 44.5000000  0  4G01G24G18G11                                    
  22038510.50049 115813153.98049      3895.77749        48.000  

  22541402.55549 118455869.24649     -1684.17649        48.000  

  20423025.08649 107323720.29749     10041.59049        50.000  

  20298624.12549 106669988.44549      3382.26649        50.000  

 16 04 02 12 00 44.6000000  0  4G01G24G18G11                                    
  22038436.38349 115812764.48449      3893.98449        48.000  

  22541434.63349 118456037.80949     -1687.21549        48.000  

  20422834.04749 107322716.39149     10036.40649        50.000  

  20298559.78949 106669650.35549      3379.44149        50.000  

 16 04 02 12 00 44.7000000  0  4G01G24G18G11                                    
  22038362.29749 115812375.15649      3892.32449        48.000  

  22541466.76649 118456206.66049     -1690.27349        48.000  

  20422643.10249 107321712.96549     10031.38349        50.000  

  20298495.50849 106669312.53149      3376.58649        50.000  

 16 04 02 12 00 44.8000000  0  4G01G24G18G11                                    
  22038288.23449 115811985.94149      3891.43849        48.000  

  22541498.94549 118456375.75849     -1692.34449        48.000  

  20422452.24249 107320709.97349     10027.34849        50.000  

  20298431.25849 106668974.93049      3374.68849        50.000  

 16 04 02 12 00 44.9000000  0  4G01G24G18G11                                    
  22038214.21949 115811596.97749      3888.67649        48.000  

  22541531.18849 118456545.22349     -1696.35249        48.000  

  20422261.48449 107319707.55149     10021.46949        50.000  

  20298367.07849 106668637.67249      3370.96949        50.000  

 16 04 02 12 00 45.0000000  0  4G01G24G18G11                                    
  22038140.23449 115811208.20349      3886.82449        48.000  

  22541563.49249 118456715.00449     -1699.39149        48.000  

  20422070.83649 107318705.64849     10016.43049        50.000  

  20298302.94549 106668300.69549      3368.24649        50.000  

 16 04 02 12 00 45.1000000  0  4G01G24G18G11                                    
  22038066.28149 115810819.55949      3885.43449        48.000  

  22541595.84449 118456885.04749     -1702.09449        48.000  

  20421880.26649 107317704.20749     10011.64549        50.000  

  20298238.86749 106667963.97349      3365.67249        50.000  

 16 04 02 12 00 45.2000000  0  4G01G24G18G11                                    
  22037992.36749 115810431.10549      3883.66049        48.000  

  22541628.25849 118457055.41849     -1705.19549        48.000  

  20421689.80549 107316703.28149     10006.58649        50.000  

  20298174.83649 106667627.54349      3362.84049        50.000  

 16 04 02 12 00 45.3000000  0  4G01G24G18G11                                    
  22037918.47749 115810042.81249      3882.19949        48.000  

  22541660.73449 118457226.06249     -1707.94949        48.000  

  20421499.42249 107315702.82449     10001.81649        50.000  

  20298110.86749 106667291.36349      3360.27049        50.000  

 16 04 02 12 00 45.4000000  0  4G01G24G18G11                                    
  22037844.61749 115809654.69949      3880.40649        48.000  

  22541693.26649 118457397.02049     -1711.02049        48.000  

  20421309.14149 107314702.89149      9996.75049        50.000  

  20298046.94549 106666955.48049      3357.43849        50.000  

 16 04 02 12 00 45.5000000  0  4G01G24G18G11                                    
  22037770.80549 115809266.80149      3877.94149        48.000  

  22541725.86749 118457568.31249     -1714.59049        48.000  

  20421118.96149 107313703.46949      9991.20749        50.000  

  20297983.08649 106666619.89549      3354.08649        50.000  

 16 04 02 12 00 45.6000000  0  4G01G24G18G11                                    
  22037697.01649 115808879.02349      3877.05949        48.000  

  22541758.51649 118457739.86749     -1716.85249        48.000  

  20420928.86749 107312704.52049      9987.00049        50.000  

  20297919.28149 106666284.55949      3352.08249        50.000  

 16 04 02 12 00 45.7000000  0  4G01G24G18G11                                    
  22037623.25049 115808491.40649      3875.47349        48.000  

  22541791.21149 118457911.70349     -1719.86749        48.000  

  20420738.85949 107311706.03949      9982.27749        50.000  

  20297855.51649 106665949.46949      3349.48049        50.000  

 16 04 02 12 00 45.8000000  0  4G01G24G18G11                                    
  22037549.52349 115808103.93849      3873.84449        48.000  

  22541823.96149 118458083.80549     -1722.55549        48.000  

  20420548.95349 107310708.02749      9977.54349        50.000  

  20297791.78949 106665614.62949      3346.96949        50.000  

 16 04 02 12 00 45.9000000  0  4G01G24G18G11                                    
  22037475.82049 115807716.60549      3872.50049        48.000  

  22541856.75849 118458256.18049     -1725.27049        48.000  

  20420359.12549 107309710.50049      9972.73449        50.000  

  20297728.11749 106665280.04349      3344.44949        50.000  

 16 04 02 12 00 46.0000000  0  4G01G24G18G11                                    
  22037402.14849 115807329.45749      3870.84849        48.000  

  22541889.61749 118458428.85949     -1728.09849        48.000  

  20420169.39149 107308713.46949      9967.83649        50.000  

  20297664.49249 106664945.72349      3341.86749        50.000  

 16 04 02 12 00 46.1000000  0  4G01G24G18G11                                    
  22037328.51649 115806942.49649      3868.55149        48.000  

  22541922.53149 118458601.84449     -1731.53149        48.000  

  20419979.75849 107307716.94149      9962.36749        50.000  

  20297600.93049 106664611.70349      3338.53949        50.000  

 16 04 02 12 00 46.2000000  0  4G01G24G18G11                                    
  22037254.92249 115806555.73449      3866.80949        48.000  

  22541955.51649 118458775.18049     -1734.83249        48.000  

  20419790.22749 107306720.94149      9957.26649        50.000  

  20297537.43049 106664277.98849      3335.68049        50.000  

 16 04 02 12 00 46.3000000  0  4G01G24G18G11                                    
  22037181.35249 115806169.12149      3865.33249        48.000  

  22541988.55549 118458948.78149     -1737.53149        48.000  

  20419600.78949 107305725.43449      9952.55149        50.000  

  20297473.97749 106663944.53149      3333.24249        50.000  

 16 04 02 12 00 46.4000000  0  4G01G24G18G11                                    
  22037107.81249 115805782.65649      3863.79349        48.000  

  22542021.64149 118459122.65649     -1740.45349        48.000  

  20419411.43049 107304730.36349      9947.78949        50.000  

  20297410.56249 106663611.30949      3330.64549        50.000  

 16 04 02 12 00 46.5000000  0  4G01G24G18G11                                    
  22037034.30549 115805396.37149      3862.17649        48.000  

  22542054.78149 118459296.82449     -1743.13749        48.000  

  20419222.17249 107303735.81249      9942.96549        50.000  

  20297347.21149 106663278.37949      3328.00449        50.000  

 16 04 02 12 00 46.6000000  0  4G01G24G18G11                                    
  22036960.82849 115805010.24249      3860.38749        48.000  

  22542087.97749 118459471.28149     -1746.04349        48.000  

  20419033.00049 107302741.73049      9938.00849        50.000  

  20297283.91449 106662945.69149      3325.27349        50.000  

 16 04 02 12 00 46.7000000  0  4G01G24G18G11                                    
  22036887.38349 115804624.30149      3858.47749        48.000  

  22542121.24249 118459646.07849     -1749.47349        48.000  

  20418843.93049 107301748.19549      9932.73049        50.000  

  20297220.66449 106662613.32449      3322.21949        50.000  

 16 04 02 12 00 46.8000000  0  4G01G24G18G11                                    
  22036813.96149 115804238.49249      3857.30149        48.000  

  22542154.54749 118459821.09849     -1751.68449        48.000  

  20418654.94549 107300755.08249      9928.38749        50.000  

  20297157.44549 106662281.16849      3320.05549        50.000  

 16 04 02 12 00 46.9000000  0  4G01G24G18G11                                    
  22036740.59449 115803852.92249      3855.03549        48.000  

  22542187.92249 118459996.49649     -1755.36749        48.000  

  20418466.07849 107299762.54749      9922.86349        50.000  

  20297094.30549 106661949.36349      3316.70349        50.000  

 16 04 02 12 00 47.0000000  0  4G01G24G18G11                                    
  22036667.24249 115803467.49649      3853.43849        48.000  

  22542221.35249 118460172.18049     -1758.22349        48.000  

  20418277.29749 107298770.47349      9918.10249        50.000  

  20297031.21949 106661617.80549      3314.15649        50.000  

 16 04 02 12 00 47.1000000  0  4G01G24G18G11                                    
  22036593.93049 115803082.22749      3851.80149        48.000  

  22542254.83649 118460348.11749     -1760.98449        48.000  

  20418088.60249 107297778.87949      9913.22749        50.000  

  20296968.17249 106661286.50049      3311.50049        50.000  

 16 04 02 12 00 47.2000000  0  4G01G24G18G11                                    
  22036520.64849 115802697.12949      3850.26249        48.000  

  22542288.37549 118460524.38349     -1763.98849        48.000  

  20417900.00849 107296787.79749      9908.31249        50.000  

  20296905.17249 106660955.47749      3308.91049        50.000  

 16 04 02 12 00 47.3000000  0  4G01G24G18G11                                    
  22036447.39149 115802312.14549      3849.12149        48.000  

  22542321.96149 118460700.87949     -1766.32449        48.000  

  20417711.49249 107295797.14149      9903.91049        50.000  

  20296842.22749 106660624.66849      3306.69949        50.000  

 16 04 02 12 00 47.4000000  0  4G01G24G18G11                                    
  22036374.16449 115801927.34849      3847.26249        48.000  

  22542355.60249 118460877.67649     -1769.35949        48.000  

  20417523.08649 107294806.98049      9899.03949        50.000  

  20296779.32849 106660294.13749      3303.97749        50.000  

 16 04 02 12 00 47.5000000  0  4G01G24G18G11                                    
  22036300.97749 115801542.74649      3845.15249        48.000  

  22542389.31249 118461054.80949     -1772.77749        48.000  

  20417334.76649 107293817.36349      9893.53149        50.000  

  20296716.49249 106659963.92649      3300.68449        50.000    20296714.68841
  83111652.42651      2571.96141        20.000  
 16 04 02 12 00 47.6000000  0  4G01G24G18G11                                    
  22036227.82049 115801158.31249      3843.51249        48.000  

  22542423.07849 118461232.24649     -1775.93849        48.000  

  20417146.54749 107292828.23449      9888.57449        50.000  

  20296653.71149 106659633.97349      3297.99649        50.000    20296651.89841
  83111395.32041      2569.86741        20.000  
 16 04 02 12 00 47.7000000  0  4G01G24G18G11                                    
  22036154.69549 115800774.03149      3842.01649        48.000  

  22542456.89849 118461409.94149     -1778.57449        48.000  

  20416958.41449 107291839.57849      9883.91849        50.000  

  20296590.96949 106659304.27749      3295.49249        50.000    20296593.06241
  83111138.41841      2567.91441        20.000  
 16 04 02 12 00 47.8000000  0  4G01G24G18G11                                    
  22036081.59449 115800389.87149      3840.78949        48.000  

  22542490.76649 118461587.89549     -1781.12949        48.000  

  20416770.35249 107290851.35949      9879.39149        50.000  

  20296528.25849 106658974.79749      3293.25449        50.000    20296530.36741
  83110881.68441      2566.17241        20.000  
 16 04 02 12 00 47.9000000  0  4G01G24G18G11                                    
  22036008.53949 115800005.96549      3838.19549        48.000  

  22542524.70349 118461766.21949     -1784.71549        48.000  

  20416582.41449 107289863.73449      9873.62949        50.000  

  20296465.63349 106658645.68849      3289.64149        50.000    20296463.84441
  83110625.24641      2563.35541        20.000  
 16 04 02 12 00 48.0000000  0  4G01G24G18G11                                    
  22035935.52349 115799622.18849      3836.87549        48.000  

  22542558.68849 118461944.81649     -1787.45749        48.000  

  20416394.55549 107288876.55949      9869.08249        50.000  

  20296403.05549 106658316.80149      3287.38349        50.000    20296401.25841
  83110368.98041      2561.59841        20.000  
 16 04 02 12 00 48.1000000  0  4G01G24G18G11                                    
  22035862.51649 115799238.53149      3835.87149        48.000  

  22542592.71949 118462123.64149     -1789.57849        48.000  

  20416206.78149 107287889.80549      9865.01649        50.000  

  20296340.50849 106657988.12949      3285.46949        50.000    20296334.81241
  83110112.88341      2560.10541        20.000  
 16 04 02 12 00 48.2000000  0  4G01G24G18G11                                    
  22035789.53949 115798855.05149      3834.04349        48.000  

  22542626.80549 118462302.78549     -1792.78949        48.000  

  20416019.11749 107286903.59049      9859.70749        50.000  

  20296278.01649 106657659.76249      3282.39849        50.000    20296272.32841
  83109857.02341      2557.71141        20.000  
 16 04 02 12 00 48.3000000  0  4G01G24G18G11                                    
  22035716.60249 115798471.76249      3832.06249        48.000  

  22542660.96149 118462482.23849     -1796.00049        48.000  

  20415831.53949 107285917.86749      9854.52349        50.000  

  20296215.57849 106657331.66849      3279.51249        50.000  

 16 04 02 12 00 48.4000000  0  4G01G24G18G11                                    
  22035643.69549 115798088.63349      3830.13749        48.000  

  22542695.16449 118462661.97749     -1799.23049        48.000  

  20415644.06249 107284932.62549      9849.42649        50.000  

  20296153.20349 106657003.84449      3276.60249        50.000  

 16 04 02 12 00 48.5000000  0  4G01G24G18G11                                    
  22035570.81249 115797705.65249      3828.98449        48.000  

  22542729.43049 118462841.99649     -1801.62149        48.000  

  20415456.67249 107283947.87149      9845.00849        50.000  

  20296090.86749 106656676.27049      3274.31649        50.000  

 16 04 02 12 00 48.6000000  0  4G01G24G18G11                                    
  22035497.95349 115797322.81649      3827.50049        48.000  

  22542763.73449 118463022.27349     -1804.30149        48.000  

  20415269.36749 107282963.57049      9840.25849        50.000  

  20296028.57849 106656348.93849      3271.81649        50.000  

 16 04 02 12 00 48.7000000  0  4G01G24G18G11                                    
  22035425.14149 115796940.18049      3825.56649        48.000  

  22542798.10249 118463202.89149     -1807.58249        48.000  

  20415082.15649 107281979.80149      9835.21149        50.000  

  20295966.35249 106656021.91449      3268.84849        50.000  

 16 04 02 12 00 48.8000000  0  4G01G24G18G11                                    
  22035352.35949 115796557.73049      3823.50049        48.000  

  22542832.53949 118463383.82449     -1810.96149        48.000  

  20414895.05549 107280996.54749      9829.82049        50.000  

  20295904.17249 106655695.18049      3265.77749        50.000  

 16 04 02 12 00 48.9000000  0  4G01G24G18G11                                    
  22035279.61749 115796175.43849      3822.22749        48.000  

  22542867.02349 118463565.03549     -1813.57049        48.000  

  20414708.03949 107280013.77749      9825.13749        50.000  

  20295842.04749 106655368.70749      3263.40649        50.000  

 16 04 02 12 00 49.0000000  0  4G01G24G18G11                                    
  22035206.89149 115795793.28549      3820.62149        48.000  

  22542901.56249 118463746.52749     -1816.31249        48.000  

  20414521.10949 107279031.46949      9820.42249        50.000  

  20295779.94549 106655042.48449      3260.78549        50.000  

 16 04 02 12 00 49.1000000  0  4G01G24G18G11                                    
  22035134.21149 115795411.37149      3818.21149        48.000  

  22542936.15649 118463928.35249     -1819.93449        48.000  

  20414334.28949 107278049.71149      9814.72749        50.000  

  20295717.93049 106654716.57449      3257.35949        50.000  

 16 04 02 12 00 49.2000000  0  4G01G24G18G11                                    
  22035061.55549 115795029.58649      3816.90249        48.000  

  22542970.81249 118464110.44549     -1822.40649        48.000  

  20414147.53949 107277068.40649      9810.40649        50.000  

  20295655.96949 106654390.91849      3255.12949        50.000  

 16 04 02 12 00 49.3000000  0  4G01G24G18G11                                    
  22034988.93849 115794647.96149      3815.53149        48.000  

  22543005.51649 118464292.84449     -1825.48849        48.000  

  20413960.89849 107276087.60249      9805.42649        50.000  

  20295594.04749 106654065.52349      3252.49649        50.000  

 16 04 02 12 00 49.4000000  0  4G01G24G18G11                                    
  22034916.35249 115794266.52349      3813.55149        48.000  

  22543040.28149 118464475.52749     -1828.42249        48.000  

  20413774.35249 107275107.30149      9800.30149        50.000  

  20295532.18849 106653740.41049      3249.59049        50.000  

 16 04 02 12 00 49.5000000  0  4G01G24G18G11                                    
  22034843.79749 115793885.25049      3811.86349        48.000  

  22543075.10249 118464658.52049     -1831.38349        48.000  

  20413587.89849 107274127.48049      9795.46149        50.000  

  20295470.36749 106653415.55949      3247.03949        50.000  

 16 04 02 12 00 49.6000000  0  4G01G24G18G11                                    
  22034771.27349 115793504.12549      3810.51649        48.000  

  22543109.98449 118464841.79749     -1834.30949        48.000  

  20413401.53149 107273148.14849      9790.71949        50.000  

  20295408.60249 106653090.97749      3244.50449        50.000  

 16 04 02 12 00 49.7000000  0  4G01G24G18G11                                    
  22034698.77349 115793123.12949      3809.42249        48.000  

  22543144.92249 118465025.30949     -1836.42649        48.000  

  20413215.25849 107272169.26249      9786.49649        50.000  

  20295346.87549 106652766.62949      3242.29349        50.000  

 16 04 02 12 00 49.8000000  0  4G01G24G18G11                                    
  22034626.29749 115792742.30149      3807.48049        48.000  

  22543179.89849 118465209.11349     -1839.53949        48.000  

  20413029.07049 107271190.86749      9781.21549        50.000  

  20295285.21149 106652442.53149      3239.48849        50.000  

 16 04 02 12 00 49.9000000  0  4G01G24G18G11                                    
  22034553.87549 115792361.72749      3804.85249        48.000  

  22543214.94549 118465393.31249     -1843.55949        48.000  

  20412843.00049 107270213.04749      9775.47349        50.000  

  20295223.60249 106652118.80149      3235.77049        50.000  

 16 04 02 12 00 50.0000000  0  4G01G24G18G11                                    
  22034481.47749 115791981.24249      3804.01249        48.000  

  22543250.03149 118465577.71949     -1845.70749        48.000  

  20412657.00049 107269235.64849      9771.40649        50.000  

  20295162.03149 106651795.26249      3233.88349        50.000  

 16 04 02 12 00 50.1000000  0  4G01G24G18G11                                    
  22034409.10249 115791600.92649      3802.29349        48.000  

  22543285.18049 118465762.42649     -1848.60249        48.000  

  20412471.10249 107268258.73049      9766.42249        50.000  

  20295100.50849 106651471.98049      3231.22749        50.000  

 16 04 02 12 00 50.2000000  0  4G01G24G18G11                                    
  22034336.76649 115791220.81249      3800.43849        48.000  

  22543320.39149 118465947.45749     -1851.62949        48.000  

  20412285.30549 107267282.35549      9761.21949        50.000  

  20295039.05549 106651149.02349      3228.33649        50.000  

 16 04 02 12 00 50.3000000  0  4G01G24G18G11                                    
  22034264.46149 115790840.86349      3798.40649        48.000  

  22543355.65649 118466132.77749     -1854.98849        48.000  

  20412099.59449 107266306.45349      9756.01249        50.000  

  20294977.64849 106650826.32849      3225.18849        50.000  

 16 04 02 12 00 50.4000000  0  4G01G24G18G11                                    
  22034192.18849 115790461.04749      3797.39149        48.000  

  22543390.96949 118466318.37549     -1857.44549        48.000  

  20411913.98449 107265331.03149      9751.66849        50.000  

  20294916.28949 106650503.87549      3223.14549        50.000  

 16 04 02 12 00 50.5000000  0  4G01G24G18G11                                    
  22034119.94549 115790081.43449      3795.24649        48.000  

  22543426.34449 118466504.27049     -1860.60249        48.000  

  20411728.46949 107264356.11749      9746.30149        50.000  

  20294854.98449 106650181.71549      3220.04349        50.000  

 16 04 02 12 00 50.6000000  0  4G01G24G18G11                                    
  22034047.74249 115789701.98049      3793.79749        48.000  

  22543461.78149 118466690.46949     -1863.41849        48.000  

  20411543.04749 107263381.68449      9741.76649        50.000  

  20294793.71149 106649859.81249      3217.68449        50.000  

 16 04 02 12 00 50.7000000  0  4G01G24G18G11                                    
  22033975.57049 115789322.72749      3791.65649        48.000  

  22543497.27349 118466876.98449     -1866.62149        48.000  

  20411357.71149 107262407.77049      9736.61749        50.000  

  20294732.51649 106649538.22349      3214.53149        50.000  

 16 04 02 12 00 50.8000000  0  4G01G24G18G11                                    
  22033903.43049 115788943.60249      3790.35549        48.000  

  22543532.82049 118467063.78549     -1869.44149        48.000  

  20411172.48449 107261434.34049      9731.68449        50.000  

  20294671.35949 106649216.87549      3212.00449        50.000  

 16 04 02 12 00 50.9000000  0  4G01G24G18G11                                    
  22033831.31249 115788564.63749      3788.91049        48.000  

  22543568.41449 118467250.84049     -1872.06249        48.000  

  20410987.32849 107260461.37149      9727.06249        50.000  

  20294610.25849 106648895.76649      3209.62149        50.000  

 16 04 02 12 00 51.0000000  0  4G01G24G18G11                                    
  22033759.22749 115788185.87149      3786.79749        48.000  

  22543604.07049 118467438.23049     -1875.39549        48.000  

  20410802.28149 107259488.93449      9721.77749        50.000  

  20294549.21149 106648574.98049      3206.53949        50.000  

 16 04 02 12 00 51.1000000  0  4G01G24G18G11                                    
  22033687.18049 115787807.24249      3785.20749        48.000  

  22543639.78949 118467625.88749     -1878.30549        48.000  

  20410617.32049 107258516.95349      9716.93849        50.000  

  20294488.21149 106648254.41849      3203.91849        50.000  

 16 04 02 12 00 51.2000000  0  4G01G24G18G11                                    
  22033615.17249 115787428.85949      3782.97749        48.000  

  22543675.56249 118467813.91049     -1881.71549        48.000  

  20410432.46149 107257545.54749      9711.46149        50.000  

  20294427.27349 106647934.21549      3200.55149        50.000  

 16 04 02 12 00 51.3000000  0  4G01G24G18G11                                    
  22033543.20349 115787050.66849      3780.90649        48.000  

  22543711.40649 118468002.25849     -1885.13749        48.000  

  20410247.71149 107256574.64849      9706.23849        50.000  

  20294366.39849 106647614.30149      3197.46549        50.000  

 16 04 02 12 00 51.4000000  0  4G01G24G18G11                                    
  22033471.27349 115786672.65249      3778.95349        48.000  

  22543747.30549 118468190.90649     -1888.37949        48.000  

  20410063.04749 107255604.26649      9700.82049        50.000  

  20294305.56249 106647294.66449      3194.54749        50.000  

 16 04 02 12 00 51.5000000  0  4G01G24G18G11                                    
  22033399.37549 115786294.83649      3777.39149        48.000  

  22543783.25849 118468379.87949     -1891.24249        48.000  

  20409878.48449 107254634.39149      9696.09449        50.000  

  20294244.79749 106646975.32849      3191.98049        50.000  

 16 04 02 12 00 51.6000000  0  4G01G24G18G11                                    
  22033327.52349 115785917.21549      3775.28149        48.000  

  22543819.28149 118468569.16849     -1894.54349        48.000  

  20409694.02349 107253665.03949      9690.77749        50.000  

  20294184.07849 106646656.28549      3188.93049        50.000  

 16 04 02 12 00 51.7000000  0  4G01G24G18G11                                    
  22033255.68049 115785539.68049      3774.50049        48.000  

  22543855.34449 118468758.67649     -1896.57049        48.000  

  20409509.64149 107252696.10549      9686.68449        50.000  

  20294123.40649 106646337.45749      3186.91449        50.000  

 16 04 02 12 00 51.8000000  0  4G01G24G18G11                                    
  22033183.86749 115785162.32449      3772.96549        48.000  

  22543891.46149 118468948.48449     -1899.43049        48.000  

  20409325.35249 107251727.67249      9681.87149        50.000  

  20294062.77349 106646018.89149      3184.33649        50.000  

 16 04 02 12 00 51.9000000  0  4G01G24G18G11                                    
  22033112.09449 115784785.16449      3770.69549        48.000  

  22543927.65649 118469138.62549     -1902.92249        48.000  

  20409141.16449 107250759.75449      9676.36749        50.000  

  20294002.21149 106645700.62149      3181.05949        50.000  

 16 04 02 12 00 52.0000000  0  4G01G24G18G11                                    
  22033040.35949 115784408.15649      3769.26249        48.000  

  22543963.89149 118469329.02749     -1905.49249        48.000  

  20408957.06249 107249792.32049      9671.73049        50.000  

  20293941.68849 106645382.60949      3178.70749        50.000  

 16 04 02 12 00 52.1000000  0  4G01G24G18G11                                    
  22032968.64149 115784031.28949      3767.75049        48.000  

  22544000.17249 118469519.70749     -1908.39849        48.000  

  20408773.04749 107248825.33649      9667.08249        50.000  

  20293881.21949 106645064.84049      3176.22349        50.000  

 16 04 02 12 00 52.2000000  0  4G01G24G18G11                                    
  22032896.95349 115783654.55949      3766.53549        48.000  

  22544036.50849 118469710.65249     -1910.97349        48.000  

  20408589.12549 107247858.82449      9662.47349        50.000  

  20293820.78949 106644747.30549      3173.79749        50.000  

 16 04 02 12 00 52.3000000  0  4G01G24G18G11                                    
  22032825.30549 115783278.02349      3764.57449        48.000  

  22544072.90649 118469901.90649     -1914.07849        48.000  

  20408405.30549 107246892.83249      9657.35549        50.000  

  20293760.42249 106644430.07049      3170.95749        50.000  

 16 04 02 12 00 52.4000000  0  4G01G24G18G11                                    
  22032753.68049 115782901.64549      3762.87549        48.000  

  22544109.35949 118470093.46149     -1917.11749        48.000  

  20408221.57049 107245927.32049      9652.38749        50.000  

  20293700.10949 106644113.10549      3168.16849        50.000  

 16 04 02 12 00 52.5000000  0  4G01G24G18G11                                    
  22032682.08649 115782525.42249      3761.28149        48.000  

  22544145.85949 118470285.28149     -1919.85549        48.000  

  20408037.93049 107244962.28549      9647.62549        50.000  

  20293639.84449 106643796.39549      3165.53949        50.000  

 16 04 02 12 00 52.6000000  0  4G01G24G18G11                                    
  22032610.53149 115782149.41049      3759.37549        48.000  

  22544182.43049 118470477.44949     -1923.13349        48.000  

  20407854.39849 107243997.79349      9642.35549        50.000  

  20293579.63349 106643479.99249      3162.60949        50.000  

 16 04 02 12 00 52.7000000  0  4G01G24G18G11                                    
  22032539.01649 115781773.58649      3757.41049        48.000  

  22544219.04749 118470669.93449     -1926.35549        48.000  

  20407670.95349 107243033.81249      9637.10949        50.000  

  20293519.47749 106643163.88349      3159.62149        50.000  

 16 04 02 12 00 52.8000000  0  4G01G24G18G11                                    
  22032467.51649 115781397.91849      3755.97349        48.000  

  22544255.72749 118470862.67649     -1928.85249        48.000  

  20407487.60949 107242070.30149      9632.52349        50.000  

  20293459.38349 106642848.02349      3157.21949        50.000  

 16 04 02 12 00 52.9000000  0  4G01G24G18G11                                    
  22032396.06249 115781022.40649      3754.30549        48.000  

  22544292.46949 118471055.72349     -1931.92649        48.000  

  20407304.35249 107241107.27349      9627.59849        50.000  

