     2.10           OBSERVATION DATA    G (GPS)             RINEX VERSION / TYPE
Convert v1.8.0                          07-Jun-2016 18:56   PGM / RUN BY / DATE 
Signal Strength values S1,S2 are in dBHz                    COMMENT             
                                                            MARKER NAME         
                                                            MARKER NUMBER       
                                                            OBSERVER / AGENCY   
                    NovAtel GPSCard                         REC # / TYPE / VERS 
                                                            ANT # / TYPE        
0.0000        0.0000        0.0000                          APPROX POSITION XYZ 
        0.0000        0.0000        0.0000                  ANTENNA: DELTA H/E/N
     1     1                                                WAVELENGTH FACT L1/2
     1     1     7   G01   G03   G08   G10   G11   G14   G17WAVELENGTH FACT L1/2
     1     1     5   G22   G23   G27   G28   G32            WAVELENGTH FACT L1/2
                                                            COMMENT             
                                                            COMMENT             
                                                            COMMENT             
                                                            COMMENT             
                                                            COMMENT             
     4    C1    L1    D1    S1                              # / TYPES OF OBSERV 
     0.100                                                  INTERVAL            
  2016    04    02    13    46     7.0000000    GPS         TIME OF FIRST OBS   
  2016    04    02    13    50    27.5000000    GPS         TIME OF LAST OBS    
Leap Seconds Unknown                                        COMMENT             
                                                            END OF HEADER       
 16 04 02 13 46  7.0000000  0  1G11                                             
  22315644.59449 117269502.96159      -583.24649        50.000  
 16 04 02 13 46  7.1000000  0  1G11                                             
  22315655.74249 117269561.53949      -588.31249        50.000  
 16 04 02 13 46  7.2000000  0  1G11                                             
  22315667.00049 117269620.67249      -594.16449        50.000  
 16 04 02 13 46  7.3000000  0  1G11                                             
  22315678.36749 117269680.43449      -600.40649        50.000  
 16 04 02 13 46  7.4000000  0  1G11                                             
  22315689.82049 117269740.70749      -605.57849        50.000  
 16 04 02 13 46  7.5000000  0  1G11                                             
  22315701.38349 117269801.46949      -610.41049        50.000  
 16 04 02 13 46  7.6000000  0  1G11                                             
  22315713.03949 117269862.74249      -615.28949        50.000  
 16 04 02 13 46  7.7000000  0  1G11                                             
  22315724.79749 117269924.53149      -620.43849        50.000  
 16 04 02 13 46  7.8000000  0  1G11                                             
  22315736.67249 117269986.87549      -626.12549        50.000  
 16 04 02 13 46  7.9000000  0  1G11                                             
  22315748.64849 117270049.79749      -632.10949        50.000  
 16 04 02 13 46  8.0000000  0  1G11                                             
  22315760.72749 117270113.26649      -637.59049        50.000  
 16 04 02 13 46  8.1000000  0  1G11                                             
  22315772.90649 117270177.28149      -642.84849        50.000  
 16 04 02 13 46  8.2000000  0  1G11                                             
  22315785.16449 117270241.80549      -647.97349        50.000  
 16 04 02 13 46  8.3000000  0  1G11                                             
  22315797.55549 117270306.91049      -653.69949        50.000  
 16 04 02 13 46  8.4000000  0  1G11                                             
  22315810.04749 117270372.55149      -659.23449        50.000  
 16 04 02 13 46  8.5000000  0  1G11                                             
  22315822.64849 117270438.79349      -665.17249        50.000  
 16 04 02 13 46  8.6000000  0  1G11                                             
  22315835.34449 117270505.53149      -670.24649        50.000  
 16 04 02 13 46  8.7000000  0  1G11                                             
  22315848.14149 117270572.78149      -675.16449        50.000  
 16 04 02 13 46  8.8000000  0  1G11                                             
  22315861.03949 117270640.58249      -680.66449        50.000  
 16 04 02 13 46  8.9000000  0  1G11                                             
  22315874.04749 117270708.91449      -685.93449        50.000  
 16 04 02 13 46  9.0000000  0  1G11                                             
  22315887.14849 117270777.74649      -691.23449        50.000  
 16 04 02 13 46  9.1000000  0  1G11                                             
  22315900.35949 117270847.17649      -696.90249        50.000  
 16 04 02 13 46  9.2000000  0  1G11                                             
  22315913.66449 117270917.09849      -701.87149        50.000  
 16 04 02 13 46  9.3000000  0  1G11                                             
  22315927.08649 117270987.64149      -708.26649        50.000  
 16 04 02 13 46  9.4000000  0  1G11                                             
  22315940.62549 117271058.75849      -713.99249        50.000  
 16 04 02 13 46  9.5000000  0  1G11                                             
  22315954.25049 117271130.35549      -718.79349        50.000  
 16 04 02 13 46  9.6000000  0  1G11                                             
  22315967.97749 117271202.48049      -723.83249        50.000  
 16 04 02 13 46  9.7000000  0  1G11                                             
  22315981.79749 117271275.09849      -728.86749        50.000  
 16 04 02 13 46  9.8000000  0  1G11                                             
  22315995.72749 117271348.29749      -734.55549        50.000  
 16 04 02 13 46  9.9000000  0  1G11                                             
  22316009.75049 117271421.98049      -739.51649        50.000  
 16 04 02 13 46 10.0000000  0  1G11                                             
  22316023.87549 117271496.20749      -744.85549        50.000  
 16 04 02 13 46 10.1000000  0  1G11                                             
  22316038.09449 117271570.91849      -749.86349        50.000  
 16 04 02 13 46 10.2000000  0  1G11                                             
  22316052.42249 117271646.20749      -755.32449        50.000  
 16 04 02 13 46 10.3000000  0  1G11                                             
  22316066.85249 117271722.00449      -760.88749        50.000  
 16 04 02 13 46 10.4000000  0  1G11                                             
  22316081.39149 117271798.43049      -767.04749        50.000  
 16 04 02 13 46 10.5000000  0  1G11                                             
  22316096.03149 117271875.35949      -771.93449        50.000  
 16 04 02 13 46 10.6000000  0  1G11                                             
  22316110.75849 117271952.80549      -777.41449        50.000  
 16 04 02 13 46 10.7000000  0  1G11                                             
  22316125.60949 117272030.82849      -783.01249        50.000  
 16 04 02 13 46 10.8000000  0  1G11                                             
  22316140.54749 117272109.35949      -788.12549        50.000  
 16 04 02 13 46 10.9000000  0  1G11                                             
  22316155.59449 117272188.43049      -793.62149        50.000  
 16 04 02 13 46 11.0000000  0  1G11                                             
  22316170.75049 117272268.06649      -798.90249        50.000  
 16 04 02 13 46 11.1000000  0  1G11                                             
  22316186.00849 117272348.23449      -804.48449        50.000  
 16 04 02 13 46 11.2000000  0  1G11                                             
  22316201.35949 117272428.90649      -809.52049        50.000  
 16 04 02 13 46 11.3000000  0  1G11                                             
  22316216.80549 117272510.10249      -814.71549        50.000  
 16 04 02 13 46 11.4000000  0  1G11                                             
  22316232.35949 117272591.86349      -820.26649        50.000  
 16 04 02 13 46 11.5000000  0  1G11                                             
  22316248.02349 117272674.16449      -825.76649        50.000  
 16 04 02 13 46 11.6000000  0  1G11                                             
  22316263.79749 117272757.02349      -831.42649        50.000  
 16 04 02 13 46 11.7000000  0  1G11                                             
  22316279.66449 117272840.39149      -836.50049        50.000  
 16 04 02 13 46 11.8000000  0  1G11                                             
  22316295.65649 117272924.35949      -842.32849        50.000  
 16 04 02 13 46 11.9000000  0  1G11                                             
  22316311.71949 117273008.78949      -846.91849        50.000  
 16 04 02 13 46 12.0000000  0  1G11                                             
  22316327.88349 117273093.73049      -851.92249        50.000  
 16 04 02 13 46 12.1000000  0  1G11                                             
  22316344.15649 117273179.22349      -857.41849        50.000  
 16 04 02 13 46 12.2000000  0  1G11                                             
  22316360.53149 117273265.22749      -862.81249        50.000  
 16 04 02 13 46 12.3000000  0  1G11                                             
  22316377.00049 117273351.79749      -868.47349        50.000  
 16 04 02 13 46 12.4000000  0  1G11                                             
  22316393.58649 117273438.89849      -873.69549        50.000  
 16 04 02 13 46 12.5000000  0  1G11                                             
  22316410.25849 117273526.51649      -878.90249        50.000  
 16 04 02 13 46 12.6000000  0  1G11                                             
  22316427.03149 117273614.70749      -884.65649        50.000  
 16 04 02 13 46 12.7000000  0  1G11                                             
  22316443.90649 117273703.37149      -889.34849        50.000  
 16 04 02 13 46 12.8000000  0  1G11                                             
  22316460.89149 117273792.59849      -894.85949        50.000  
 16 04 02 13 46 12.9000000  0  1G11                                             
  22316477.96949 117273882.34849      -900.18449        50.000  
 16 04 02 13 46 13.0000000  0  1G11                                             
  22316495.16449 117273972.68049      -905.91049        50.000  
 16 04 02 13 46 13.1000000  0  1G11                                             
  22316512.44549 117274063.50449      -910.98849        50.000  
 16 04 02 13 46 13.2000000  0  1G11                                             
  22316529.83649 117274154.88749      -916.52749        50.000  
 16 04 02 13 46 13.3000000  0  1G11                                             
  22316547.33649 117274246.82849      -922.17249        50.000  
 16 04 02 13 46 13.4000000  0  1G11                                             
  22316564.93849 117274339.30149      -927.57449        50.000  
 16 04 02 13 46 13.5000000  0  1G11                                             
  22316582.64149 117274432.33249      -932.93849        50.000  
 16 04 02 13 46 13.6000000  0  2G11G01                                          
  22316600.42249 117274525.82849      -937.81249        50.000  
  22821108.69549 119925734.34059     -9017.51249        49.000  
 16 04 02 13 46 13.7000000  0  3G14G11G01                                       
  25372811.89149 133335025.04359    -12845.39149        49.000  
  22316618.32849 117274619.91049      -943.37149        50.000  
  22821280.34449 119926636.37549     -9023.00049        49.000  
 16 04 02 13 46 13.8000000  0  3G14G11G01                                       
  25373056.36749 133336309.80149    -12850.24249        49.000  
  22316636.32849 117274714.49249      -948.66449        50.000  
  22821452.10249 119927538.91049     -9028.27049        49.000  
 16 04 02 13 46 13.9000000  0  4G14G11G22G01                                    
  25373300.96149 133337595.10249    -12855.50049        50.000  
  22316654.43049 117274809.63749      -954.14549        50.000  
  22678517.91449 119176414.83659      5746.76649        49.000  
  22821623.95349 119928442.02349     -9033.93849        49.000  
 16 04 02 13 46 14.0000000  0  4G14G11G22G01                                    
  25373545.63349 133338880.85949    -12860.17649        50.000  
  22316672.62549 117274905.29349      -959.27349        50.000  
  22678408.60949 119175840.45749      5740.24249        49.000  
  22821795.91449 119929345.63349     -9038.97349        49.000  
 16 04 02 13 46 14.1000000  0  4G14G11G22G01                                    
  25373790.42249 133340167.14149    -12865.55549        50.000  
  22316690.93849 117275001.50849      -965.08249        50.000  
  22678299.41449 119175266.78149      5733.08649        49.000  
  22821967.96949 119930249.80149     -9044.71549        49.000  
 16 04 02 13 46 14.2000000  0  4G14G11G22G01                                    
  25374035.28949 133341453.91849    -12870.35549        50.000  
  22316709.33649 117275098.24249      -970.18449        50.000  
  22678190.37549 119174693.77349      5726.47349        49.000  
  22822140.14149 119931154.51249     -9049.87149        49.000  
 16 04 02 13 46 14.3000000  0  4G14G11G22G01                                    
  25374280.25049 133342741.10949    -12874.44549        50.000  
  22316727.82849 117275195.43849      -974.53549        50.000  
  22678081.43849 119174121.36749      5720.68849        49.000  
  22822312.38349 119932059.67249     -9054.35249        49.000  
 16 04 02 13 46 14.4000000  0  4G14G11G22G01                                    
  25374525.29749 133344028.85249    -12879.84849        49.000  
  22316746.43849 117275293.21949      -980.46149        50.000  
  22677972.65649 119173549.69949      5713.31249        49.000  
  22822484.72749 119932965.42249     -9060.23849        49.000  
 16 04 02 13 46 14.5000000  0  4G14G11G22G01                                    
  25374770.44549 133345317.11749    -12885.10249        49.000  
  22316765.15649 117275391.57049      -986.27349        50.000  
  22677864.00049 119172978.73049      5706.06249        49.000  
  22822657.19549 119933871.73849     -9066.05549        49.000  
 16 04 02 13 46 14.6000000  0  4G14G11G22G01                                    
  25375015.69549 133346605.91849    -12890.59449        49.000  
  22316783.97749 117275490.46949      -991.85549        50.000  
  22677755.48449 119172408.47749      5698.98049        49.000  
  22822829.77349 119934778.61749     -9071.71549        49.000  
 16 04 02 13 46 14.7000000  0  4G14G11G22G01                                    
  25375261.03949 133347895.24249    -12895.92649        49.000  
  22316802.90649 117275589.93449      -997.35549        50.000  
  22677647.09449 119171838.91849      5691.98449        49.000  
  22823002.45349 119935686.05949     -9077.30949        49.000  
 16 04 02 13 46 14.8000000  0  4G14G11G22G01                                    
  25375506.48449 133349185.03949    -12900.41449        49.000  
  22316821.91449 117275689.92249     -1002.52749        50.000  
  22677538.83649 119171270.03149      5685.45349        49.000  
  22823175.25049 119936594.02749     -9082.28549        49.000  
 16 04 02 13 46 14.9000000  0  4G14G11G22G01                                    
  25375752.01649 133350475.24249    -12904.56249        49.000  
  22316841.02349 117275790.34049     -1006.86349        50.000  
  22677430.67249 119170701.71549      5679.60949        49.000  
  22823348.10949 119937502.42649     -9086.78949        49.000  
 16 04 02 13 46 15.0000000  0  4G14G11G22G01                                    
  25375997.63349 133351765.96949    -12909.73849        49.000  
  22316860.24249 117275891.31649     -1012.30549        50.000  
  22677322.65649 119170134.10549      5672.73849        49.000  
  22823521.07849 119938411.38749     -9092.36349        49.000  
 16 04 02 13 46 15.1000000  0  4G14G11G22G01                                    
  25376243.31249 133353057.14149    -12914.16049        49.000  
  22316879.55549 117275992.80149     -1017.36349        50.000  
  22677214.77349 119169567.14149      5666.41049        49.000  
  22823694.14149 119939320.85249     -9097.22749        49.000  
 16 04 02 13 46 15.2000000  0  4G14G11G22G01                                    
  25376489.10949 133354348.82049    -12919.22749        49.000  
  22316898.97749 117276094.81249     -1022.74649        50.000  
  22677107.01649 119169000.85949      5659.24249        49.000  
  22823867.31249 119940230.84049     -9102.76249        49.000  
 16 04 02 13 46 15.3000000  0  4G14G11G22G01                                    
  25376735.02349 133355641.02049    -12924.52749        49.000  
  22316918.49249 117276197.37149     -1028.44949        50.000  
  22676999.39149 119168435.25849      5652.43449        49.000  
  22824040.58649 119941141.38749     -9108.27749        49.000  
 16 04 02 13 46 15.4000000  0  4G14G11G22G01                                    
  25376981.01649 133356933.73049    -12929.56649        49.000  
  22316938.10949 117276300.47749     -1033.71549        50.000  
  22676891.89149 119167870.36349      5645.66449        49.000  
  22824213.96149 119942052.50049     -9113.74249        49.000  
 16 04 02 13 46 15.5000000  0  4G14G11G22G01                                    
  25377227.09449 133358226.89549    -12934.08649        49.000  
  22316957.82849 117276404.08249     -1038.62549        50.000  
  22676784.52349 119167306.10249      5639.24649        49.000  
  22824387.43049 119942964.08649     -9118.59849        49.000  
 16 04 02 13 46 15.6000000  0  4G14G11G22G01                                    
  25377473.27349 133359520.56649    -12939.37149        49.000  
  22316977.64849 117276508.23849     -1044.32449        50.000  
  22676677.27349 119166742.53549      5632.11749        49.000  
  22824561.00049 119943876.24249     -9124.34849        49.000  
 16 04 02 13 46 15.7000000  0  4G14G11G22G01                                    
  25377719.53949 133360814.75849    -12944.37549        49.000  
  22316997.57049 117276612.94549     -1049.74649        50.000  
  22676570.15649 119166179.66849      5625.30549        49.000  
  22824734.68049 119944788.94149     -9129.68849        49.000  
 16 04 02 13 46 15.8000000  0  4G14G11G22G01                                    
  25377965.90649 133362109.42249    -12949.19949        49.000  
  22317017.59449 117276718.15249     -1054.78149        50.000  
  22676463.17249 119165617.46149      5618.60949        49.000  
  22824908.44549 119945702.15249     -9134.88749        49.000  
 16 04 02 13 46 15.9000000  0  4G14G11G22G01                                    
  25378212.35949 133363404.61349    -12954.46949        49.000  
  22317037.72749 117276823.93849     -1060.54749        50.000  
  22676356.32849 119165055.95749      5611.31649        49.000  
  22825082.32849 119946615.93849     -9140.77049        49.000  
 16 04 02 13 46 16.0000000  0  4G14G11G22G01                                    
  25378458.91449 133364700.29749    -12959.25449        49.000  
  22317057.96149 117276930.24649     -1065.70349        49.000  
  22676249.60249 119164495.12149      5604.96549        49.000  
  22825256.33649 119947530.24649     -9145.82049        49.000  
 16 04 02 13 46 16.1000000  0  4G14G11G22G01                                    
  25378705.56249 133365996.48049    -12964.37149        49.000  
  22317078.28949 117277037.09449     -1071.12949        50.000  
  22676143.00049 119163934.96949      5598.08649        49.000  
  22825430.43049 119948445.10249     -9151.27749        49.000  
 16 04 02 13 46 16.2000000  0  4G14G11G22G01                                    
  25378952.30549 133367293.10549    -12968.72749        49.000  
  22317098.71149 117277144.42249     -1075.96949        50.000  
  22676036.52349 119163375.45349      5591.70349        49.000  
  22825604.60249 119949360.42649     -9156.03149        49.000  
 16 04 02 13 46 16.3000000  0  4G14G11G22G01                                    
  25379199.15649 133368590.25849    -12974.06249        50.000  
  22317119.24249 117277252.31249     -1081.62549        50.000  
  22675930.18049 119162816.64149      5584.55549        49.000  
  22825778.89149 119950276.32449     -9161.79349        49.000  
 16 04 02 13 46 16.4000000  0  4G14G11G22G01                                    
  25379446.08649 133369887.87549    -12978.48449        49.000  
  22317139.86749 117277360.69949     -1086.41849        50.000  
  22675823.96149 119162258.46149      5578.42249        49.000  
  22825953.26649 119951192.72349     -9166.56649        49.000  
 16 04 02 13 46 16.5000000  0  4G14G11G22G01                                    
  25379693.10249 133371186.03549    -12984.20749        49.000  
  22317160.60249 117277469.66049     -1092.41049        50.000  
  22675717.88349 119161701.02049      5570.82849        49.000  
  22826127.75849 119952109.70349     -9172.68449        49.000  
 16 04 02 13 46 16.6000000  0  4G14G11G22G01                                    
  25379940.23449 133372484.69949    -12989.29349        49.000  
  22317181.44549 117277579.18449     -1098.10949        50.000  
  22675611.93049 119161144.26249      5563.85249        49.000  
  22826302.36749 119953027.23049     -9178.30549        49.000  
 16 04 02 13 46 16.7000000  0  4G14G11G22G01                                    
  25380187.43849 133373783.87949    -12994.34049        49.000  
  22317202.38349 117277689.24649     -1103.38349        50.000  
  22675506.10249 119160588.20349      5557.09049        49.000  
  22826477.07849 119953945.31649     -9183.68449        49.000  
 16 04 02 13 46 16.8000000  0  4G14G11G22G01                                    
  25380434.75049 133375083.52749    -12998.80949        49.000  
  22317223.43049 117277799.81249     -1108.19549        49.000  
  22675400.41449 119160032.79749      5550.70349        49.000  
  22826651.86749 119954863.89549     -9188.44149        49.000  
 16 04 02 13 46 16.9000000  0  4G14G11G22G01                                    
  25380682.14149 133376383.61749    -13003.33249        49.000  
  22317244.56249 117277910.87549     -1113.31249        50.000  
  22675294.83649 119159478.01649      5544.28949        49.000  
  22826826.76649 119955782.97349     -9193.55949        49.000  
 16 04 02 13 46 17.0000000  0  4G14G11G22G01                                    
  25380929.64849 133377684.28949    -13009.17649        49.000  
  22317265.81249 117278022.53949     -1119.37549        50.000  
  22675189.40649 119158923.99649      5536.59049        49.000  
  22827001.78949 119956702.65649     -9199.71549        49.000  
 16 04 02 13 46 17.1000000  0  4G14G11G22G01                                    
  25381177.25849 133378985.42649    -13013.85549        49.000  
  22317287.15649 117278134.71149     -1124.41849        50.000  
  22675084.12549 119158370.62149      5530.25449        49.000  
  22827176.89849 119957622.85549     -9204.79349        49.000  
 16 04 02 13 46 17.2000000  0  4G14G11G22G01                                    
  25381424.94549 133380287.05149    -13018.60249        49.000  
  22317308.60949 117278247.41049     -1129.53949        50.000  
  22674978.94549 119157817.92249      5523.60949        49.000  
  22827352.08649 119958543.56649     -9209.85549        49.000  
 16 04 02 13 46 17.3000000  0  4G14G11G22G01                                    
  25381672.73449 133381589.14849    -13023.28149        50.000  
  22317330.14849 117278360.61349     -1134.59449        50.000  
  22674873.92249 119157265.86349      5517.14149        49.000  
  22827527.39149 119959464.79749     -9214.91049        49.000  
 16 04 02 13 46 17.4000000  0  4G14G11G22G01                                    
  25381920.61749 133382891.76249    -13028.67249        50.000  
  22317351.79749 117278474.37549     -1140.28149        50.000  
  22674769.00049 119156714.51649      5510.02349        49.000  
  22827702.79749 119960386.58649     -9220.66049        49.000  
 16 04 02 13 46 17.5000000  0  4G14G11G22G01                                    
  25382168.57849 133384194.91049    -13033.98049        50.000  
  22317373.55549 117278588.69549     -1145.93049        50.000  
  22674664.23449 119156163.88349      5502.84049        49.000  
  22827878.31249 119961308.94149     -9226.37149        49.000  
 16 04 02 13 46 17.6000000  0  4G14G11G22G01                                    
  25382416.64849 133385498.51249    -13038.74249        50.000  
  22317395.40649 117278703.52049     -1151.00049        50.000  
  22674559.57849 119155613.88749      5496.36349        49.000  
  22828053.93849 119962231.78949     -9231.35549        49.000  
 16 04 02 13 46 17.7000000  0  4G14G11G22G01                                    
  25382664.80549 133386802.64549    -13043.91449        50.000  
  22317417.36749 117278818.92249     -1156.70349        50.000  
  22674455.05549 119155064.60949      5489.26649        49.000  
  22828229.65649 119963155.21949     -9237.12949        49.000  
 16 04 02 13 46 17.8000000  0  4G14G11G22G01                                    
  25382913.06249 133388107.26649    -13048.84849        50.000  
  22317439.43049 117278934.83649     -1161.97749        50.000  
  22674350.65649 119154515.99249      5482.49649        49.000  
  22828405.50849 119964079.16049     -9242.41849        49.000  
 16 04 02 13 46 17.9000000  0  4G14G11G22G01                                    
  25383161.41449 133389412.44549    -13054.31249        50.000  
  22317461.60949 117279051.35249     -1167.96549        50.000  
  22674246.39149 119153968.12949      5475.21149        49.000  
  22828581.44549 119965003.72349     -9248.39549        49.000  
 16 04 02 13 46 18.0000000  0  4G14G11G22G01                                    
  25383409.87549 133390718.09449    -13059.05549        49.000  
  22317483.86749 117279168.37549     -1173.09049        50.000  
  22674142.26649 119153420.91449      5468.53549        49.000  
  22828757.50049 119965928.77349     -9253.44949        49.000  
 16 04 02 13 46 18.1000000  0  4G14G11G22G01                                    
  25383658.42249 133392024.23849    -13064.04749        49.000  
  22317506.23449 117279285.92649     -1178.32049        50.000  
  22674038.24249 119152874.37549      5461.80949        49.000  
  22828933.63349 119966854.36749     -9258.81649        49.000  
 16 04 02 13 46 18.2000000  0  4G14G11G22G01                                    
  25383907.07049 133393330.90249    -13069.10549        49.000  
  22317528.71149 117279404.03549     -1183.71949        50.000  
  22673934.37549 119152328.53149      5454.98049        49.000  
  22829109.89149 119967780.51249     -9264.18049        49.000  
 16 04 02 13 46 18.3000000  0  4G14G11G22G01                                    
  25384155.78949 133394638.03949    -13074.06649        49.000  
  22317551.28949 117279522.66449     -1189.13349        50.000  
  22673830.64149 119151783.35949      5448.12549        49.000  
  22829286.23449 119968707.18049     -9269.59449        49.000  
 16 04 02 13 46 18.4000000  0  4G14G11G22G01                                    
  25384404.64149 133395945.73849    -13079.61349        50.000  
  22317573.96949 117279641.87949     -1194.94949        50.000  
  22673727.03949 119151238.91449      5440.94549        49.000  
  22829462.67249 119969634.43849     -9275.45349        49.000  
 16 04 02 13 46 18.5000000  0  4G14G11G22G01                                    
  25384653.59449 133397253.90249    -13084.37149        50.000  
  22317596.75049 117279761.60949     -1200.14849        50.000  
  22673623.56249 119150695.14549      5433.96949        49.000  
  22829639.22749 119970562.20749     -9280.68449        49.000  
 16 04 02 13 46 18.6000000  0  4G14G11G22G01                                    
  25384902.60949 133398562.51649    -13088.65649        49.000  
  22317619.62549 117279881.81649     -1204.69549        50.000  
  22673520.20349 119150151.98049      5428.09049        49.000  
  22829815.86749 119971490.45749     -9285.18849        49.000  
 16 04 02 13 46 18.7000000  0  4G14G11G22G01                                    
  25385151.76649 133399871.68449    -13094.02049        49.000  
  22317642.61749 117280002.62949     -1210.60249        50.000  
  22673416.97749 119149609.57849      5420.70349        49.000  
  22829992.61749 119972419.32049     -9291.22749        49.000  
 16 04 02 13 46 18.8000000  0  4G14G11G22G01                                    
  25385400.97749 133401181.29349    -13098.55949        49.000  
  22317665.70349 117280123.91449     -1215.53949        50.000  
  22673313.87549 119149067.77749      5414.49249        49.000  
  22830169.46149 119973348.64549     -9296.02049        49.000  
 16 04 02 13 46 18.9000000  0  4G14G11G22G01                                    
  25385650.28949 133402491.40249    -13103.73449        49.000  
  22317688.89149 117280245.73849     -1221.01249        50.000  
  22673210.89149 119148526.67249      5407.51649        49.000  
  22830346.41449 119974278.52349     -9301.64549        49.000  
 16 04 02 13 46 19.0000000  0  4G14G11G22G01                                    
  25385899.70349 133403802.07849    -13109.22349        49.000  
  22317712.18849 117280368.15649     -1226.89549        50.000  
  22673108.06249 119147986.31649      5400.07449        49.000  
  22830523.47749 119975208.99249     -9307.43849        49.000  
 16 04 02 13 46 19.1000000  0  4G14G11G22G01                                    
  25386149.21949 133405113.17649    -13113.68449        49.000  
  22317735.57049 117280491.04749     -1231.82449        50.000  
  22673005.35249 119147446.56649      5393.82449        49.000  
  22830700.62549 119976139.93049     -9312.29349        49.000  
 16 04 02 13 46 19.2000000  0  4G14G11G22G01                                    
  25386398.80549 133406424.76249    -13118.16849        49.000  
  22317759.06249 117280614.46549     -1236.81249        50.000  
  22672902.77349 119146907.48849      5387.36349        49.000  
  22830877.89149 119977071.40249     -9317.37149        49.000  
 16 04 02 13 46 19.3000000  0  4G14G11G22G01                                    
  25386648.50049 133407736.89149    -13123.79349        49.000  
  22317782.65649 117280738.46149     -1242.64149        50.000  
  22672800.32849 119146369.14149      5379.97749        49.000  
  22831055.25049 119978003.45349     -9323.27749        49.000  
 16 04 02 13 46 19.4000000  0  4G14G11G22G01                                    
  25386898.28149 133409049.49649    -13128.55949        49.000  
  22317806.34449 117280862.96949     -1247.69949        50.000  
  22672698.00849 119145831.44549      5373.42649        49.000  
  22831232.70349 119978936.01649     -9328.37949        49.000  
 16 04 02 13 46 19.5000000  0  4G14G11G22G01                                    
  25387148.17249 133410362.59049    -13133.53549        49.000  
  22317830.14149 117280988.00849     -1253.22349        49.000  
  22672595.82049 119145294.43049      5366.44549        49.000  
  22831410.26649 119979869.10949     -9333.85949        49.000  
 16 04 02 13 46 19.6000000  0  4G14G11G22G01                                    
  25387398.14849 133411676.22349    -13139.04749        49.000  
  22317854.03949 117281113.61749     -1258.93849        49.000  
  22672493.76649 119144758.12949      5359.30549        49.000  
  22831587.93049 119980802.77749     -9339.68449        49.000  
 16 04 02 13 46 19.7000000  0  4G14G11G22G01                                    
  25387648.22749 133412990.39549    -13144.35949        49.000  
  22317878.04749 117281239.81249     -1264.82449        49.000  
  22672391.84449 119144222.56249      5351.97749        49.000  
  22831765.71149 119981737.02749     -9345.50849        49.000  
 16 04 02 13 46 19.8000000  0  4G14G11G22G01                                    
  25387898.39149 133414305.03549    -13149.02049        49.000  
  22317902.15649 117281366.50449     -1269.72749        49.000  
  22672290.05549 119143687.63749      5345.60249        49.000  
  22831943.59449 119982671.77749     -9350.46949        49.000  
 16 04 02 13 46 19.9000000  0  4G14G11G22G01                                    
  25388148.64849 133415620.15649    -13153.50049        49.000  
  22317926.36749 117281493.72749     -1274.71549        49.000  
  22672188.39149 119143153.37949      5339.23449        49.000  
  22832121.57849 119983607.06249     -9355.41849        49.000  
 16 04 02 13 46 20.0000000  0  4G14G11G22G01                                    
  25388398.99249 133416935.71549    -13157.92649        49.000  
  22317950.67249 117281621.42249     -1279.64849        49.000  
  22672086.84449 119142619.74649      5332.85549        49.000  
  22832299.63349 119984542.81649     -9360.35549        49.000  
 16 04 02 13 46 20.1000000  0  4G14G11G22G01                                    
  25388649.43049 133418251.74249    -13162.39549        49.000  
  22317975.07049 117281749.61349     -1284.29749        49.000  
  22671985.43049 119142086.75849      5326.71549        49.000  
  22832477.79749 119985479.07449     -9365.07849        49.000  
 16 04 02 13 46 20.2000000  0  4G14G11G22G01                                    
  25388899.96149 133419568.26249    -13167.46549        49.000  
  22317999.56249 117281878.34049     -1289.81249        49.000  
  22671884.13349 119141554.44949      5319.75049        49.000  
  22832656.07849 119986415.86349     -9370.57049        49.000  
 16 04 02 13 46 20.3000000  0  4G14G11G22G01                                    
  25389150.57049 133420885.26249    -13172.51649        49.000  
  22318024.15649 117282007.58649     -1295.09849        50.000  
  22671782.96149 119141022.80149      5313.05949        49.000  
  22832834.43849 119987353.17649     -9375.88749        49.000  
 16 04 02 13 46 20.4000000  0  4G14G11G22G01                                    
  25389401.27349 133422202.72749    -13177.15649        49.000  
  22318048.85949 117282137.34449     -1300.18049        49.000  
  22671681.91449 119140491.82449      5306.35249        49.000  
  22833012.90649 119988290.99249     -9380.91049        49.000  
 16 04 02 13 46 20.5000000  0  4G14G11G22G01                                    
  25389652.07849 133423520.71549    -13182.28949        49.000  
  22318073.65649 117282267.66849     -1305.87149        49.000  
  22671581.01649 119139961.55149      5299.18049        49.000  
  22833191.47749 119989229.38749     -9386.69949        49.000  
 16 04 02 13 46 20.6000000  0  4G14G11G22G01                                    
  25389902.96949 133424839.15649    -13186.89849        49.000  
  22318098.54749 117282398.46549     -1310.72349        49.000  
  22671480.22749 119139431.88749      5293.06649        49.000  
  22833370.14149 119990168.24649     -9391.44549        49.000  
 16 04 02 13 46 20.7000000  0  4G14G11G22G01                                    
  25390153.96949 133426158.11349    -13192.12149        49.000  
  22318123.54749 117282529.83249     -1316.28949        49.000  
  22671379.57849 119138902.95349      5285.91849        49.000  
  22833548.90649 119991107.68849     -9397.15249        49.000  
 16 04 02 13 46 20.8000000  0  4G14G11G22G01                                    
  25390405.05549 133427477.58649    -13197.27049        49.000  
  22318148.64849 117282661.74249     -1321.88749        49.000  
  22671279.05549 119138374.69549      5278.92649        49.000  
  22833727.78949 119992047.66449     -9402.64549        49.000  
 16 04 02 13 46 20.9000000  0  4G14G11G22G01                                    
  25390656.25049 133428797.54349    -13202.25049        49.000  
  22318173.85249 117282794.18449     -1327.23049        49.000  
  22671178.65649 119137847.12549      5272.09449        49.000  
  22833906.75849 119992988.17649     -9407.97749        49.000  
 16 04 02 13 46 21.0000000  0  4G14G11G22G01                                    
  25390907.51649 133430117.96549    -13206.84449        49.000  
  22318199.14849 117282927.12149     -1332.17249        49.000  
  22671078.39149 119137320.19549      5265.69549        49.000  
  22834085.83649 119993929.19149     -9413.07049        49.000  
 16 04 02 13 46 21.1000000  0  4G14G11G22G01                                    
  25391158.86749 133431438.87949    -13211.46149        49.000  
  22318224.54749 117283060.59849     -1337.21149        49.000  
  22670978.26649 119136793.94149      5259.25849        49.000  
  22834265.00049 119994870.73049     -9418.00049        49.000  
 16 04 02 13 46 21.2000000  0  4G14G11G22G01                                    
  25391410.32049 133432760.27749    -13216.53149        49.000  
  22318250.05549 117283194.59449     -1342.68849        49.000  
  22670878.25049 119136268.35949      5252.34049        49.000  
  22834444.28949 119995812.80949     -9423.53549        49.000  
 16 04 02 13 46 21.3000000  0  4G14G11G22G01                                    
  25391661.86749 133434082.18449    -13221.66849        49.000  
  22318275.65649 117283329.13749     -1348.22749        49.000  
  22670778.35949 119135743.47749      5245.30549        49.000  
  22834623.66449 119996755.41849     -9429.04749        49.000  
 16 04 02 13 46 21.4000000  0  4G14G11G22G01                                    
  25391913.52349 133435404.65649    -13227.17249        49.000  
  22318301.37549 117283464.28949     -1354.16849        49.000  
  22670678.61749 119135219.34449      5237.88749        49.000  
  22834803.14149 119997698.64549     -9434.99249        49.000  
 16 04 02 13 46 21.5000000  0  4G14G11G22G01                                    
  25392165.25049 133436727.57849    -13231.73049        49.000  
  22318327.18849 117283599.91849     -1359.02749        49.000  
  22670578.99249 119134695.83249      5231.56249        49.000  
  22834982.72749 119998642.35949     -9440.01249        49.000  
 16 04 02 13 46 21.6000000  0  4G14G11G22G01                                    
  25392417.08649 133438050.96149    -13236.39149        49.000  
  22318353.09449 117283736.05949     -1364.13749        49.000  
  22670479.50049 119134172.98049      5224.89849        49.000  
  22835162.39149 119999586.57049     -9445.05149        49.000  
 16 04 02 13 46 21.7000000  0  4G14G11G22G01                                    
  25392669.03949 133439374.94149    -13242.39849        49.000  
  22318379.11749 117283872.83249     -1370.49249        49.000  
  22670380.16449 119133650.90249      5217.25849        49.000  
  22835342.18849 120000531.42649     -9451.43049        49.000  
 16 04 02 13 46 21.8000000  0  4G14G11G22G01                                    
  25392921.08649 133440699.44149    -13247.68849        49.000  
  22318405.25849 117284010.16049     -1376.13749        49.000  
  22670280.95349 119133129.53549      5210.05549        49.000  
  22835522.07849 120001476.82849     -9457.00449        49.000  
 16 04 02 13 46 21.9000000  0  4G14G11G22G01                                    
  25393173.22749 133442024.42249    -13252.35549        49.000  
  22318431.48449 117284148.01649     -1381.31249        49.000  
  22670181.85949 119132608.83249      5203.46549        49.000  
  22835702.08649 120002422.76249     -9462.16449        49.000  
 16 04 02 13 46 22.0000000  0  4G14G11G22G01                                    
  25393425.43849 133443349.83649    -13256.59049        49.000  
  22318457.81249 117284286.33249     -1385.77749        49.000  
  22670082.89149 119132088.74249      5197.51249        49.000  
  22835882.18049 120003369.16049     -9466.75049        49.000  
 16 04 02 13 46 22.1000000  0  4G14G11G22G01                                    
  25393677.74249 133444675.69549    -13261.12949        49.000  
  22318484.22749 117284425.15249     -1390.88349        49.000  
  22669984.03949 119131569.30149      5190.81249        49.000  
  22836062.36749 120004316.06649     -9471.84049        49.000  
 16 04 02 13 46 22.2000000  0  4G14G11G22G01                                    
  25393930.14849 133446002.08249    -13266.11749        49.000  
  22318510.75049 117284564.51649     -1396.12149        49.000  
  22669885.32049 119131050.55149      5184.21149        49.000  
  22836242.66449 120005263.50449     -9476.89549        49.000  
 16 04 02 13 46 22.3000000  0  4G14G11G22G01                                    
  25394182.64849 133447328.97349    -13271.50049        49.000  
  22318537.36749 117284704.42649     -1401.80949        49.000  
  22669786.72749 119130532.48849      5177.08649        49.000  
  22836423.06249 120006211.49649     -9482.75049        49.000  
 16 04 02 13 46 22.4000000  0  4G14G11G22G01                                    
  25394435.23449 133448656.32849    -13276.19149        49.000  
  22318564.08649 117284844.85549     -1407.07049        49.000  
  22669688.26649 119130015.09449      5170.37149        49.000  
  22836603.54749 120007160.01249     -9488.02049        49.000  
 16 04 02 13 46 22.5000000  0  4G14G11G22G01                                    
  25394687.90649 133449984.18849    -13280.84049        49.000  
  22318590.91449 117284985.81649     -1411.96549        49.000  
  22669589.94549 119129498.37149      5163.98049        49.000  
  22836784.14849 120008109.04749     -9492.92249        49.000  
 16 04 02 13 46 22.6000000  0  4G14G11G22G01                                    
  25394940.66449 133451312.46949    -13285.47349        49.000  
  22318617.83649 117285127.25449     -1417.16849        49.000  
  22669491.73449 119128982.28549      5157.24249        49.000  
  22836964.85949 120009058.56649     -9498.08249        49.000  
 16 04 02 13 46 22.7000000  0  4G14G11G22G01                                    
  25395193.55549 133452641.37149    -13291.70749        49.000  
  22318644.86749 117285269.33249     -1423.62149        49.000  
  22669393.68049 119128466.97749      5149.37149        49.000  
  22837145.67249 120010008.73449     -9504.64549        49.000  
 16 04 02 13 46 22.8000000  0  4G14G11G22G01                                    
  25395446.52349 133453970.71149    -13295.85949        49.000  
  22318672.00049 117285411.90249     -1428.26649        49.000  
  22669295.74249 119127952.30949      5143.19549        49.000  
  22837326.57049 120010959.39149     -9509.22749        49.000  
 16 04 02 13 46 22.9000000  0  4G14G11G22G01                                    
  25395699.58649 133455300.53549    -13300.81249        49.000  
  22318699.22749 117285554.98449     -1433.66449        49.000  
  22669197.92249 119127438.29349      5136.48049        49.000  
  22837507.57049 120011910.54749     -9514.54349        49.000  
 16 04 02 13 46 23.0000000  0  4G14G11G22G01                                    
  25395952.75049 133456630.91449    -13306.38349        49.000  
  22318726.57049 117285698.66449     -1439.52749        49.000  
  22669100.25849 119126925.03149      5129.06649        49.000  
  22837688.68849 120012862.32849     -9520.54349        49.000  
 16 04 02 13 46 23.1000000  0  4G14G11G22G01                                    
  25396206.00849 133457961.73449    -13310.83649        49.000  
  22318754.00849 117285842.84049     -1444.40649        49.000  
  22669002.68849 119126412.39849      5122.85549        49.000  
  22837869.89849 120013814.57849     -9525.32849        49.000  
 16 04 02 13 46 23.2000000  0  4G14G11G22G01                                    
  25396459.35249 133459293.05549    -13315.75849        49.000  
  22318781.53149 117285987.53549     -1449.73849        49.000  
  22668905.26649 119125900.43449      5116.06249        49.000  
  22838051.20349 120014767.35949     -9530.69149        49.000  
 16 04 02 13 46 23.3000000  0  4G14G11G22G01                                    
  25396712.78949 133460624.91049    -13321.19149        49.000  
  22318809.18049 117286132.81249     -1455.52749        49.000  
  22668807.98449 119125389.21149      5108.80149        49.000  
  22838232.62549 120015720.72749     -9536.45749        49.000  
 16 04 02 13 46 23.4000000  0  4G14G11G22G01                                    
  25396966.32849 133461957.25849    -13326.05949        49.000  
  22318836.92249 117286278.62949     -1460.98049        49.000  
  22668710.83649 119124878.66849      5101.84449        49.000  
  22838414.15649 120016674.63349     -9542.02749        49.000  
 16 04 02 13 46 23.5000000  0  4G14G11G22G01                                    
  25397219.96149 133463290.09049    -13330.74649        49.000  
  22318864.77349 117286424.95349     -1466.04349        49.000  
  22668613.79749 119124368.77749      5095.41049        49.000  
  22838595.77349 120017629.03949     -9546.91449        49.000  
 16 04 02 13 46 23.6000000  0  4G14G11G22G01                                    
  25397473.68849 133464623.42249    -13335.71949        49.000  
  22318892.71949 117286571.82849     -1471.34049        49.000  
  22668516.90649 119123859.58249      5088.57849        49.000  
  22838777.48449 120018584.00449     -9552.20749        49.000  
 16 04 02 13 46 23.7000000  0  4G14G11G22G01                                    
  25397727.49249 133465957.23449    -13340.56649        49.000  
  22318920.76649 117286719.22749     -1476.56649        49.000  
  22668420.14849 119123351.05949      5081.94149        49.000  
  22838959.30549 120019539.49249     -9557.45349        49.000  
 16 04 02 13 46 23.8000000  0  4G14G11G22G01                                    
  25397981.40649 133467291.54349    -13345.43049        49.000  
  22318948.91449 117286867.14549     -1481.79349        49.000  
  22668323.50849 119122843.21549      5075.04349        49.000  
  22839141.22749 120020495.51649     -9562.86349        49.000  
 16 04 02 13 46 23.9000000  0  4G14G11G22G01                                    
  25398235.39149 133468626.33649    -13350.58249        49.000  
  22318977.17249 117287015.60549     -1487.37949        49.000  
  22668227.00049 119122336.03549      5068.15649        49.000  
  22839323.25049 120021452.05549     -9568.30949        49.000  
 16 04 02 13 46 24.0000000  0  4G14G11G22G01                                    
  25398489.48449 133469961.62549    -13355.41049        49.000  
  22319005.53149 117287164.59049     -1492.62549        49.000  
  22668130.61749 119121829.54349      5061.32849        49.000  
  22839505.38349 120022409.12949     -9573.58249        49.000  
 16 04 02 13 46 24.1000000  0  4G14G11G22G01                                    
  25398743.68049 133471297.35949    -13359.78949        49.000  
  22319033.96949 117287314.06249     -1497.26249        49.000  
  22668034.35949 119121323.68449      5055.24249        49.000  
  22839687.60249 120023366.69549     -9578.36749        49.000  
 16 04 02 13 46 24.2000000  0  4G14G11G22G01                                    
  25398997.96149 133472633.60949    -13365.03549        49.000  
  22319062.52349 117287464.09049     -1502.94149        49.000  
  22667938.22749 119120818.51649      5048.15649        49.000  
  22839869.92249 120024324.80949     -9583.99649        49.000  
 16 04 02 13 46 24.3000000  0  4G14G11G22G01                                    
  25399252.32849 133473970.30949    -13369.61349        49.000  
  22319091.16449 117287614.61749     -1508.01649        49.000  
  22667842.21949 119120314.00849      5041.57449        49.000  
  22840052.34449 120025283.43049     -9589.07849        49.000  
 16 04 02 13 46 24.4000000  0  4G14G11G22G01                                    
  25399506.78949 133475307.53149    -13374.77049        49.000  
  22319119.92249 117287765.69949     -1513.53149        49.000  
  22667746.34449 119119810.18849      5034.61349        49.000  
  22840234.86749 120026242.59849     -9594.53149        49.000  
 16 04 02 13 46 24.5000000  0  4G14G11G22G01                                    
  25399761.35249 133476645.29749    -13380.18049        49.000  
  22319148.78149 117287917.35949     -1519.38349        49.000  
  22667650.60949 119119307.09849      5027.37549        49.000  
  22840417.50849 120027202.35249     -9600.36349        49.000  
 16 04 02 13 46 24.6000000  0  4G14G11G22G01                                    
  25400016.01649 133477983.54349    -13385.10549        49.000  
  22319177.74249 117288069.55549     -1524.75449        49.000  
  22667555.00049 119118804.68849      5020.57449        49.000  
  22840600.21149 120028162.63749     -9605.70749        49.000  
 16 04 02 13 46 24.7000000  0  4G14G11G22G01                                    
  25400270.74249 133479322.23849    -13389.35549        49.000  
  22319206.78949 117288222.21549     -1529.22749        49.000  
  22667459.53149 119118302.90649      5014.44549        49.000  
  22840783.03949 120029123.38749     -9610.19949        49.000  
 16 04 02 13 46 24.8000000  0  4G14G11G22G01                                    
  25400525.58649 133480661.43049    -13394.48049        49.000  
  22319235.95349 117288375.43849     -1534.88349        49.000  
  22667364.18049 119117801.80949      5007.51649        49.000  
  22840965.98449 120030084.70749     -9616.00049        49.000  
 16 04 02 13 46 24.9000000  0  4G14G11G22G01                                    
  25400780.51649 133482001.10949    -13399.12549        49.000  
  22319265.21149 117288529.17249     -1539.86749        49.000  
  22667268.93849 119117301.39149      5000.87149        49.000  
  22841149.01649 120031046.53149     -9620.84449        49.000  
 16 04 02 13 46 25.0000000  0  4G14G11G22G01                                    
  25401035.53949 133483341.26249    -13404.10249        49.000  
  22319294.55549 117288683.41849     -1545.21149        49.000  
  22667173.83649 119116801.62149      4994.08249        49.000  
  22841332.14849 120032008.86749     -9626.23049        49.000  
 16 04 02 13 46 25.1000000  0  4G14G11G22G01                                    
  25401290.67249 133484681.93849    -13409.31249        49.000  
  22319324.01649 117288838.23449     -1550.82449        49.000  
  22667078.83649 119116302.57049      4986.94949        49.000  
  22841515.38349 120032971.78949     -9631.93849        49.000  
 16 04 02 13 46 25.2000000  0  4G14G11G22G01                                    
  25401545.89149 133486023.11349    -13414.38749        49.000  
  22319353.59449 117288993.60249     -1556.36349        49.000  
  22666984.00049 119115804.20349      4980.05549        49.000  
  22841698.73449 120033935.23849     -9637.41449        49.000  
 16 04 02 13 46 25.3000000  0  4G14G11G22G01                                    
  25401801.18049 133487364.75449    -13418.92249        49.000  
  22319383.25049 117289149.45749     -1561.29349        49.000  
  22666889.27349 119115306.49649      4973.64549        49.000  
  22841882.16449 120034899.19149     -9642.31649        49.000  
 16 04 02 13 46 25.4000000  0  4G14G11G22G01                                    
  25402056.58649 133488706.90649    -13423.96949        49.000  
  22319413.00849 117289305.87149     -1566.79749        49.000  
  22666794.69549 119114809.48449      4966.66449        49.000  
  22842065.71149 120035863.69949     -9647.75449        49.000  
 16 04 02 13 46 25.5000000  0  4G14G11G22G01                                    
  25402312.08649 133490049.52749    -13428.54349        49.000  
  22319442.86749 117289462.79749     -1571.80549        49.000  
  22666700.23449 119114313.12549      4960.21949        49.000  
  22842249.35249 120036828.71549     -9652.73449        49.000  
 16 04 02 13 46 25.6000000  0  4G14G11G22G01                                    
  25402567.65649 133491392.57849    -13433.04349        49.000  
  22319472.82849 117289620.19149     -1576.61749        49.000  
  22666605.89849 119113817.39149      4953.71949        49.000  
  22842433.08649 120037794.20749     -9657.70349        49.000  
 16 04 02 13 46 25.7000000  0  4G14G11G22G01                                    
  25402823.35949 133492736.24249    -13439.08649        49.000  
  22319502.90649 117289778.24249     -1583.16449        49.000  
  22666511.70349 119113322.44549      4945.95749        49.000  
  22842616.93849 120038760.34049     -9664.03149        49.000  
 16 04 02 13 46 25.8000000  0  4G14G11G22G01                                    
  25403079.14149 133494080.37949    -13443.95749        49.000  
  22319533.08649 117289936.80149     -1588.43849        49.000  
  22666417.64849 119112828.16449      4939.17249        49.000  
  22842800.88349 120039726.99649     -9669.41849        49.000  
 16 04 02 13 46 25.9000000  0  4G14G11G22G01                                    
  25403335.00849 133495424.95749    -13448.08649        49.000  
  22319563.35249 117290095.84449     -1592.97749        49.000  
  22666323.69549 119112334.51649      4933.05149        49.000  
  22842984.92249 120040694.13749     -9673.98849        49.000  
 16 04 02 13 46 26.0000000  0  4G14G11G22G01                                    
  25403590.96949 133496770.03949    -13453.28949        49.000  
  22319593.71949 117290255.42249     -1598.47349        49.000  
  22666229.89149 119111841.54749      4926.22749        49.000  
  22843169.08649 120041661.80949     -9679.46149        49.000  
 16 04 02 13 46 26.1000000  0  4G14G11G22G01                                    
  25403847.02349 133498115.56649    -13457.76649        49.000  
  22319624.18049 117290415.49649     -1603.46149        49.000  
  22666136.21149 119111349.22749      4919.68849        49.000  
  22843353.32049 120042629.97349     -9684.39549        49.000  
 16 04 02 13 46 26.2000000  0  4G14G11G22G01                                    
  25404103.17249 133499461.62149    -13462.84449        49.000  
  22319654.75049 117290576.13749     -1608.96549        49.000  
  22666042.65649 119110857.60949      4912.83249        49.000  
  22843537.66449 120043598.70749     -9689.94149        49.000  
 16 04 02 13 46 26.3000000  0  4G14G11G22G01                                    
  25404359.40649 133500808.16849    -13468.11749        49.000  
  22319685.42249 117290737.29749     -1614.45349        49.000  
  22665949.24249 119110366.67249      4905.72749        49.000  
  22843722.10949 120044567.96549     -9695.58249        49.000  
 16 04 02 13 46 26.4000000  0  4G14G11G22G01                                    
  25404615.74249 133502155.21949    -13472.91849        49.000  
  22319716.19549 117290899.02749     -1619.89849        49.000  
  22665855.95349 119109876.43449      4898.96549        49.000  
  22843906.66449 120045537.78549     -9700.93049        49.000  
 16 04 02 13 46 26.5000000  0  4G14G11G22G01                                    
  25404872.15649 133503502.66849    -13477.07849        49.000  
  22319747.05549 117291061.19549     -1624.46149        49.000  
  22665762.78149 119109386.78949      4892.82449        49.000  
  22844091.29749 120046508.03949     -9705.48049        49.000  
 16 04 02 13 46 26.6000000  0  4G14G11G22G01                                    
  25405128.67249 133504850.69949    -13482.72349        49.000  
  22319778.03149 117291223.94949     -1630.12949        49.000  
  22665669.75049 119108897.89149      4885.57849        49.000  
  22844276.04749 120047478.89149     -9711.17649        49.000  
 16 04 02 13 46 26.7000000  0  4G14G11G22G01                                    
  25405385.27349 133506199.14849    -13486.90649        49.000  
  22319809.09449 117291387.19149     -1635.06649        49.000  
  22665576.83649 119108409.60249      4879.34049        49.000  
  22844460.88349 120048450.22749     -9716.10249        49.000  
 16 04 02 13 46 26.8000000  0  4G14G11G22G01                                    
  25405641.96149 133507548.04349    -13491.40249        49.000  
  22319840.25849 117291550.93449     -1639.96549        49.000  
  22665484.04749 119107921.98849      4872.82049        49.000  
  22844645.82049 120049422.06249     -9721.05949        49.000  
 16 04 02 13 46 26.9000000  0  4G14G11G22G01                                    
  25405898.74249 133508897.49649    -13496.90649        49.000  
  22319871.52349 117291715.23449     -1645.66049        49.000  
  22665391.39149 119107435.06649      4865.68049        49.000  
  22844830.85949 120050394.44549     -9726.55549        49.000  
 16 04 02 13 46 27.0000000  0  4G14G11G22G01                                    
  25406155.62549 133510247.40649    -13501.66449        49.000  
  22319902.89849 117291880.07449     -1651.09849        49.000  
  22665298.85949 119106948.82049      4858.84049        49.000  
  22845016.01649 120051367.37949     -9732.15249        49.000  
 16 04 02 13 46 27.1000000  0  4G14G11G22G01                                    
  25406412.60949 133511597.84449    -13507.00049        49.000  
  22319934.36749 117292045.46149     -1656.66049        49.000  
  22665206.46149 119106463.28149      4851.78949        49.000  
  22845201.25849 120052340.85949     -9737.62949        49.000  
 16 04 02 13 46 27.2000000  0  4G14G11G22G01                                    
  25406669.68049 133512948.75049    -13511.70749        49.000  
  22319965.93849 117292211.35249     -1661.68849        49.000  
  22665114.19549 119105978.40249      4845.13749        49.000  
  22845386.60949 120053314.84849     -9742.83249        49.000  
 16 04 02 13 46 27.3000000  0  4G14G11G22G01                                    
  25406926.84449 133514300.17649    -13516.68049        49.000  
  22319997.61749 117292377.82449     -1667.39149        49.000  
  22665022.07049 119105494.23449      4838.08249        49.000  
  22845572.06249 120054289.39849     -9748.28549        49.000  
 16 04 02 13 46 27.4000000  0  4G14G11G22G01                                    
  25407184.10249 133515652.06649    -13521.39149        49.000  
  22320029.39849 117292544.77349     -1672.22349        49.000  
  22664930.05549 119105010.69549      4831.78949        49.000  
  22845757.60949 120055264.44949     -9753.33249        49.000  
 16 04 02 13 46 27.5000000  0  4G14G11G22G01                                    
  25407441.44549 133517004.45349    -13526.67649        49.000  
  22320061.27349 117292712.30149     -1678.00049        49.000  
  22664838.18849 119104527.87949      4824.56249        49.000  
  22845943.26649 120056240.06249     -9759.06249        49.000  
 16 04 02 13 46 27.6000000  0  4G14G11G22G01                                    
