     2.10           OBSERVATION DATA    G (GPS)             RINEX VERSION / TYPE
Convert v1.8.0                          07-Jun-2016 18:56   PGM / RUN BY / DATE 
Signal Strength values S1,S2 are in dBHz                    COMMENT             
                                                            MARKER NAME         
                                                            MARKER NUMBER       
                                                            OBSERVER / AGENCY   
                    NovAtel GPSCard                         REC # / TYPE / VERS 
                                                            ANT # / TYPE        
0.0000        0.0000        0.0000                          APPROX POSITION XYZ 
        0.0000        0.0000        0.0000                  ANTENNA: DELTA H/E/N
     1     1                                                WAVELENGTH FACT L1/2
     1     1     6   G04   G07   G09   G16   G26   G30      WAVELENGTH FACT L1/2
                                                            COMMENT             
                                                            COMMENT             
                                                            COMMENT             
                                                            COMMENT             
                                                            COMMENT             
                                                            COMMENT             
     4    C1    L1    D1    S1                              # / TYPES OF OBSERV 
     0.100                                                  INTERVAL            
  2016    04    02    14    16     6.7000000    GPS         TIME OF FIRST OBS   
  2016    04    02    14    19    58.5000000    GPS         TIME OF LAST OBS    
Leap Seconds Unknown                                        COMMENT             
                                                            END OF HEADER       
 16 04 02 14 16  6.7000000  0  1G16                                             
  20376576.00849 107079628.76659     -3907.71949        49.000  
 16 04 02 14 16  6.8000000  0  1G16                                             
  20376650.42249 107080019.79349     -3912.68049        49.000  
 16 04 02 14 16  6.9000000  0  2G07G16                                          
  22203528.76649 116680329.85259      2659.58249        50.000  
  20376724.91449 107080411.28149     -3917.24249        49.000  
 16 04 02 14 16  7.0000000  0  2G07G16                                          
  22203478.19549 116680064.12549      2655.12949        50.000  
  20376799.50049 107080803.22349     -3922.14149        49.000  
 16 04 02 14 16  7.1000000  0  2G07G16                                          
  22203427.71949 116679798.82449      2651.02349        50.000  
  20376874.18849 107081195.66449     -3926.80149        49.000  
 16 04 02 14 16  7.2000000  0  2G07G16                                          
  22203377.30549 116679533.90649      2647.12949        50.000  
  20376948.94549 107081588.53149     -3931.09049        49.000  
 16 04 02 14 16  7.3000000  0  2G07G16                                          
  22203326.98449 116679269.46949      2642.06249        50.000  
  20377023.80549 107081981.93449     -3936.70749        49.000  
 16 04 02 14 16  7.4000000  0  2G07G16                                          
  22203276.75849 116679005.52049      2637.21949        50.000  
  20377098.76649 107082375.85949     -3942.00449        49.000  
 16 04 02 14 16  7.5000000  0  2G07G16                                          
  22203226.60949 116678741.95349      2633.48049        50.000  
  20377173.81249 107082770.23449     -3946.32849        49.000  
 16 04 02 14 16  7.6000000  0  2G07G16                                          
  22203176.52349 116678478.78549      2629.57449        50.000  
  20377248.94549 107083165.05949     -3950.82849        49.000  
 16 04 02 14 16  7.7000000  0  2G07G16                                          
  22203126.55549 116678216.11349      2624.64849        50.000  
  20377324.18049 107083560.41449     -3956.20749        49.000  
 16 04 02 14 16  7.8000000  0  2G07G16                                          
  22203076.64149 116677953.80949      2621.11349        50.000  
  20377399.49249 107083956.20349     -3960.36349        49.000  
 16 04 02 14 16  7.9000000  0  2G07G16                                          
  22203026.81249 116677691.95749      2616.49649        50.000  
  20377474.89849 107084352.48449     -3965.33249        49.000  
 16 04 02 14 16  8.0000000  0  2G07G16                                          
  22202977.05549 116677430.48849      2612.63349        50.000  
  20377550.39149 107084749.20349     -3969.57849        49.000  
 16 04 02 14 16  8.1000000  0  2G07G16                                          
  22202927.38349 116677169.41849      2608.62149        50.000  
  20377625.96149 107085146.36349     -3974.20749        49.000  
 16 04 02 14 16  8.2000000  0  2G07G16                                          
  22202877.78949 116676908.80149      2603.97349        50.000  
  20377701.64149 107085544.03549     -3979.30949        49.000  
 16 04 02 14 16  8.3000000  0  2G07G16                                          
  22202828.27349 116676648.58249      2600.09049        50.000  
  20377777.40649 107085942.15649     -3983.80549        49.000  
 16 04 02 14 16  8.4000000  0  2G07G16                                          
  22202778.84449 116676388.83249      2595.40249        50.000  
  20377853.25849 107086340.77049     -3988.69149        49.000  
 16 04 02 14 16  8.5000000  0  2G07G16                                          
  22202729.49249 116676129.44549      2591.69549        50.000  
  20377929.20349 107086739.82449     -3993.09049        49.000  
 16 04 02 14 16  8.6000000  0  2G07G16                                          
  22202680.22749 116675870.54349      2586.85949        50.000  
  20378005.24249 107087139.40649     -3998.31649        49.000  
 16 04 02 14 16  8.7000000  0  2G07G16                                          
  22202631.02349 116675612.01649      2583.28149        50.000  
  20378081.36749 107087539.42649     -4002.56649        49.000  
 16 04 02 14 16  8.8000000  0  2G07G16                                          
  22202581.89849 116675353.85549      2579.33249        50.000  
  20378157.56249 107087939.84049     -4006.96949        49.000  
 16 04 02 14 16  8.9000000  0  2G07G16                                          
  22202532.86749 116675096.20349      2574.50449        50.000  
  20378233.86749 107088340.83249     -4012.28549        49.000  
 16 04 02 14 16  9.0000000  0  2G07G16                                          
  22202483.90649 116674838.90649      2570.85949        50.000  
  20378310.25049 107088742.21949     -4016.46949        49.000  
 16 04 02 14 16  9.1000000  0  2G07G16                                          
  22202435.02349 116674582.05549      2566.32449        50.000  
  20378386.71949 107089144.09049     -4021.34049        49.000  
 16 04 02 14 16  9.2000000  0  2G07G16                                          
  22202386.23449 116674325.64549      2562.08649        50.000  
  20378463.28949 107089546.47349     -4026.22349        49.000  
 16 04 02 14 16  9.3000000  0  2G07G16                                          
  22202337.50849 116674069.59449      2558.33649        50.000  
  20378539.94549 107089949.23849     -4030.26649        49.000  
 16 04 02 14 16  9.4000000  0  2G07G16                                          
  22202288.86749 116673813.96949      2554.22349        50.000  
  20378616.68849 107090352.50849     -4035.17249        49.000  
 16 04 02 14 16  9.5000000  0  2G07G16                                          
  22202240.30549 116673558.81249      2549.56249        50.000  
  20378693.51649 107090756.28149     -4040.14849        49.000  
 16 04 02 14 16  9.6000000  0  2G07G16                                          
  22202191.83649 116673304.10249      2544.89549        50.000  
  20378770.44549 107091160.54349     -4045.30149        49.000  
 16 04 02 14 16  9.7000000  0  2G07G16                                          
  22202143.43049 116673049.76249      2541.30549        50.000  
  20378847.46149 107091565.24249     -4049.52049        49.000  
 16 04 02 14 16  9.8000000  0  2G07G16                                          
  22202095.11749 116672795.89149      2536.62949        50.000  
  20378924.57049 107091970.44949     -4054.75049        49.000  
 16 04 02 14 16  9.9000000  0  2G07G16                                          
  22202046.89149 116672542.43449      2532.59449        50.000  
  20379001.76649 107092376.11749     -4059.06249        49.000  
 16 04 02 14 16 10.0000000  0  2G07G16                                          
  22201998.74249 116672289.42649      2528.00449        50.000  
  20379079.05549 107092782.29349     -4064.24249        49.000  
 16 04 02 14 16 10.1000000  0  2G07G16                                          
  22201950.68049 116672036.79749      2524.10249        50.000  
  20379156.45349 107093188.88749     -4068.49649        49.000  
 16 04 02 14 16 10.2000000  0  2G07G16                                          
  22201902.68049 116671784.57849      2519.98049        50.000  
  20379233.91449 107093595.94549     -4073.21949        49.000  
 16 04 02 14 16 10.3000000  0  2G07G16                                          
  22201854.77349 116671532.80549      2515.64549        50.000  
  20379311.47749 107094003.49249     -4077.97349        49.000  
 16 04 02 14 16 10.4000000  0  2G07G16                                          
  22201806.94549 116671281.44549      2511.47749        50.000  
  20379389.11749 107094411.51249     -4082.66449        49.000  
 16 04 02 14 16 10.5000000  0  2G07G16                                          
  22201759.18849 116671030.44549      2508.07449        50.000  
  20379466.84449 107094819.93049     -4086.62949        49.000  
 16 04 02 14 16 10.6000000  0  2G07G16                                          
  22201711.50849 116670779.91449      2503.20749        50.000  
  20379544.66449 107095228.88349     -4092.01249        49.000  
 16 04 02 14 16 10.7000000  0  2G07G16                                          
  22201663.89849 116670529.75449      2499.52749        50.000  
  20379622.57049 107095638.23449     -4096.14149        49.000  
 16 04 02 14 16 10.8000000  0  2G07G16                                          
  22201616.37549 116670280.03549      2495.00449        50.000  
  20379700.56249 107096048.09049     -4101.16849        49.000  
 16 04 02 14 16 10.9000000  0  2G07G16                                          
  22201568.95349 116670030.80149      2490.09449        50.000  
  20379778.65649 107096458.47349     -4106.52749        49.000  
 16 04 02 14 16 11.0000000  0  2G07G16                                          
  22201521.60249 116669781.95749      2486.26249        50.000  
  20379856.83649 107096869.30549     -4110.97349        49.000  
 16 04 02 14 16 11.1000000  0  2G07G16                                          
  22201474.32049 116669533.50049      2482.35249        50.000  
  20379935.10249 107097280.57049     -4115.32049        49.000  
 16 04 02 14 16 11.2000000  0  2G07G16                                          
  22201427.12549 116669285.47349      2478.30549        50.000  
  20380013.45349 107097692.29749     -4119.69949        49.000  
 16 04 02 14 16 11.3000000  0  2G07G16                                          
  22201380.00849 116669037.86749      2474.08249        50.000  
  20380091.89849 107098104.51649     -4124.56649        49.000  
 16 04 02 14 16 11.4000000  0  2G07G16                                          
  22201332.96949 116668790.67649      2469.69149        50.000  
  20380170.43049 107098517.19149     -4129.57049        49.000  
 16 04 02 14 16 11.5000000  0  2G07G16                                          
  22201286.01649 116668543.91849      2465.52049        50.000  
  20380249.05549 107098930.34449     -4133.96149        49.000  
 16 04 02 14 16 11.6000000  0  2G07G16                                          
  22201239.13349 116668297.52349      2461.85949        50.000  
  20380327.75849 107099343.91849     -4138.24649        49.000  
 16 04 02 14 16 11.7000000  0  2G07G16                                          
  22201192.33649 116668051.62149      2456.97349        50.000  
  20380406.55549 107099758.02749     -4143.49649        49.000  
 16 04 02 14 16 11.8000000  0  2G07G16                                          
  22201145.61749 116667806.11349      2453.05149        50.000  
  20380485.43849 107100172.57849     -4147.91449        49.000  
 16 04 02 14 16 11.9000000  0  2G07G16                                          
  22201098.96149 116667561.01649      2448.80549        50.000  
  20380564.41449 107100587.58649     -4152.80949        49.000  
 16 04 02 14 16 12.0000000  0  2G07G16                                          
  22201052.40649 116667316.36749      2444.20749        50.000  
  20380643.48449 107101003.10249     -4157.93849        49.000  
 16 04 02 14 16 12.1000000  0  2G07G16                                          
  22201005.93849 116667072.16849      2439.77349        50.000  
  20380722.64849 107101419.10949     -4162.60249        49.000  
 16 04 02 14 16 12.2000000  0  2G07G16                                          
  22200959.54749 116666828.37949      2435.81649        50.000  
  20380801.89849 107101835.57049     -4167.11749        49.000  
 16 04 02 14 16 12.3000000  0  2G07G16                                          
  22200913.23449 116666585.03949      2431.21149        50.000  
  20380881.24249 107102252.53549     -4172.34849        49.000  
 16 04 02 14 16 12.4000000  0  2G07G16                                          
  22200867.01649 116666342.17249      2426.30949        50.000  
  20380960.68849 107102670.02049     -4177.64149        49.000  
 16 04 02 14 16 12.5000000  0  2G07G16                                          
  22200820.88349 116666099.73449      2422.20349        50.000  
  20381040.21149 107103087.98849     -4182.20749        49.000  
 16 04 02 14 16 12.6000000  0  2G07G16                                          
  22200774.82849 116665857.69949      2418.15649        50.000  
  20381119.83649 107103506.39549     -4186.55149        49.000  
 16 04 02 14 16 12.7000000  0  2G07G16                                          
  22200728.85949 116665616.07049      2414.23849        50.000  
  20381199.54749 107103925.27049     -4191.21149        49.000  
 16 04 02 14 16 12.8000000  0  2G07G16                                          
  22200682.95349 116665374.84049      2410.27749        50.000  
  20381279.33649 107104344.59049     -4195.62149        49.000  
 16 04 02 14 16 12.9000000  0  2G07G16                                          
  22200637.14149 116665134.09849      2405.28549        50.000  
  20381359.22749 107104764.44149     -4200.96549        49.000  
 16 04 02 14 16 13.0000000  0  2G07G16                                          
  22200591.39849 116664893.71549      2401.73449        50.000  
  20381439.20349 107105184.69549     -4205.05149        49.000  
 16 04 02 14 16 13.1000000  0  2G07G16                                          
  22200545.74249 116664653.78949      2397.19149        50.000  
  20381519.27349 107105605.46549     -4210.11749        49.000  
 16 04 02 14 16 13.2000000  0  2G07G16                                          
  22200500.16449 116664414.26649      2392.97349        50.000  
  20381599.43049 107106026.69149     -4214.93449        49.000  
 16 04 02 14 16 13.3000000  0  2G07G16                                          
  22200454.66449 116664175.19549      2388.63749        50.000  
  20381679.68849 107106448.39549     -4219.51649        49.000  
 16 04 02 14 16 13.4000000  0  2G07G16                                          
  22200409.24249 116663936.50449      2384.69949        50.000  
  20381760.01649 107106870.55149     -4224.27749        49.000  
 16 04 02 14 16 13.5000000  0  3G26G07G16                                       
  21930816.10949 115247216.40659      6622.01649        50.000  
  22200363.91449 116663698.24649      2380.51649        50.000  
  20381840.43849 107107293.17649     -4228.77049        49.000  
 16 04 02 14 16 13.6000000  0  3G26G07G16                                       
  21930690.13349 115246554.37549      6618.58649        50.000  
  22200318.64849 116663460.39849      2376.31649        50.000  
  20381920.95349 107107716.26249     -4233.50449        49.000  
 16 04 02 14 16 13.7000000  0  3G26G07G16                                       
  21930564.19549 115245892.69149      6615.25449        50.000  
  22200273.47749 116663222.96149      2372.44949        50.000  
  20382001.55549 107108139.80149     -4237.84049        49.000  
 16 04 02 14 16 13.8000000  0  3G26G07G16                                       
  21930438.35249 115245231.37949      6611.50449        50.000  
  22200228.37549 116662985.98049      2367.72749        50.000  
  20382082.25049 107108563.85949     -4242.97749        49.000  
 16 04 02 14 16 13.9000000  0  3G26G07G16                                       
  21930312.55549 115244570.43849      6607.60549        50.000  
  22200183.36749 116662749.43449      2363.21949        50.000  
  20382163.03949 107108988.38749     -4248.12949        49.000  
 16 04 02 14 16 14.0000000  0  3G26G07G16                                       
  21930186.85949 115243909.88349      6603.71549        50.000  
  22200138.44549 116662513.35249      2358.59849        50.000  
  20382243.92249 107109413.43049     -4253.07849        49.000  
 16 04 02 14 16 14.1000000  0  3G26G07G16                                       
  21930061.21149 115243249.66449      6600.41049        50.000  
  22200093.59449 116662277.68449      2354.40249        50.000  
  20382324.89849 107109838.94149     -4257.83649        49.000  
 16 04 02 14 16 14.2000000  0  3G26G07G16                                       
  21929935.65649 115242589.85549      6596.34049        50.000  
  22200048.83649 116662042.49649      2349.70749        50.000  
  20382405.96949 107110264.97749     -4262.96149        49.000  
 16 04 02 14 16 14.3000000  0  3G26G07G16                                       
  21929810.13349 115241930.33249      6593.40249        50.000  
  22200004.14849 116661807.66049      2346.21149        50.000  
  20382487.12549 107110691.40649     -4266.93449        49.000  
 16 04 02 14 16 14.4000000  0  3G26G07G16                                       
  21929684.68849 115241271.12149      6590.46549        50.000  
  22199959.53149 116661573.22749      2342.36349        50.000  
  20382568.35949 107111118.29349     -4271.34849        49.000  
 16 04 02 14 16 14.5000000  0  3G26G07G16                                       
  21929559.30549 115240612.25049      6587.13749        50.000  
  22199915.00049 116661339.19549      2338.34049        50.000  
  20382649.68849 107111545.63749     -4275.85549        49.000  
 16 04 02 14 16 14.6000000  0  3G26G07G16                                       
  21929433.99249 115239953.72749      6583.52749        50.000  
  22199870.54749 116661105.59049      2333.97349        50.000  
  20382731.09449 107111973.43449     -4280.53949        49.000  
 16 04 02 14 16 14.7000000  0  3G26G07G16                                       
  21929308.75049 115239295.59849      6579.44549        50.000  
  22199826.18049 116660872.44149      2329.24249        50.000  
  20382812.60249 107112401.75849     -4285.90649        49.000  
 16 04 02 14 16 14.8000000  0  3G26G07G16                                       
  21929183.58649 115238637.83249      6575.85549        50.000  
  22199781.89849 116660639.73449      2324.91049        50.000  
  20382894.19549 107112830.56249     -4290.66049        49.000  
 16 04 02 14 16 14.9000000  0  3G26G07G16                                       
  21929058.47749 115237980.36749      6572.68849        50.000  
  22199737.68849 116660407.42249      2320.80549        50.000  
  20382975.88349 107113259.80149     -4295.21149        49.000  
 16 04 02 14 16 15.0000000  0  3G26G07G16                                       
  21928933.44549 115237323.30949      6569.05549        50.000  
  22199693.56249 116660175.56249      2316.60249        50.000  
  20383057.65649 107113689.54749     -4299.89549        49.000  
 16 04 02 14 16 15.1000000  0  3G26G07G16                                       
  21928808.46949 115236666.52749      6566.05949        50.000  
  22199649.51649 116659944.07449      2312.78149        50.000  
  20383139.52349 107114119.71949     -4304.25849        49.000  
 16 04 02 14 16 15.2000000  0  3G26G07G16                                       
  21928683.55549 115236010.09849      6562.78149        50.000  
  22199605.53949 116659712.99249      2308.87949        50.000  
  20383221.46949 107114550.33649     -4308.51249        49.000  
 16 04 02 14 16 15.3000000  0  3G26G07G16                                       
  21928558.71949 115235354.02349      6559.07849        50.000  
  22199561.64849 116659482.35549      2304.26249        50.000  
  20383303.50849 107114981.45349     -4313.73049        49.000  
 16 04 02 14 16 15.4000000  0  3G26G07G16                                       
  21928433.94549 115234698.34849      6554.99249        50.000  
  22199517.85249 116659252.18449      2299.61349        50.000  
  20383385.64149 107115413.07449     -4318.78549        49.000  
 16 04 02 14 16 15.5000000  0  3G26G07G16                                       
  21928309.22749 115234042.96149      6552.11349        50.000  
  22199474.12549 116659022.38749      2295.85249        50.000  
  20383467.87549 107115845.11349     -4322.92649        49.000  
 16 04 02 14 16 15.6000000  0  3G26G07G16                                       
  21928184.57849 115233387.90649      6548.99649        50.000  
  22199430.46949 116658792.98049      2292.09849        50.000  
  20383550.17249 107116277.60549     -4327.20749        49.000  
 16 04 02 14 16 15.7000000  0  3G26G07G16                                       
  21928060.00049 115232733.18849      6545.53149        50.000  
  22199386.89149 116658563.97749      2288.00849        50.000  
  20383632.55549 107116710.55149     -4331.95349        49.000  
 16 04 02 14 16 15.8000000  0  3G26G07G16                                       
  21927935.47749 115232078.82849      6541.85249        50.000  
  22199343.40649 116658335.42649      2283.52049        50.000  
  20383715.03149 107117143.98849     -4336.89849        49.000  
 16 04 02 14 16 15.9000000  0  3G26G07G16                                       
  21927811.07049 115231424.83249      6538.25449        50.000  
  22199299.99249 116658107.30149      2279.18049        49.000  
  20383797.60249 107117577.89149     -4341.55949        49.000  
 16 04 02 14 16 16.0000000  0  3G26G07G16                                       
  21927686.68049 115230771.16449      6534.86749        50.000  
  22199256.65649 116657879.59049      2275.00849        49.000  
  20383880.25849 107118012.27049     -4346.35249        49.000  
 16 04 02 14 16 16.1000000  0  3G26G07G16                                       
  21927562.37549 115230117.83649      6531.47749        50.000  
  22199213.40649 116657652.28149      2270.92649        50.000  
  20383963.00049 107118447.08249     -4350.81649        49.000  
 16 04 02 14 16 16.2000000  0  3G26G07G16                                       
  21927438.13349 115229464.93049      6527.39149        50.000  
  22199170.24249 116657425.48049      2265.93449        50.000  
  20384045.85249 107118882.46149     -4356.27049        49.000  
 16 04 02 14 16 16.3000000  0  3G26G07G16                                       
  21927313.95349 115228812.25849      6524.98449        50.000  
  22199127.13349 116657198.98049      2262.89149        50.000  
  20384128.76649 107119318.18049     -4359.66849        49.000  
 16 04 02 14 16 16.4000000  0  3G26G07G16                                       
  21927189.82049 115228159.94949      6521.30549        50.000  
  22199084.10949 116656972.90649      2258.43849        50.000  
  20384211.77349 107119754.39149     -4364.75449        49.000  
 16 04 02 14 16 16.5000000  0  3G26G07G16                                       
  21927065.75849 115227508.04749      6517.40649        50.000  
  22199041.18849 116656747.33649      2253.74649        50.000  
  20384294.89149 107120191.13349     -4369.83249        49.000  
 16 04 02 14 16 16.6000000  0  3G26G07G16                                       
  21926941.76649 115226856.43849      6514.27349        50.000  
  22198998.32849 116656522.11349      2249.93449        50.000  
  20384378.07849 107120628.27749     -4374.18449        49.000  
 16 04 02 14 16 16.7000000  0  3G26G07G16                                       
  21926817.85949 115226205.24249      6510.18849        50.000  
  22198955.56249 116656297.38749      2245.10549        50.000  
  20384461.36749 107121065.96549     -4379.46149        49.000  
 16 04 02 14 16 16.8000000  0  3G26G07G16                                       
  21926694.00849 115225554.40649      6506.59849        50.000  
  22198912.88349 116656073.08649      2240.88349        50.000  
  20384544.74249 107121504.13349     -4384.10249        49.000  
 16 04 02 14 16 16.9000000  0  3G26G07G16                                       
  21926570.19549 115224903.84049      6503.92249        50.000  
  22198870.25049 116655849.12949      2237.42249        50.000  
  20384628.19549 107121942.68449     -4388.08249        49.000  
 16 04 02 14 16 17.0000000  0  3G26G07G16                                       
  21926446.46149 115224253.61349      6500.75449        50.000  
  22198827.71949 116655625.59849      2233.42249        50.000  
  20384711.73449 107122381.70749     -4392.59049        49.000  
 16 04 02 14 16 17.1000000  0  3G26G07G16                                       
  21926322.78149 115223603.71949      6497.39149        50.000  
  22198785.25049 116655402.46549      2229.27749        50.000  
  20384795.37549 107122821.18049     -4397.17249        49.000  
 16 04 02 14 16 17.2000000  0  3G26G07G16                                       
  21926199.18049 115222954.20749      6493.35949        50.000  
  22198742.87549 116655179.78949      2224.59849        50.000  
  20384879.10249 107123261.14849     -4402.27349        49.000  
 16 04 02 14 16 17.3000000  0  3G26G07G16                                       
  21926075.63349 115222305.02049      6490.00049        50.000  
  22198700.57849 116654957.51249      2220.50049        50.000  
  20384962.90649 107123701.57449     -4406.91049        49.000  
 16 04 02 14 16 17.4000000  0  3G26G07G16                                       
  21925952.17249 115221656.20349      6486.47349        50.000  
  22198658.35949 116654735.67649      2216.30549        50.000  
  20385046.81249 107124142.48449     -4411.59849        49.000  
 16 04 02 14 16 17.5000000  0  3G26G07G16                                       
  21925828.78149 115221007.73449      6482.98449        50.000  
  22198616.22749 116654514.27349      2211.93449        50.000  
  20385130.80549 107124583.87149     -4416.36349        49.000  
 16 04 02 14 16 17.6000000  0  3G26G07G16                                       
  21925705.46149 115220359.65649      6479.11749        50.000  
  22198574.18849 116654293.33249      2207.27349        50.000  
  20385214.89149 107125025.76649     -4421.55149        49.000  
 16 04 02 14 16 17.7000000  0  3G26G07G16                                       
  21925582.21149 115219711.94549      6475.41849        50.000  
  22198532.21949 116654072.82449      2202.85549        50.000  
  20385299.07849 107125468.14549     -4426.32049        49.000  
 16 04 02 14 16 17.8000000  0  3G26G07G16                                       
  21925459.01649 115219064.52749      6472.48849        50.000  
  22198490.32849 116653852.68049      2199.35949        50.000  
  20385383.33649 107125910.94549     -4430.39549        49.000  
 16 04 02 14 16 17.9000000  0  3G26G07G16                                       
  21925335.85949 115218417.44949      6469.07449        50.000  
  22198448.52349 116653632.96149      2195.11349        50.000  
  20385467.69549 107126354.19949     -4435.22349        49.000  
 16 04 02 14 16 18.0000000  0  3G26G07G16                                       
  21925212.82049 115217770.84449      6464.14849        50.000  
  22198406.81249 116653413.77749      2189.48849        50.000  
  20385552.15649 107126798.04349     -4441.11349        49.000  
 16 04 02 14 16 18.1000000  0  3G26G07G16                                       
  21925089.82049 115217124.50049      6461.57449        50.000  
  22198365.16449 116653194.93449      2186.30549        50.000  
  20385636.69549 107127242.27349     -4444.78549        49.000  
 16 04 02 14 16 18.2000000  0  3G26G07G16                                       
  21924966.89849 115216478.53149      6457.85249        50.000  
  22198323.60949 116652976.55949      2181.58649        50.000  
  20385721.32849 107127687.01649     -4449.98449        49.000  
 16 04 02 14 16 18.3000000  0  3G26G07G16                                       
  21924844.04749 115215832.94949      6453.97349        50.000  
  22198282.13349 116652758.62149      2177.11349        50.000  
  20385806.04749 107128132.24249     -4454.93449        49.000  
 16 04 02 14 16 18.4000000  0  3G26G07G16                                       
  21924721.26649 115215187.71549      6450.46149        50.000  
  22198240.74249 116652541.10949      2172.84849        50.000  
  20385890.86749 107128577.96149     -4459.75449        49.000  
 16 04 02 14 16 18.5000000  0  3G26G07G16                                       
  21924598.54749 115214542.80549      6447.53149        50.000  
  22198199.42249 116652323.99649      2169.19149        50.000  
  20385975.76649 107129024.10249     -4463.78549        49.000  
 16 04 02 14 16 18.6000000  0  3G26G07G16                                       
  21924475.88349 115213898.23049      6444.09849        50.000  
  22198158.18849 116652107.30549      2164.88749        50.000  
  20386060.75849 107129470.72349     -4468.63349        49.000  
 16 04 02 14 16 18.7000000  0  3G26G07G16                                       
  21924353.28949 115213254.02049      6440.33649        50.000  
  22198117.03949 116651891.03149      2160.55949        50.000  
  20386145.82849 107129917.79749     -4473.33249        49.000  
 16 04 02 14 16 18.8000000  0  3G26G07G16                                       
  21924230.76649 115212610.18849      6436.46149        50.000  
  22198075.96949 116651675.22349      2155.82049        50.000  
  20386231.00849 107130365.40249     -4478.70349        49.000  
 16 04 02 14 16 18.9000000  0  3G26G07G16                                       
  21924108.31249 115211966.71949      6433.04349        50.000  
  22198034.99249 116651459.85549      2151.65649        50.000  
  20386316.27349 107130813.47349     -4483.15249        49.000  
 16 04 02 14 16 19.0000000  0  3G26G07G16                                       
  21923985.92249 115211323.52349      6430.25449        50.000  
  22197994.07849 116651244.83249      2148.18049        50.000  
  20386401.61749 107131261.94549     -4487.27349        49.000  
 16 04 02 14 16 19.1000000  0  3G26G07G16                                       
  21923863.59449 115210680.71149      6426.50049        50.000  
  22197953.23449 116651030.25849      2143.69549        50.000  
  20386487.05549 107131710.91849     -4492.23049        49.000  
 16 04 02 14 16 19.2000000  0  3G26G07G16                                       
  21923741.33649 115210038.24649      6422.81649        50.000  
  22197912.48449 116650816.11749      2139.17249        50.000  
  20386572.57849 107132160.36349     -4497.18849        49.000  
 16 04 02 14 16 19.3000000  0  3G26G07G16                                       
  21923619.14849 115209396.08649      6419.94949        50.000  
  22197871.79749 116650602.34849      2135.64849        50.000  
  20386658.18849 107132610.22749     -4501.09049        49.000  
 16 04 02 14 16 19.4000000  0  4G04G26G07G16                                    
  22866510.14849 120164320.98059     11715.60949        49.000  
  21923497.03149 115208754.34449      6415.72349        50.000  
  22197831.21149 116650389.06649      2130.76249        50.000  
  20386743.89849 107133060.62949     -4506.59449        49.000  
 16 04 02 14 16 19.5000000  0  5G04G09G26G07G16                                 
  22866287.21949 120163149.49649     11713.45349        49.000  
  21280907.06249 111831920.52759    -16282.90249        50.000  
  21923374.96149 115208112.89549      6412.79749        50.000  
  22197790.70349 116650176.16449      2126.96549        50.000  
  20386829.69549 107133511.45749     -4510.80149        49.000  
 16 04 02 14 16 19.6000000  0  5G04G09G26G07G16                                 
  22866064.36749 120161978.32849     11710.27049        49.000  
  21281216.97749 111833549.14549    -16288.89149        50.000  
  21923252.96949 115207471.82849      6408.93849        50.000  
  22197750.27349 116649963.71149      2122.53949        50.000  
  20386915.57849 107133962.77349     -4515.69149        49.000  
 16 04 02 14 16 19.7000000  0  5G04G09G26G07G16                                 
  22865841.54749 120160807.41049     11707.57449        49.000  
  21281527.03149 111835178.34849    -16294.91849        50.000  
  21923131.05549 115206831.09049      6405.54749        50.000  
  22197709.93049 116649751.66849      2118.18049        50.000  
  20387001.53949 107134414.55149     -4520.49249        49.000  
 16 04 02 14 16 19.8000000  0  5G04G09G26G07G16                                 
  22865618.78149 120159636.76649     11705.14149        49.000  
  21281837.16449 111836808.12149    -16300.36749        50.000  
  21923009.18849 115206190.68849      6402.42649        50.000  
  22197669.65649 116649540.03549      2114.34449        50.000  
  20387087.60249 107134866.78549     -4524.75049        49.000  
 16 04 02 14 16 19.9000000  0  5G04G09G26G07G16                                 
  22865396.07049 120158466.41449     11701.93849        49.000  
  21282147.40649 111838438.50049    -16306.52349        50.000  
  21922887.38349 115205550.65649      6398.65649        50.000  
  22197629.46949 116649328.84049      2109.81649        50.000  
  20387173.75849 107135319.50449     -4529.76649        49.000  
 16 04 02 14 16 20.0000000  0  5G04G09G26G07G16                                 
  22865173.39849 120157296.34049     11699.32049        49.000  
  21282457.77349 111840069.47749    -16312.58649        50.000  
  21922765.65649 115204910.98449      6395.04749        50.000  
  22197589.35949 116649118.08249      2105.43449        50.000  
  20387260.00049 107135772.69949     -4534.54749        49.000  
 16 04 02 14 16 20.1000000  0  5G04G09G26G07G16                                 
  22864950.78149 120156126.48449     11697.07849        49.000  
  21282768.21949 111841700.97349    -16317.84849        49.000  
  21922643.98449 115204271.59049      6392.09849        50.000  
  22197549.32049 116648907.66849      2101.85549        50.000  
  20387346.31249 107136226.29749     -4538.54749        49.000  
 16 04 02 14 16 20.2000000  0  5G04G09G26G07G16                                 
  22864728.26649 120154956.96149     11693.80949        49.000  
  21283078.80549 111843333.11349    -16324.04749        49.000  
  21922522.39149 115203632.59849      6388.26649        50.000  
  22197509.37549 116648697.74649      2097.15649        50.000  
  20387432.73449 107136680.42649     -4543.76249        49.000  
 16 04 02 14 16 20.3000000  0  5G04G09G26G07G16                                 
  22864505.76649 120153787.70749     11691.09449        49.000  
  21283389.52349 111844965.84849    -16330.17649        49.000  
  21922400.83649 115202993.96149      6384.63349        50.000  
  22197469.50849 116648488.23849      2092.96949        50.000  
  20387519.25049 107137135.02049     -4548.48449        49.000  
 16 04 02 14 16 20.4000000  0  5G04G09G26G07G16                                 
  22864283.33649 120152618.66849     11688.96149        49.000  
  21283700.32049 111846599.09849    -16335.28949        50.000  
  21922279.35949 115202355.59849      6381.90249        50.000  
  22197429.70349 116648279.09449      2089.30549        50.000  
  20387605.83649 107137590.01249     -4552.53549        49.000  
 16 04 02 14 16 20.5000000  0  5G04G09G26G07G16                                 
  22864060.95349 120151450.02749     11684.87549        49.000  
  21284011.26649 111848233.05149    -16342.39549        50.000  
  21922157.96149 115201717.70349      6377.14849        50.000  
  22197390.00849 116648070.47749      2083.92649        50.000  
  20387692.53949 107138045.60549     -4558.57449        49.000  
 16 04 02 14 16 20.6000000  0  5G04G09G26G07G16                                 
  22863838.63349 120150281.68449     11681.92649        49.000  
  21284322.31249 111849867.61749    -16348.55549        50.000  
  21922036.64849 115201080.18849      6373.31649        50.000  
  22197350.39849 116647862.32049      2079.36749        50.000  
  20387779.32849 107138501.67249     -4563.30149        49.000  
 16 04 02 14 16 20.7000000  0  5G04G09G26G07G16                                 
  22863616.35249 120149113.57049     11679.67249        49.000  
  21284633.47749 111851502.73049    -16353.98049        49.000  
  21921915.38349 115200442.96949      6370.45749        50.000  
  22197310.85949 116647654.54349      2075.59849        50.000  
  20387866.18849 107138958.17649     -4567.60249        49.000  
 16 04 02 14 16 20.8000000  0  5G04G09G26G07G16                                 
  22863394.10949 120147945.68049     11677.46149        49.000  
  21284944.72749 111853138.36749    -16359.05149        50.000  
  21921794.18049 115199806.05149      6367.47749        50.000  
  22197271.39149 116647447.11749      2072.12549        50.000  
  20387953.13349 107139415.08649     -4571.69549        49.000  
 16 04 02 14 16 20.9000000  0  5G04G09G26G07G16                                 
  22863171.93049 120146778.12949     11674.16049        49.000  
  21285256.10249 111854774.66849    -16365.59849        50.000  
  21921673.06249 115199169.53149      6363.57449        50.000  
  22197232.01649 116647240.19549      2067.23449        50.000  
  20388040.18049 107139872.53549     -4576.96549        49.000  
 16 04 02 14 16 21.0000000  0  5G04G09G26G07G16                                 
  22862949.81249 120145610.87149     11671.20349        49.000  
  21285567.59449 111856411.56649    -16371.68049        49.000  
  21921552.00849 115198533.39149      6359.78549        50.000  
  22197192.71949 116647033.70349      2062.86349        50.000  
  20388127.32049 107140330.46949     -4581.76649        49.000  
 16 04 02 14 17  6.6000000  0  1G16                                             
  21223434.75049 111529902.36359     -6691.46949        49.000  
 16 04 02 14 17  6.7000000  0  1G16                                             
  21223562.11749 111530571.68449     -6695.41849        49.000  
 16 04 02 14 17  6.8000000  0  2G16G26                                          
  21223689.57849 111531241.43849     -6699.49649        49.000  
  22659418.57849 119076046.94959      4771.99649        50.000  
 16 04 02 14 17  6.9000000  0  3G16G07G26                                       
  21223817.10949 111531911.65249     -6704.12549        49.000  
  22974019.53949 120729286.50059       119.60549        50.000  
  22659327.80549 119075569.93449      4768.50849        50.000  
 16 04 02 14 17  7.0000000  0  3G16G07G26                                       
  21223944.74249 111532582.30549     -6708.57449        49.000  
  22974017.29749 120729274.72749       115.59849        50.000  
  22659237.07849 119075093.24249      4765.21549        50.000  
 16 04 02 14 17  7.1000000  0  3G16G07G26                                       
  21224072.43849 111533253.35249     -6712.40649        49.000  
  22974015.11749 120729263.31649       112.15249        50.000  
  22659146.42249 119074616.84049      4762.50449        50.000  
 16 04 02 14 17  7.2000000  0  3G16G07G26                                       
  21224200.21149 111533924.78549     -6716.16049        49.000  
  22974013.01649 120729252.26249       108.60949        50.000  
  22659055.81249 119074140.71149      4759.84849        50.000  
 16 04 02 14 17  7.3000000  0  3G16G07G26                                       
  21224328.06249 111534596.64849     -6720.63749        49.000  
  22974011.00049 120729241.59449       104.48449        50.000  
  22658965.26649 119073664.88749      4756.57849        50.000  
 16 04 02 14 17  7.4000000  0  3G16G07G26                                       
  21224456.00849 111535269.00049     -6725.71149        49.000  
  22974009.05549 120729231.39849        99.68049        50.000  
  22658874.79749 119073189.45349      4752.52349        50.000  
 16 04 02 14 17  7.5000000  0  3G16G07G26                                       
  21224584.03949 111535941.81249     -6730.23049        49.000  
  22974007.20349 120729221.62549        95.48049        50.000  
  22658784.39149 119072714.37549      4749.00049        50.000  
 16 04 02 14 17  7.6000000  0  3G16G07G26                                       
  21224712.16449 111536615.10949     -6735.33249        49.000  
  22974005.42249 120729212.30149        90.78549        50.000  
  22658694.06249 119072239.66449      4745.05549        50.000  
 16 04 02 14 17  7.7000000  0  3G16G07G26                                       
  21224840.37549 111537288.86349     -6739.66849        49.000  
  22974003.72749 120729203.40649        86.79349        50.000  
  22658603.79749 119071765.30149      4741.90249        50.000  
 16 04 02 14 17  7.8000000  0  3G16G07G26                                       
  21224968.66449 111537963.01249     -6743.53549        49.000  
  22974002.10249 120729194.86749        83.23849        50.000  
  22658513.57049 119071291.20749      4739.21549        50.000  
 16 04 02 14 17  7.9000000  0  3G16G07G26                                       
  21225097.04749 111538637.66849     -6748.82049        49.000  
  22974000.56249 120729186.81249        78.21549        50.000  
  22658423.43049 119070817.52349      4734.91049        50.000  
 16 04 02 14 17  8.0000000  0  3G16G07G26                                       
  21225225.51649 111539312.77349     -6753.26649        49.000  
  22973999.10949 120729179.17249        74.23049        50.000  
  22658333.35249 119070344.19149      4731.59849        50.000  
 16 04 02 14 17  8.1000000  0  3G16G07G26                                       
  21225354.05549 111539988.27349     -6757.06249        49.000  
  22973997.71949 120729171.89149        70.87549        50.000  
  22658243.32849 119069871.10949      4729.17649        50.000  
 16 04 02 14 17  8.2000000  0  3G16G07G26                                       
  21225482.67249 111540664.11749     -6760.56649        49.000  
  22973996.39849 120729164.93449        67.45349        50.000  
  22658153.34449 119069398.29349      4726.49249        50.000  
 16 04 02 14 17  8.3000000  0  3G16G07G26                                       
  21225611.38349 111541340.48049     -6765.57849        49.000  
  22973995.17249 120729158.44549        62.85549        50.000  
  22658063.44549 119068925.87549      4722.56649        50.000  
 16 04 02 14 17  8.4000000  0  3G16G07G26                                       
  21225740.17249 111542017.30949     -6770.47749        49.000  
  22973994.01649 120729152.40249        58.17249        50.000  
  22657973.60949 119068453.80549      4718.82849        50.000  
 16 04 02 14 17  8.5000000  0  3G16G07G26                                       
  21225869.06249 111542694.64149     -6775.62949        49.000  
  22973992.96149 120729146.84449        53.17249        50.000  
  22657883.85249 119067982.13749      4714.68449        50.000  
 16 04 02 14 17  8.6000000  0  3G16G07G26                                       
  21225998.03149 111543372.37949     -6779.49249        49.000  
  22973991.96949 120729141.63349        49.86749        50.000  
  22657794.14849 119067510.75449      4712.00449        50.000  
 16 04 02 14 17  8.7000000  0  3G16G07G26                                       
  21226127.09449 111544050.60549     -6784.33249        49.000  
  22973991.07049 120729136.88749        45.26249        50.000  
  22657704.52349 119067039.75049      4708.27749        50.000  
 16 04 02 14 17  8.8000000  0  3G16G07G26                                       
  21226256.24249 111544729.32049     -6789.30549        49.000  
  22973990.25849 120729132.60249        40.57049        50.000  
  22657614.96949 119066569.12549      4704.48449        50.000  
 16 04 02 14 17  8.9000000  0  3G16G07G26                                       
  21226385.48449 111545408.48449     -6793.92249        49.000  
  22973989.51649 120729128.73449        36.23849        50.000  
  22657525.47749 119066098.84849      4700.87149        50.000  
 16 04 02 14 17  9.0000000  0  3G16G07G26                                       
  21226514.80549 111546088.08649     -6798.05949        49.000  
  22973988.85249 120729125.26649        32.66849        50.000  
  22657436.03949 119065628.88749      4697.95349        50.000  
 16 04 02 14 17  9.1000000  0  3G16G07G26                                       
  21226644.21149 111546768.11749     -6802.48049        49.000  
  22973988.26649 120729122.20349        28.33249        50.000  
  22657346.67249 119065159.24649      4694.56649        50.000  
 16 04 02 14 17  9.2000000  0  3G16G07G26                                       
  21226773.71149 111547448.59049     -6806.74249        49.000  
  22973987.76649 120729119.55549        24.42649        50.000  
  22657257.37549 119064689.94549      4691.42249        50.000  
 16 04 02 14 17  9.3000000  0  3G16G07G26                                       
  21226903.28149 111548129.49649     -6811.15649        49.000  
  22973987.33649 120729117.29749        20.46149        50.000  
  22657168.13349 119064220.96549      4688.14549        50.000  
 16 04 02 14 17  9.4000000  0  3G16G07G26                                       
  21227032.93849 111548810.81249     -6815.32049        49.000  
  22973986.97749 120729115.42649        16.60249        50.000  
  22657078.95349 119063752.27749      4685.13349        50.000  
 16 04 02 14 17  9.5000000  0  3G16G07G26                                       
  21227162.68849 111549492.62949     -6820.39549        49.000  
  22973986.70349 120729114.01649        11.69549        50.000  
  22656989.83649 119063283.98049      4681.11749        50.000  
 16 04 02 14 17  9.6000000  0  3G16G07G26                                       
  21227292.52349 111550174.95749     -6825.48049        49.000  
  22973986.53149 120729113.10549         6.72349        50.000  
  22656900.78949 119062816.08649      4677.02349        50.000  
 16 04 02 14 17  9.7000000  0  3G16G07G26                                       
  21227422.45349 111550857.73049     -6829.87949        49.000  
  22973986.43049 120729112.58649         2.90649        50.000  
  22656811.82049 119062348.53549      4673.73849        50.000  
 16 04 02 14 17  9.8000000  0  3G16G07G26                                       
  21227552.45349 111551540.89849     -6833.69949        49.000  
  22973986.40649 120729112.43049        -0.53949        50.000  
  22656722.90649 119061881.25049      4671.14849        50.000  
 16 04 02 14 17  9.9000000  0  3G16G07G26                                       
  21227682.54749 111552224.55949     -6838.66849        49.000  
  22973986.46149 120729112.73849        -5.29349        50.000  
  22656634.05549 119061414.35949      4667.21949        50.000  
 16 04 02 14 17 10.0000000  0  3G16G07G26                                       
  21227812.71949 111552908.66449     -6843.27349        49.000  
  22973986.60249 120729113.47349        -9.59449        50.000  
  22656545.26649 119060947.80549      4663.71949        50.000  
 16 04 02 14 17 10.1000000  0  3G16G07G26                                       
  21227942.97749 111553593.15649     -6847.02749        49.000  
  22973986.79749 120729114.55149       -12.91449        50.000  
  22656456.53949 119060481.52349      4661.15649        50.000  
 16 04 02 14 17 10.2000000  0  3G16G07G26                                       
  21228073.30549 111554278.04349     -6850.84849        49.000  
  22973987.07049 120729116.00049       -16.56249        50.000  
  22656367.86749 119060015.52749      4658.30549        50.000  
 16 04 02 14 17 10.3000000  0  3G16G07G26                                       
  21228203.72749 111554963.41049     -6855.76649        49.000  
  22973987.43049 120729117.89149       -21.09849        50.000  
  22656279.25849 119059549.89849      4654.50049        50.000  
 16 04 02 14 17 10.4000000  0  3G16G07G26                                       
  21228334.22749 111555649.21949     -6860.16049        49.000  
  22973987.86749 120729120.20349       -25.33249        50.000  
  22656190.71149 119059084.60249      4651.20349        50.000  
 16 04 02 14 17 10.5000000  0  3G16G07G26                                       
  21228464.82049 111556335.50449     -6865.00849        49.000  
  22973988.39149 120729122.94149       -29.78549        50.000  
  22656102.23449 119058619.67249      4647.43049        50.000  
 16 04 02 14 17 10.6000000  0  3G16G07G26                                       
  21228595.52349 111557022.30149     -6870.12949        49.000  
  22973989.00849 120729126.17649       -34.57049        50.000  
  22656013.83649 119058155.14549      4643.56649        50.000  
 16 04 02 14 17 10.7000000  0  3G16G07G26                                       
  21228726.28149 111557709.46949     -6873.76649        49.000  
  22973989.68849 120729129.74649       -37.83249        50.000  
  22655925.48449 119057690.87149      4641.13349        50.000  
 16 04 02 14 17 10.8000000  0  3G16G07G26                                       
  21228857.15649 111558397.14849     -6878.90649        49.000  
  22973990.45349 120729133.78549       -42.69549        50.000  
  22655837.20349 119057227.00049      4636.90249        50.000  
 16 04 02 14 17 10.9000000  0  3G16G07G26                                       
  21228988.10249 111559085.27349     -6883.46949        49.000  
  22973991.31249 120729138.26249       -47.04749        50.000  
  22655749.00049 119056763.48049      4633.39849        50.000  
 16 04 02 14 17 11.0000000  0  3G16G07G26                                       
  21229119.14149 111559773.85949     -6888.21549        49.000  
  22973992.24249 120729143.14849       -51.32449        50.000  
  22655660.85949 119056300.28949      4629.94149        50.000  
 16 04 02 14 17 11.1000000  0  3G16G07G26                                       
  21229250.25849 111560462.90249     -6892.53949        49.000  
  22973993.25849 120729148.47749       -55.44149        50.000  
  22655572.78149 119055837.46549      4626.46949        50.000  
 16 04 02 14 17 11.2000000  0  3G16G07G26                                       
  21229381.45349 111561152.34049     -6896.52349        49.000  
  22973994.33649 120729154.16049       -59.10249        50.000  
  22655484.76649 119055374.92249      4623.59049        50.000  
 16 04 02 14 17 11.3000000  0  3G16G07G26                                       
  21229512.75049 111561842.30949     -6901.61349        49.000  
  22973995.51649 120729160.34049       -63.96549        50.000  
  22655396.82049 119054912.78949      4619.62149        50.000  
 16 04 02 14 17 11.4000000  0  3G16G07G26                                       
  21229644.10949 111562532.67249     -6905.67249        49.000  
  22973996.75849 120729166.88749       -67.48849        50.000  
  22655308.93849 119054450.94149      4616.84049        50.000  
 16 04 02 14 17 11.5000000  0  3G16G07G26                                       
  21229775.56249 111563223.48449     -6910.31249        49.000  
  22973998.09449 120729173.85949       -71.96549        50.000  
  22655221.11749 119053989.44149      4613.16449        50.000  
 16 04 02 14 17 11.6000000  0  3G16G07G26                                       
  21229907.10249 111563914.74649     -6914.64149        49.000  
  22973999.50049 120729181.24249       -75.89549        50.000  
  22655133.35949 119053528.27349      4610.03549        50.000  
 16 04 02 14 17 11.7000000  0  3G16G07G26                                       
  21230038.72749 111564606.42249     -6918.90649        49.000  
  22974000.98449 120729189.01249       -80.03549        50.000  
  22655045.66449 119053067.41049      4606.79749        50.000  
 16 04 02 14 17 11.8000000  0  3G16G07G26                                       
  21230170.44549 111565298.59449     -6923.74249        49.000  
  22974002.55549 120729197.24249       -84.58249        50.000  
  22654958.03949 119052606.94149      4602.84449        50.000  
 16 04 02 14 17 11.9000000  0  3G16G07G26                                       
  21230302.25849 111565991.29749     -6929.34849        49.000  
  22974004.21149 120729205.97349       -89.66449        50.000  
  22654870.49249 119052146.88749      4598.65249        50.000  
 16 04 02 14 17 12.0000000  0  3G16G07G26                                       
  21230434.14849 111566684.36349     -6932.75849        49.000  
  22974005.93849 120729215.03949       -92.70749        50.000  
  22654783.00049 119051687.08249      4596.33649        50.000  
 16 04 02 14 17 12.1000000  0  3G16G07G26                                       
  21230566.10949 111567377.82049     -6936.69149        49.000  
  22974007.72749 120729224.46149       -96.49649        50.000  
  22654695.55549 119051227.56249      4593.43849        50.000  
 16 04 02 14 17 12.2000000  0  3G16G07G26                                       
  21230698.16449 111568071.77049     -6941.38349        49.000  
  22974009.60949 120729234.35949      -101.01649        50.000  
  22654608.18849 119050768.43449      4589.75449        50.000  
 16 04 02 14 17 12.3000000  0  3G16G07G26                                       
  21230830.29749 111568766.16049     -6945.93049        49.000  
  22974011.56249 120729244.64149      -104.81249        50.000  
  22654520.87549 119050309.61349      4586.61749        50.000  
 16 04 02 14 17 12.4000000  0  3G16G07G26                                       
  21230962.50849 111569460.92649     -6949.85249        49.000  
  22974013.59449 120729255.29349      -108.76649        50.000  
  22654433.62549 119049851.07849      4583.59049        50.000  
 16 04 02 14 17 12.5000000  0  3G16G07G26                                       
  21231094.80549 111570156.14549     -6954.16449        49.000  
  22974015.70349 120729266.35249      -112.64149        50.000  
  22654346.43049 119049392.88349      4580.35949        50.000  
 16 04 02 14 17 12.6000000  0  3G16G07G26                                       
  21231227.18849 111570851.81249     -6958.82849        49.000  
  22974017.88349 120729277.83649      -117.00849        50.000  
  22654259.31249 119048935.02349      4576.82849        50.000  
 16 04 02 14 17 12.7000000  0  3G16G07G26                                       
  21231359.65649 111571547.94549     -6963.59849        49.000  
  22974020.16449 120729289.75849      -121.57849        50.000  
  22654172.25049 119048477.52349      4573.05149        50.000  
 16 04 02 14 17 12.8000000  0  3G16G07G26                                       
  21231492.22749 111572244.55549     -6968.23849        49.000  
  22974022.51649 120729302.12149      -125.89549        50.000  
  22654085.26649 119048020.38349      4569.57849        50.000  
 16 04 02 14 17 12.9000000  0  3G16G07G26                                       
  21231624.86749 111572941.59849     -6972.48049        49.000  
  22974024.93049 120729314.88349      -129.64849        50.000  
  22653998.33649 119047563.56649      4566.57449        50.000  
 16 04 02 14 17 13.0000000  0  3G16G07G26                                       
  21231757.58649 111573639.08649     -6977.07049        49.000  
  22974027.43849 120729328.06249      -133.99649        50.000  
  22653911.47749 119047107.09049      4562.99649        50.000  
 16 04 02 14 17 13.1000000  0  3G16G07G26                                       
  21231890.39849 111574337.00849     -6981.34449        49.000  
  22974030.02349 120729341.65649      -138.06649        50.000  
  22653824.67249 119046650.94549      4559.74649        50.000  
 16 04 02 14 17 13.2000000  0  3G16G07G26                                       
  21232023.29749 111575035.39849     -6985.99649        49.000  
  22974032.69549 120729355.68049      -142.42649        50.000  
  22653737.93849 119046195.15249      4556.18449        50.000  
 16 04 02 14 17 13.3000000  0  4G04G16G07G26                                    
  23540354.01649 123705394.31259     10229.33649        49.000  
  21232156.28949 111575734.26649     -6990.85549        49.000  
  22974035.44549 120729370.14149      -146.90249        50.000  
  22653651.26649 119045739.71949      4552.43449        50.000  
 16 04 02 14 17 13.4000000  0  4G04G16G07G26                                    
  23540159.37549 123704371.47749     10226.90649        49.000  
  21232289.35949 111576433.55949     -6995.09849        49.000  
  22974038.27349 120729385.00449      -150.76249        50.000  
  22653564.68049 119045284.59849      4549.42649        50.000  
 16 04 02 14 17 13.5000000  0  4G04G16G07G26                                    
  23539964.76649 123703348.88349     10224.36349        49.000  
  21232422.50849 111577133.27049     -6999.21949        49.000  
  22974041.17249 120729400.26649      -154.88349        50.000  
  22653478.13349 119044829.81249      4546.13749        50.000  
 16 04 02 14 17 13.6000000  0  4G04G16G07G26                                    
  23539770.22749 123702326.59449     10221.61749        49.000  
  21232555.75049 111577833.46149     -7003.75449        49.000  
  22974044.15649 120729415.96549      -159.06249        50.000  
  22653391.64849 119044375.38349      4542.73849        50.000  
 16 04 02 14 17 13.7000000  0  4G04G16G07G26                                    
  23539575.75849 123701304.56649     10218.82049        49.000  
  21232689.07849 111578534.09449     -7008.30149        49.000  
  22974047.23449 120729432.07849      -163.29749        50.000  
