     2.10           OBSERVATION DATA    G (GPS)             RINEX VERSION / TYPE
Convert v1.8.0                          07-Jun-2016 18:56   PGM / RUN BY / DATE 
Signal Strength values S1,S2 are in dBHz                    COMMENT             
                                                            MARKER NAME         
                                                            MARKER NUMBER       
                                                            OBSERVER / AGENCY   
                    NovAtel GPSCard                         REC # / TYPE / VERS 
                                                            ANT # / TYPE        
0.0000        0.0000        0.0000                          APPROX POSITION XYZ 
        0.0000        0.0000        0.0000                  ANTENNA: DELTA H/E/N
     1     1                                                WAVELENGTH FACT L1/2
     1     1     5   G01   G10   G14   G17   G28            WAVELENGTH FACT L1/2
                                                            COMMENT             
                                                            COMMENT             
                                                            COMMENT             
                                                            COMMENT             
                                                            COMMENT             
                                                            COMMENT             
     4    C1    L1    D1    S1                              # / TYPES OF OBSERV 
     0.100                                                  INTERVAL            
  2016    04    02    13    36     7.2000000    GPS         TIME OF FIRST OBS   
  2016    04    02    13    39    29.2000000    GPS         TIME OF LAST OBS    
Leap Seconds Unknown                                        COMMENT             
                                                            END OF HEADER       
 16 04 02 13 36  7.2000000  0  1G28                                             
  21689083.28949 113976901.46959     -1233.04349        49.000  
 16 04 02 13 36  7.3000000  0  1G28                                             
  21689106.78949 113977024.94149     -1236.24249        49.000  
 16 04 02 13 36  7.4000000  0  1G28                                             
  21689130.35249 113977148.80549     -1240.30949        49.000  
 16 04 02 13 36  7.5000000  0  1G28                                             
  21689153.98449 113977273.00049     -1243.58649        49.000  
 16 04 02 13 36  7.6000000  0  1G28                                             
  21689177.67249 113977397.49249     -1246.54749        49.000  
 16 04 02 13 36  7.7000000  0  1G28                                             
  21689201.40649 113977522.24249     -1248.84449        49.000  
 16 04 02 13 36  7.8000000  0  1G28                                             
  21689225.20349 113977647.35549     -1252.63349        49.000  
 16 04 02 13 36  7.9000000  0  1G28                                             
  21689249.07849 113977772.80149     -1255.96149        49.000  
 16 04 02 13 36  8.0000000  0  1G28                                             
  21689272.98449 113977898.49649     -1258.48049        49.000  
 16 04 02 13 36  8.1000000  0  1G28                                             
  21689296.96149 113978024.46149     -1260.96949        49.000  
 16 04 02 13 36  8.2000000  0  1G28                                             
  21689321.00849 113978150.79749     -1264.92649        49.000  
 16 04 02 13 36  8.3000000  0  1G28                                             
  21689345.10249 113978277.40649     -1267.44149        49.000  
 16 04 02 13 36  8.4000000  0  1G28                                             
  21689369.25049 113978404.30149     -1270.36349        49.000  
 16 04 02 13 36  8.5000000  0  1G28                                             
  21689393.46149 113978531.53149     -1273.88749        49.000  
 16 04 02 13 36  8.6000000  0  1G28                                             
  21689417.74249 113978659.07849     -1276.96149        49.000  
 16 04 02 13 36  8.7000000  0  1G28                                             
  21689442.07849 113978786.96149     -1280.21149        49.000  
 16 04 02 13 36  8.8000000  0  1G28                                             
  21689466.46949 113978915.12549     -1283.35549        49.000  
 16 04 02 13 36  8.9000000  0  1G28                                             
  21689490.93049 113979043.65649     -1287.18449        49.000  
 16 04 02 13 36  9.0000000  0  1G28                                             
  21689515.46149 113979172.54749     -1290.53549        49.000  
 16 04 02 13 36  9.1000000  0  1G28                                             
  21689540.03149 113979301.66449     -1292.85549        49.000  
 16 04 02 13 36  9.2000000  0  1G28                                             
  21689564.68049 113979431.18449     -1296.53549        49.000  
 16 04 02 13 36  9.3000000  0  1G28                                             
  21689589.37549 113979560.96149     -1299.44549        49.000  
 16 04 02 13 36  9.4000000  0  1G28                                             
  21689614.13349 113979691.02749     -1302.34049        49.000  
 16 04 02 13 36  9.5000000  0  1G28                                             
  21689638.94549 113979821.39849     -1305.26649        49.000  
 16 04 02 13 36  9.6000000  0  1G28                                             
  21689663.82849 113979952.11349     -1308.73049        49.000  
 16 04 02 13 36  9.7000000  0  1G28                                             
  21689688.76649 113980083.18449     -1312.45349        49.000  
 16 04 02 13 36  9.8000000  0  1G28                                             
  21689713.76649 113980214.58649     -1315.37549        49.000  
 16 04 02 13 36  9.9000000  0  1G28                                             
  21689738.81249 113980346.19949     -1317.59049        49.000  
 16 04 02 13 36 10.0000000  0  1G28                                             
  21689763.92249 113980478.15649     -1320.93449        49.000  
 16 04 02 13 36 10.1000000  0  1G28                                             
  21689789.08649 113980610.41849     -1324.10949        49.000  
 16 04 02 13 36 10.2000000  0  1G28                                             
  21689814.32849 113980743.03549     -1327.58649        49.000  
 16 04 02 13 36 10.3000000  0  1G28                                             
  21689839.60949 113980875.88349     -1330.18849        49.000  
 16 04 02 13 36 10.4000000  0  1G28                                             
  21689864.96149 113981009.11749     -1333.85549        49.000  
 16 04 02 13 36 10.5000000  0  1G28                                             
  21689890.38349 113981142.68449     -1337.34849        49.000  
 16 04 02 13 36 10.6000000  0  1G28                                             
  21689915.84449 113981276.54349     -1340.21149        49.000  
 16 04 02 13 36 10.7000000  0  1G28                                             
  21689941.39149 113981410.78949     -1344.02349        49.000  
 16 04 02 13 36 10.8000000  0  1G28                                             
  21689966.98449 113981545.31249     -1346.80949        49.000  
 16 04 02 13 36 10.9000000  0  1G28                                             
  21689992.64849 113981680.18449     -1350.45349        49.000  
 16 04 02 13 36 11.0000000  0  1G28                                             
  21690018.38349 113981815.41449     -1353.84849        49.000  
 16 04 02 13 36 11.1000000  0  1G28                                             
  21690044.15649 113981950.85249     -1355.89549        49.000  
 16 04 02 13 36 11.2000000  0  1G28                                             
  21690069.98449 113982086.61749     -1358.98449        49.000  
 16 04 02 13 36 11.3000000  0  1G28                                             
  21690095.87549 113982222.66449     -1361.86749        49.000  
 16 04 02 13 36 11.4000000  0  1G28                                             
  21690121.82849 113982359.03149     -1365.15649        49.000  
 16 04 02 13 36 11.5000000  0  1G28                                             
  21690147.84449 113982495.73449     -1368.56249        49.000  
 16 04 02 13 36 11.6000000  0  1G28                                             
  21690173.90649 113982632.75049     -1371.91049        49.000  
 16 04 02 13 36 11.7000000  0  1G28                                             
  21690200.03949 113982770.07449     -1374.63749        49.000  
 16 04 02 13 36 11.8000000  0  1G28                                             
  21690226.22749 113982907.73049     -1378.03949        49.000  
 16 04 02 13 36 11.9000000  0  1G28                                             
  21690252.48449 113983045.72749     -1381.45349        49.000  
 16 04 02 13 36 12.0000000  0  1G28                                             
  21690278.80549 113983184.00049     -1384.24649        49.000  
 16 04 02 13 36 12.1000000  0  1G28                                             
  21690305.16449 113983322.53949     -1386.89149        49.000  
 16 04 02 13 36 12.2000000  0  1G28                                             
  21690331.60249 113983461.43449     -1390.32049        49.000  
 16 04 02 13 36 12.3000000  0  1G28                                             
  21690358.09449 113983600.66049     -1393.99649        49.000  
 16 04 02 13 36 12.4000000  0  1G28                                             
  21690384.65649 113983740.27349     -1397.79349        49.000  
 16 04 02 13 36 12.5000000  0  1G28                                             
  21690411.28149 113983880.17649     -1400.72349        49.000  
 16 04 02 13 36 12.6000000  0  1G28                                             
  21690437.96949 113984020.33249     -1402.83649        49.000  
 16 04 02 13 36 12.7000000  0  1G28                                             
  21690464.69549 113984160.78949     -1406.02349        49.000  
 16 04 02 13 36 12.8000000  0  1G28                                             
  21690491.49249 113984301.57849     -1409.23049        49.000  
 16 04 02 13 36 12.9000000  0  1G28                                             
  21690518.34449 113984442.70349     -1412.73449        49.000  
 16 04 02 13 36 13.0000000  0  1G28                                             
  21690545.25849 113984584.13749     -1415.87949        49.000  
 16 04 02 13 36 13.1000000  0  1G28                                             
  21690572.21949 113984725.82049     -1418.26249        49.000  
 16 04 02 13 36 13.2000000  0  1G28                                             
  21690599.25049 113984867.85549     -1421.81649        49.000  
 16 04 02 13 36 13.3000000  0  1G28                                             
  21690626.33649 113985010.20349     -1424.94149        49.000  
 16 04 02 13 36 13.4000000  0  1G28                                             
  21690653.48449 113985152.80549     -1427.52349        49.000  
 16 04 02 13 36 13.5000000  0  1G28                                             
  21690680.68849 113985295.75849     -1430.98449        49.000  
 16 04 02 13 36 13.6000000  0  1G28                                             
  21690707.95349 113985439.02049     -1434.16449        49.000  
 16 04 02 13 36 13.7000000  0  1G28                                             
  21690735.27349 113985582.57049     -1437.36749        49.000  
 16 04 02 13 36 13.8000000  0  1G28                                             
  21690762.67249 113985726.54749     -1441.26249        49.000  
 16 04 02 13 36 13.9000000  0  1G28                                             
  21690790.10949 113985870.76649     -1444.02749        49.000  
 16 04 02 13 36 14.0000000  0  1G28                                             
  21690817.63349 113986015.38349     -1447.66849        49.000  
 16 04 02 13 36 14.1000000  0  1G28                                             
  21690845.19549 113986160.22349     -1449.91049        49.000  
 16 04 02 13 36 14.2000000  0  1G28                                             
  21690872.82849 113986305.41049     -1453.34849        49.000  
 16 04 02 13 36 14.3000000  0  1G28                                             
  21690900.51649 113986450.92249     -1456.50449        49.000  
 16 04 02 13 36 14.4000000  0  1G28                                             
  21690928.24249 113986596.68449     -1459.26249        49.000  
 16 04 02 13 36 14.5000000  0  1G28                                             
  21690956.05549 113986742.81649     -1462.68849        49.000  
 16 04 02 13 36 14.6000000  0  1G28                                             
  21690983.91449 113986889.23849     -1465.86349        49.000  
 16 04 02 13 36 14.7000000  0  1G28                                             
  21691011.84449 113987036.01249     -1469.30549        49.000  
 16 04 02 13 36 14.8000000  0  1G28                                             
  21691039.82849 113987183.09449     -1472.28549        49.000  
 16 04 02 13 36 14.9000000  0  1G28                                             
  21691067.86749 113987330.45349     -1475.14549        49.000  
 16 04 02 13 36 15.0000000  0  1G28                                             
  21691095.95349 113987478.13349     -1478.25449        49.000  
 16 04 02 13 36 15.1000000  0  1G28                                             
  21691124.11749 113987626.10949     -1481.27049        49.000  
 16 04 02 13 36 15.2000000  0  1G28                                             
  21691152.34449 113987774.42649     -1484.70349        49.000  
 16 04 02 13 36 15.3000000  0  1G28                                             
  21691180.63349 113987923.09849     -1488.35549        49.000  
 16 04 02 13 36 15.4000000  0  1G28                                             
  21691208.98449 113988072.05149     -1491.02349        49.000  
 16 04 02 13 36 15.5000000  0  1G28                                             
  21691237.38349 113988221.27049     -1493.85549        49.000  
 16 04 02 13 36 15.6000000  0  1G28                                             
  21691265.85249 113988370.89549     -1497.66449        49.000  
 16 04 02 13 36 15.7000000  0  1G28                                             
  21691294.36749 113988520.77349     -1500.42649        49.000  
 16 04 02 13 36 15.8000000  0  1G28                                             
  21691322.96149 113988671.01249     -1504.08649        49.000  
 16 04 02 13 36 15.9000000  0  1G28                                             
  21691351.60949 113988821.56249     -1507.13349        49.000  
 16 04 02 13 36 16.0000000  0  1G28                                             
  21691380.32049 113988972.43049     -1510.14549        49.000  
 16 04 02 13 36 16.1000000  0  1G28                                             
  21691409.07849 113989123.56249     -1512.89549        49.000  
 16 04 02 13 36 16.2000000  0  1G28                                             
  21691437.89849 113989275.03949     -1516.12949        49.000  
 16 04 02 13 36 16.3000000  0  1G28                                             
  21691466.78149 113989426.81649     -1519.33249        49.000  
 16 04 02 13 36 16.4000000  0  1G28                                             
  21691495.73449 113989578.92649     -1522.44549        49.000  
 16 04 02 13 36 16.5000000  0  1G28                                             
  21691524.73449 113989731.32849     -1525.57849        49.000  
 16 04 02 13 36 16.6000000  0  1G28                                             
  21691553.79749 113989884.02749     -1528.39549        49.000  
 16 04 02 13 36 16.7000000  0  1G28                                             
  21691582.90649 113990037.00849     -1531.30949        49.000  
 16 04 02 13 36 16.8000000  0  1G28                                             
  21691612.08649 113990190.34849     -1534.83649        49.000  
 16 04 02 13 36 16.9000000  0  1G28                                             
  21691641.32849 113990344.01649     -1538.27349        49.000  
 16 04 02 13 36 17.0000000  0  1G28                                             
  21691670.63349 113990498.00449     -1541.40249        49.000  
 16 04 02 13 36 17.1000000  0  1G28                                             
  21691699.98449 113990652.25849     -1544.21149        49.000  
 16 04 02 13 36 17.2000000  0  1G28                                             
  21691729.39849 113990806.85949     -1547.49649        49.000  
 16 04 02 13 36 17.3000000  0  1G28                                             
  21691758.88349 113990961.78949     -1550.92249        49.000  
 16 04 02 13 36 17.4000000  0  1G28                                             
  21691788.42249 113991117.00449     -1553.69949        49.000  
 16 04 02 13 36 17.5000000  0  1G28                                             
  21691818.01649 113991272.50849     -1556.48049        49.000  
 16 04 02 13 36 17.6000000  0  1G28                                             
  21691847.67249 113991428.32449     -1559.58249        49.000  
 16 04 02 13 36 17.7000000  0  1G28                                             
  21691877.38349 113991584.44549     -1562.57449        49.000  
 16 04 02 13 36 17.8000000  0  1G28                                             
  21691907.15649 113991740.89849     -1566.11749        49.000  
 16 04 02 13 36 17.9000000  0  1G28                                             
  21691936.99249 113991897.69549     -1569.55149        49.000  
 16 04 02 13 36 18.0000000  0  1G28                                             
  21691966.89149 113992054.77749     -1572.39549        49.000  
 16 04 02 13 36 18.1000000  0  1G28                                             
  21691996.83649 113992212.18049     -1575.58249        49.000  
 16 04 02 13 36 18.2000000  0  1G28                                             
  21692026.85249 113992369.91449     -1578.84449        49.000  
 16 04 02 13 36 18.3000000  0  1G28                                             
  21692056.92249 113992527.91049     -1581.58649        49.000  
 16 04 02 13 36 18.4000000  0  1G28                                             
  21692087.05549 113992686.27349     -1585.13749        49.000  
 16 04 02 13 36 18.5000000  0  1G28                                             
  21692117.25049 113992844.94149     -1588.33649        49.000  
 16 04 02 13 36 18.6000000  0  1G28                                             
  21692147.50049 113993003.93449     -1591.34849        49.000  
 16 04 02 13 36 18.7000000  0  1G28                                             
  21692177.81249 113993163.21949     -1594.37149        49.000  
 16 04 02 13 36 18.8000000  0  1G28                                             
  21692208.18849 113993322.82449     -1597.49249        49.000  
 16 04 02 13 36 18.9000000  0  1G28                                             
  21692238.61749 113993482.75849     -1600.78949        49.000  
 16 04 02 13 36 19.0000000  0  1G28                                             
  21692269.10249 113993642.95349     -1603.36349        49.000  
 16 04 02 13 36 19.1000000  0  1G28                                             
  21692299.64849 113993803.45349     -1606.48849        49.000  
 16 04 02 13 36 19.2000000  0  1G28                                             
  21692330.24249 113993964.25049     -1609.39849        49.000  
 16 04 02 13 36 19.3000000  0  1G28                                             
  21692360.90649 113994125.39849     -1613.10549        49.000  
 16 04 02 13 36 19.4000000  0  2G17G28                                          
  21955345.82049 115376120.29759    -16269.23049        49.000  
  21692391.62549 113994286.84849     -1616.04349        49.000  
 16 04 02 13 36 19.5000000  0  2G17G28                                          
  21955655.44549 115377747.38349    -16272.23849        49.000  
  21692422.41449 113994448.64549     -1619.53149        49.000  
 16 04 02 13 36 19.6000000  0  2G17G28                                          
  21955965.11749 115379374.75849    -16275.05949        49.000  
  21692453.26649 113994610.76649     -1622.80149        49.000  
 16 04 02 13 36 19.7000000  0  2G17G28                                          
  21956274.83649 115381002.33249    -16277.14549        49.000  
  21692484.15649 113994773.12949     -1625.24249        49.000  
 16 04 02 13 36 19.8000000  0  2G17G28                                          
  21956584.63349 115382630.24249    -16280.22349        49.000  
  21692515.12549 113994935.86349     -1628.65649        49.000  
 16 04 02 13 36 19.9000000  0  2G17G28                                          
  21956894.46149 115384258.40649    -16283.11349        49.000  
  21692546.14849 113995098.89849     -1632.01649        49.000  
 16 04 02 13 36 20.0000000  0  2G17G28                                          
  21957204.30549 115385886.80949    -16285.19549        49.000  
  21692577.22749 113995262.20749     -1634.44149        49.000  
 16 04 02 13 36 20.1000000  0  2G17G28                                          
  21957514.21949 115387515.44149    -16287.72749        49.000  
  21692608.35249 113995425.79749     -1637.40649        49.000  
 16 04 02 13 36 20.2000000  0  2G17G28                                          
  21957824.21949 115389144.45349    -16291.45749        49.000  
  21692639.56249 113995589.78949     -1641.40649        49.000  
 16 04 02 13 36 20.3000000  0  2G17G28                                          
  21958134.25849 115390773.69549    -16293.89149        49.000  
  21692670.82049 113995754.06649     -1644.42249        49.000  
 16 04 02 13 36 20.4000000  0  2G17G28                                          
  21958444.36749 115392403.14549    -16295.87149        49.000  
  21692702.13349 113995918.59049     -1646.69149        49.000  
 16 04 02 13 36 20.5000000  0  2G17G28                                          
  21958754.48449 115394032.83249    -16297.97349        49.000  
  21692733.49249 113996083.39549     -1649.28149        49.000  
 16 04 02 13 36 20.6000000  0  2G17G28                                          
  21959064.68849 115395662.85949    -16301.64549        49.000  
  21692764.92249 113996248.57049     -1653.38349        49.000  
 16 04 02 13 36 20.7000000  0  2G17G28                                          
  21959374.91449 115397293.11749    -16304.00049        49.000  
  21692796.40649 113996414.02349     -1656.07049        49.000  
 16 04 02 13 36 20.8000000  0  2G17G28                                          
  21959685.22749 115398923.66449    -16306.66049        49.000  
  21692827.95349 113996579.80549     -1659.17249        49.000  
 16 04 02 13 36 20.9000000  0  2G17G28                                          
  21959995.56249 115400554.51249    -16309.99649        49.000  
  21692859.56249 113996745.92249     -1662.76249        49.000  
 16 04 02 13 36 21.0000000  0  2G17G28                                          
  21960305.96149 115402185.63349    -16312.57449        49.000  
  21692891.23449 113996912.37149     -1665.94949        49.000  
 16 04 02 13 36 21.1000000  0  2G17G28                                          
  21960616.39149 115403816.96549    -16314.55149        49.000  
  21692922.95349 113997079.06249     -1668.35949        49.000  
 16 04 02 13 36 21.2000000  0  2G17G28                                          
  21960926.87549 115405448.65649    -16318.14549        49.000  
  21692954.75049 113997246.14549     -1672.28949        49.000  
 16 04 02 13 36 21.3000000  0  2G17G28                                          
  21961237.42249 115407080.57449    -16320.57849        49.000  
  21692986.59449 113997413.50049     -1675.08249        49.000  
 16 04 02 13 36 21.4000000  0  2G17G28                                          
  21961547.99249 115408712.72749    -16322.85549        49.000  
  21693018.50849 113997581.14149     -1677.89149        49.000  
 16 04 02 13 36 21.5000000  0  2G17G28                                          
  21961858.64149 115410345.21949    -16326.50049        49.000  
  21693050.47749 113997749.14849     -1681.71549        49.000  
 16 04 02 13 36 21.6000000  0  2G17G28                                          
  21962169.34449 115411977.95349    -16328.80949        49.000  
  21693082.49249 113997917.44149     -1684.56249        49.000  
 16 04 02 13 36 21.7000000  0  2G17G28                                          
  21962480.10249 115413610.98049    -16331.51249        49.000  
  21693114.58649 113998086.07449     -1687.72749        49.000  
 16 04 02 13 36 21.8000000  0  2G17G28                                          
  21962790.93049 115415244.21149    -16333.70749        49.000  
  21693146.72749 113998254.94949     -1690.37149        49.000  
 16 04 02 13 36 21.9000000  0  2G17G28                                          
  21963101.78149 115416877.73849    -16336.42249        49.000  
  21693178.92249 113998424.15649     -1693.39149        49.000  
 16 04 02 13 36 22.0000000  0  2G17G28                                          
  21963412.68049 115418511.50849    -16338.88749        49.000  
  21693211.17249 113998593.66049     -1696.40249        49.000  
 16 04 02 13 36 22.1000000  0  2G17G28                                          
  21963723.62549 115420145.56249    -16341.76249        49.000  
  21693243.48449 113998763.46549     -1699.40649        49.000  
 16 04 02 13 36 22.2000000  0  2G17G28                                          
  21964034.62549 115421779.91849    -16345.04749        49.000  
  21693275.86749 113998933.64549     -1703.35949        49.000  
 16 04 02 13 36 22.3000000  0  2G17G28                                          
  21964345.68849 115423414.56649    -16347.88749        49.000  
  21693308.31249 113999104.13349     -1706.49249        49.000  
 16 04 02 13 36 22.4000000  0  2G17G28                                          
  21964656.77349 115425049.44549    -16350.05149        49.000  
  21693340.79749 113999274.89849     -1709.16849        49.000  
 16 04 02 13 36 22.5000000  0  2G17G28                                          
  21964967.94549 115426684.63749    -16353.27049        49.000  
  21693373.36749 113999446.01649     -1712.69149        49.000  
 16 04 02 13 36 22.6000000  0  2G17G28                                          
  21965279.16449 115428320.10549    -16356.20749        49.000  
  21693405.99249 113999617.46949     -1716.20749        49.000  
 16 04 02 13 36 22.7000000  0  2G17G28                                          
  21965590.44549 115429955.87549    -16359.05549        49.000  
  21693438.68049 113999789.23449     -1719.31249        49.000  
 16 04 02 13 36 22.8000000  0  2G17G28                                          
  21965901.75049 115431591.90249    -16361.75449        49.000  
  21693471.43049 113999961.33249     -1722.63749        49.000  
 16 04 02 13 36 22.9000000  0  2G17G28                                          
  21966213.13349 115433228.20349    -16364.33649        49.000  
  21693504.23449 114000133.71549     -1725.40649        49.000  
 16 04 02 13 36 23.0000000  0  2G17G28                                          
  21966524.53949 115434864.73449    -16366.56249        49.000  
  21693537.08649 114000306.37949     -1728.11349        49.000  
 16 04 02 13 36 23.1000000  0  2G17G28                                          
  21966836.00849 115436501.52349    -16369.32049        49.000  
  21693570.00049 114000479.33649     -1731.20749        49.000  
 16 04 02 13 36 23.2000000  0  2G17G28                                          
  21967147.53949 115438138.64149    -16372.57049        49.000  
  21693602.98449 114000652.68049     -1734.96149        49.000  
 16 04 02 13 36 23.3000000  0  2G17G28                                          
  21967459.10949 115439775.95349    -16374.35549        49.000  
  21693636.00849 114000826.24249     -1737.12549        49.000  
 16 04 02 13 36 23.4000000  0  2G17G28                                          
  21967770.72749 115441413.54749    -16377.30549        49.000  
  21693669.10249 114001000.14149     -1740.52049        49.000  
 16 04 02 13 36 23.5000000  0  2G17G28                                          
  21968082.41449 115443051.47349    -16380.56249        49.000  
  21693702.25849 114001174.41049     -1744.22349        49.000  
 16 04 02 13 36 23.6000000  0  2G17G28                                          
  21968394.14849 115444689.63749    -16383.18449        49.000  
  21693735.47749 114001348.95349     -1747.19549        49.000  
 16 04 02 13 36 23.7000000  0  2G17G28                                          
  21968705.93049 115446328.05549    -16385.19949        49.000  
  21693768.74249 114001523.78149     -1749.45349        49.000  
 16 04 02 13 36 23.8000000  0  2G17G28                                          
  21969017.73449 115447966.62949    -16387.03949        49.000  
  21693802.05549 114001698.83649     -1752.07049        49.000  
 16 04 02 13 36 23.9000000  0  2G17G28                                          
  21969329.61749 115449605.57449    -16390.78149        49.000  
  21693835.43849 114001874.28149     -1755.89849        49.000  
 16 04 02 13 36 24.0000000  0  2G17G28                                          
  21969641.53949 115451244.82049    -16393.87549        49.000  
  21693868.89149 114002050.06249     -1759.32449        49.000  
 16 04 02 13 36 24.1000000  0  2G17G28                                          
  21969953.52349 115452884.28549    -16396.13749        49.000  
  21693902.39849 114002226.12949     -1762.28949        49.000  
 16 04 02 13 36 24.2000000  0  2G17G28                                          
  21970265.56249 115454524.05149    -16399.00849        49.000  
  21693935.96949 114002402.52349     -1765.48449        49.000  
 16 04 02 13 36 24.3000000  0  2G17G28                                          
  21970577.65649 115456164.09849    -16401.80949        49.000  
  21693969.59449 114002579.23049     -1768.59849        49.000  
 16 04 02 13 36 24.4000000  0  2G17G28                                          
  21970889.78949 115457804.43049    -16404.68449        49.000  
  21694003.28149 114002756.28149     -1771.99249        49.000  
 16 04 02 13 36 24.5000000  0  2G17G28                                          
  21971201.98449 115459445.00449    -16407.09049        49.000  
  21694037.02349 114002933.60949     -1774.89849        50.000  
 16 04 02 13 36 24.6000000  0  2G17G28                                          
  21971514.23449 115461085.88349    -16410.09049        49.000  
  21694070.83649 114003111.27749     -1778.24649        49.000  
 16 04 02 13 36 24.7000000  0  2G17G28                                          
  21971826.53949 115462727.04349    -16413.01249        49.000  
  21694104.71149 114003289.27749     -1781.69149        49.000  
 16 04 02 13 36 24.8000000  0  2G17G28                                          
  21972138.87549 115464368.46949    -16415.58649        49.000  
  21694138.63349 114003467.57449     -1784.51649        49.000  
 16 04 02 13 36 24.9000000  0  2G17G28                                          
  21972451.28949 115466010.20749    -16418.82049        49.000  
  21694172.63349 114003646.23049     -1788.18449        49.000  
 16 04 02 13 36 25.0000000  0  2G17G28                                          
  21972763.76649 115467652.26249    -16422.13349        49.000  
  21694206.68849 114003825.23449     -1791.69149        49.000  
 16 04 02 13 36 25.1000000  0  2G17G28                                          
  21973076.26649 115469294.49249    -16423.64549        49.000  
  21694240.79749 114004004.47749     -1793.87549        49.000  
 16 04 02 13 36 25.2000000  0  2G17G28                                          
  21973388.79749 115470936.94149    -16425.64149        49.000  
  21694274.95349 114004183.96549     -1796.23049        49.000  
 16 04 02 13 36 25.3000000  0  2G17G28                                          
  21973701.40649 115472579.69149    -16428.67249        49.000  
  21694309.17249 114004363.79749     -1799.54749        49.000  
 16 04 02 13 36 25.4000000  0  2G17G28                                          
  21974014.06249 115474222.69949    -16431.33249        49.000  
  21694343.44549 114004543.93049     -1802.75849        49.000  
 16 04 02 13 36 25.5000000  0  2G17G28                                          
  21974326.76649 115475865.95349    -16433.78149        49.000  
  21694377.78149 114004724.34849     -1805.59849        50.000  
 16 04 02 13 36 25.6000000  0  2G17G28                                          
  21974639.51649 115477509.46949    -16436.41849        49.000  
  21694412.17249 114004905.07049     -1808.55549        50.000  
 16 04 02 13 36 25.7000000  0  2G17G28                                          
  21974952.32849 115479153.30549    -16439.87949        49.000  
  21694446.62549 114005086.15249     -1812.43849        50.000  
 16 04 02 13 36 25.8000000  0  2G17G28                                          
  21975265.18849 115480797.39149    -16442.28949        49.000  
  21694481.14849 114005267.53549     -1815.37149        50.000  
 16 04 02 13 36 25.9000000  0  2G17G28                                          
  21975578.09449 115482441.71549    -16444.48049        49.000  
  21694515.71949 114005449.18849     -1817.94149        49.000  
 16 04 02 13 36 26.0000000  0  2G17G28                                          
  21975891.02349 115484086.26249    -16446.80549        50.000  
  21694550.33649 114005631.11349     -1820.79349        49.000  
 16 04 02 13 36 26.1000000  0  2G17G28                                          
  21976204.03149 115485731.12549    -16449.87549        49.000  
  21694585.02349 114005813.39149     -1824.17649        50.000  
 16 04 02 13 36 26.2000000  0  2G17G28                                          
  21976517.07849 115487376.25849    -16452.53549        50.000  
  21694619.77349 114005995.98449     -1827.40649        50.000  
 16 04 02 13 36 26.3000000  0  2G17G28                                          
  21976830.18049 115489021.62549    -16454.96949        50.000  
  21694654.57049 114006178.85249     -1830.21549        50.000  
 16 04 02 13 36 26.4000000  0  2G17G28                                          
  21977143.33649 115490667.30949    -16458.12149        49.000  
  21694689.43049 114006362.06649     -1833.65649        50.000  
 16 04 02 13 36 26.5000000  0  2G17G28                                          
  21977456.54749 115492313.26649    -16460.90649        49.000  
  21694724.35949 114006545.60249     -1836.85249        50.000  
 16 04 02 13 36 26.6000000  0  2G17G28                                          
  21977769.83649 115493959.49249    -16463.59849        50.000  
  21694759.34449 114006729.45349     -1840.00449        49.000  
 16 04 02 13 36 26.7000000  0  2G17G28                                          
  21978083.15649 115495605.99249    -16466.44149        50.000  
  21694794.39149 114006913.61749     -1843.21949        49.000  
 16 04 02 13 36 26.8000000  0  2G17G28                                          
  21978396.50049 115497252.73049    -16468.55149        50.000  
  21694829.49249 114007098.06249     -1845.79749        49.000  
 16 04 02 13 36 26.9000000  0  2G17G28                                          
  21978709.91449 115498899.73849    -16471.41449        50.000  
  21694864.64849 114007282.82049     -1849.10249        50.000  
 16 04 02 13 36 27.0000000  0  2G17G28                                          
  21979023.39149 115500547.03149    -16474.32049        49.000  
  21694899.86749 114007467.89549     -1852.26249        50.000  
 16 04 02 13 36 27.1000000  0  2G17G28                                          
  21979336.89849 115502194.52349    -16476.28949        49.000  
  21694935.14149 114007653.22349     -1854.77049        50.000  
 16 04 02 13 36 27.2000000  0  2G17G28                                          
  21979650.45349 115503842.30149    -16478.86749        49.000  
  21694970.46149 114007838.87149     -1857.70349        50.000  
 16 04 02 13 36 27.3000000  0  2G17G28                                          
  21979964.06249 115505490.31249    -16481.46949        49.000  
  21695005.84449 114008024.79749     -1860.78949        50.000  
 16 04 02 13 36 27.4000000  0  2G17G28                                          
  21980277.71949 115507138.64549    -16484.68849        49.000  
  21695041.29749 114008211.09049     -1864.47349        49.000  
 16 04 02 13 36 27.5000000  0  2G17G28                                          
  21980591.43849 115508787.23849    -16487.30949        49.000  
  21695076.79749 114008397.68049     -1867.39549        49.000  
 16 04 02 13 36 27.6000000  0  2G17G28                                          
  21980905.18849 115510436.05149    -16489.41449        50.000  
  21695112.35949 114008584.53549     -1869.98049        49.000  
 16 04 02 13 36 27.7000000  0  2G17G28                                          
  21981219.00049 115512085.14549    -16492.22349        50.000  
  21695147.97749 114008771.70749     -1873.17249        49.000  
 16 04 02 13 36 27.8000000  0  2G17G28                                          
  21981532.84449 115513734.49649    -16494.76249        50.000  
  21695183.64849 114008959.18449     -1876.18849        49.000  
 16 04 02 13 36 27.9000000  0  2G17G28                                          
  21981846.76649 115515384.16049    -16497.93449        50.000  
  21695219.39149 114009147.01249     -1879.68449        50.000  
 16 04 02 13 36 28.0000000  0  2G17G28                                          
  21982160.74249 115517034.09449    -16500.69549        50.000  
  21695255.18849 114009335.15649     -1882.96949        49.000  
 16 04 02 13 36 28.1000000  0  2G17G28                                          
  21982474.75049 115518684.22749    -16502.59049        50.000  
  21695291.03149 114009523.53549     -1885.26249        49.000  
 16 04 02 13 36 28.2000000  0  2G17G28                                          
  21982788.82849 115520334.66449    -16505.66849        50.000  
  21695326.94549 114009712.25849     -1888.64149        49.000  
 16 04 02 13 36 28.3000000  0  2G17G28                                          
  21983102.94549 115521985.35949    -16508.26649        50.000  
  21695362.91449 114009901.28149     -1891.62149        49.000  
 16 04 02 13 36 28.4000000  0  2G17G28                                          
  21983417.10949 115523636.30549    -16510.77749        49.000  
  21695398.95349 114010090.61749     -1894.81649        49.000  
 16 04 02 13 36 28.5000000  0  2G17G28                                          
  21983731.32049 115525287.51649    -16513.47749        50.000  
  21695435.03149 114010280.23849     -1897.77749        49.000  
 16 04 02 13 36 28.6000000  0  2G17G28                                          
  21984045.59449 115526939.05149    -16516.71549        49.000  
  21695471.18849 114010470.23049     -1901.41449        49.000  
 16 04 02 13 36 28.7000000  0  2G17G28                                          
  21984359.90649 115528590.77749    -16518.66049        49.000  
  21695507.39149 114010660.46549     -1903.94549        49.000  
 16 04 02 13 36 28.8000000  0  2G17G28                                          
  21984674.28149 115530242.82049    -16521.70349        49.000  
  21695543.65649 114010851.04749     -1907.32049        49.000  
 16 04 02 13 36 28.9000000  0  2G17G28                                          
  21984988.69549 115531895.10249    -16524.12149        49.000  
  21695579.97749 114011041.91449     -1910.13749        49.000  
 16 04 02 13 36 29.0000000  0  2G17G28                                          
  21985303.17249 115533547.64849    -16526.44949        49.000  
  21695616.35249 114011233.08649     -1913.01249        49.000  
 16 04 02 13 36 29.1000000  0  2G17G28                                          
  21985617.69549 115535200.44949    -16529.32449        49.000  
  21695652.78949 114011424.55549     -1916.18449        49.000  
 16 04 02 13 36 29.2000000  0  2G17G28                                          
  21985932.28149 115536853.56249    -16532.52049        49.000  
  21695689.28949 114011616.37549     -1919.71549        49.000  
 16 04 02 13 36 29.3000000  0  2G17G28                                          
  21986246.91449 115538506.97349    -16535.56649        49.000  
  21695725.85949 114011808.54349     -1923.27049        49.000  
 16 04 02 13 36 29.4000000  0  2G17G28                                          
  21986561.58649 115540160.62549    -16537.90649        49.000  
  21695762.46949 114012000.99249     -1926.15249        49.000  
 16 04 02 13 36 29.5000000  0  2G17G28                                          
  21986876.31249 115541814.50049    -16540.00449        49.000  
  21695799.14149 114012193.69549     -1928.57849        50.000  
 16 04 02 13 36 29.6000000  0  2G17G28                                          
  21987191.09449 115543468.69949    -16543.29749        49.000  
  21695835.88349 114012386.78149     -1932.29349        50.000  
 16 04 02 13 36 29.7000000  0  2G17G28                                          
  21987505.92249 115545123.11749    -16545.43049        49.000  
  21695872.67249 114012580.11749     -1934.83249        50.000  
 16 04 02 13 36 29.8000000  0  2G17G28                                          
  21987820.78149 115546777.78149    -16547.92249        50.000  
  21695909.51649 114012773.74249     -1937.77749        50.000  
 16 04 02 13 36 29.9000000  0  2G17G28                                          
  21988135.70349 115548432.69949    -16550.45349        50.000  
  21695946.42249 114012967.66449     -1940.66449        50.000  
 16 04 02 13 36 30.0000000  0  2G17G28                                          
  21988450.67249 115550087.89149    -16553.14849        50.000  
  21695983.37549 114013161.89849     -1943.75449        49.000  
 16 04 02 13 36 30.1000000  0  2G17G28                                          
  21988765.69549 115551743.35949    -16556.09449        49.000  
  21696020.39849 114013356.45749     -1947.13749        49.000  
 16 04 02 13 36 30.2000000  0  2G17G28                                          
  21989080.78149 115553399.09049    -16558.54349        50.000  
  21696057.48449 114013551.32849     -1950.19949        49.000  
 16 04 02 13 36 30.3000000  0  2G17G28                                          
  21989395.89849 115555055.05549    -16560.94549        49.000  
  21696094.61749 114013746.46549     -1952.85249        50.000  
 16 04 02 13 36 30.4000000  0  2G17G28                                          
  21989711.07849 115556711.28549    -16563.51649        50.000  
  21696131.82049 114013941.90649     -1955.83249        50.000  
 16 04 02 13 36 30.5000000  0  2G17G28                                          
  21990026.29749 115558367.75849    -16566.25449        49.000  
  21696169.06249 114014137.63749     -1958.82049        50.000  
 16 04 02 13 36 30.6000000  0  2G17G28                                          
  21990341.57049 115560024.55949    -16569.26249        49.000  
  21696206.37549 114014333.73449     -1962.50049        50.000  
 16 04 02 13 36 30.7000000  0  2G17G28                                          
  21990656.89849 115561681.64149    -16572.23449        49.000  
  21696243.75849 114014530.16049     -1965.79749        49.000  
 16 04 02 13 36 30.8000000  0  2G17G28                                          
  21990972.28149 115563338.94949    -16574.51649        49.000  
  21696281.18849 114014726.85949     -1968.58649        49.000  
 16 04 02 13 36 30.9000000  0  2G17G28                                          
  21991287.70349 115564996.51249    -16576.90649        49.000  
  21696318.67249 114014923.84849     -1971.37949        49.000  
 16 04 02 13 36 31.0000000  0  2G17G28                                          
  21991603.18049 115566654.34049    -16579.57449        49.000  
  21696356.21949 114015121.14149     -1974.44949        49.000  
 16 04 02 13 36 31.1000000  0  2G17G28                                          
  21991918.70349 115568312.42649    -16582.15649        49.000  
  21696393.82049 114015318.74649     -1977.47749        49.000  
 16 04 02 13 36 31.2000000  0  2G17G28                                          
  21992234.27349 115569970.77749    -16584.79349        49.000  
  21696431.47749 114015516.64549     -1980.46149        49.000  
 16 04 02 13 36 31.3000000  0  2G17G28                                          
  21992549.91449 115571629.45749    -16588.26649        49.000  
  21696469.20349 114015714.92249     -1984.38349        49.000  
 16 04 02 13 36 31.4000000  0  2G17G28                                          
  21992865.60249 115573288.39549    -16590.69949        50.000  
  21696507.00049 114015913.50449     -1987.32849        49.000  
 16 04 02 13 36 31.5000000  0  2G17G28                                          
  21993181.31249 115574947.49649    -16592.32449        50.000  
  21696544.82849 114016112.28149     -1989.32449        49.000  
 16 04 02 13 36 31.6000000  0  2G17G28                                          
  21993497.10249 115576606.91449    -16595.29749        50.000  
  21696582.71949 114016311.42649     -1992.69949        49.000  
 16 04 02 13 36 31.7000000  0  2G17G28                                          
  21993812.93049 115578266.59449    -16598.02349        50.000  
  21696620.67249 114016510.87149     -1995.88749        49.000  
 16 04 02 13 36 31.8000000  0  2G17G28                                          
  21994128.79749 115579926.48449    -16600.25049        50.000  
  21696658.68049 114016710.57049     -1998.48449        49.000  
 16 04 02 13 36 31.9000000  0  2G17G28                                          
  21994444.71949 115581586.67249    -16603.18049        50.000  
  21696696.74249 114016910.60549     -2001.78149        49.000  
 16 04 02 13 36 32.0000000  0  2G17G28                                          
  21994760.71149 115583247.15249    -16606.00049        50.000  
  21696734.88349 114017110.98049     -2005.05549        49.000  
 16 04 02 13 36 32.1000000  0  2G17G28                                          
  21995076.74249 115584907.91049    -16609.19949        49.000  
  21696773.07049 114017311.68049     -2008.82449        49.000  
 16 04 02 13 36 32.2000000  0  2G17G28                                          
  21995392.83649 115586568.94949    -16611.78949        49.000  
  21696811.32849 114017512.69549     -2011.77349        49.000  
 16 04 02 13 36 32.3000000  0  2G17G28                                          
  21995708.96949 115588230.24249    -16614.19949        49.000  
  21696849.63349 114017714.00449     -2014.50049        49.000  
 16 04 02 13 36 32.4000000  0  2G17G28                                          
  21996025.14849 115589891.77349    -16616.57449        49.000  
  21696888.00049 114017915.59449     -2017.29349        49.000  
 16 04 02 13 36 32.5000000  0  2G17G28                                          
  21996341.37549 115591553.57049    -16619.22349        50.000  
  21696926.42249 114018117.50049     -2020.46549        49.000  
 16 04 02 13 36 32.6000000  0  2G17G28                                          
  21996657.66449 115593215.65249    -16622.30549        49.000  
  21696964.91449 114018319.73449     -2023.96549        50.000  
 16 04 02 13 36 32.7000000  0  2G17G28                                          
  21996974.00049 115594878.01249    -16624.91049        49.000  
  21697003.45349 114018522.27749     -2026.91849        50.000  
 16 04 02 13 36 32.8000000  0  2G17G28                                          
  21997290.39149 115596540.62149    -16627.41849        49.000  
  21697042.05549 114018725.12949     -2029.94949        50.000  
 16 04 02 13 36 32.9000000  0  2G17G28                                          
  21997606.83649 115598203.53949    -16630.58249        49.000  
  21697080.71949 114018928.32049     -2033.52749        50.000  
 16 04 02 13 36 33.0000000  0  2G17G28                                          
  21997923.34449 115599866.72349    -16633.16849        49.000  
  21697119.44549 114019131.81649     -2036.51249        49.000  
 16 04 02 13 36 33.1000000  0  2G17G28                                          
  21998239.88349 115601530.15249    -16635.66849        49.000  
  21697158.22749 114019335.61349     -2039.40649        49.000  
 16 04 02 13 36 33.2000000  0  2G17G28                                          
  21998556.46149 115603193.78949    -16637.53149        49.000  
  21697197.06249 114019539.66049     -2041.85249        49.000  
 16 04 02 13 36 33.3000000  0  2G17G28                                          
  21998873.09449 115604857.70749    -16640.45349        50.000  
  21697235.95349 114019744.01649     -2045.02749        50.000  
 16 04 02 13 36 33.4000000  0  2G17G28                                          
  21999189.76649 115606521.88749    -16643.05549        49.000  
  21697274.89849 114019948.69549     -2048.21549        50.000  
 16 04 02 13 36 33.5000000  0  2G17G28                                          
  21999506.49249 115608186.30549    -16645.32449        49.000  
  21697313.89849 114020153.64149     -2050.79749        50.000  
 16 04 02 13 36 33.6000000  0  2G17G28                                          
  21999823.27349 115609850.98449    -16648.01649        49.000  
  21697352.95349 114020358.89149     -2053.96149        50.000  
 16 04 02 13 36 33.7000000  0  2G17G28                                          
  22000140.10249 115611515.94549    -16651.03949        50.000  
  21697392.07049 114020564.46949     -2057.40249        50.000  
 16 04 02 13 36 33.8000000  0  2G17G28                                          
  22000456.97749 115613181.15649    -16653.56249        50.000  
  21697431.25049 114020770.34449     -2060.41449        50.000  
 16 04 02 13 36 33.9000000  0  2G17G28                                          
  22000773.90649 115614846.65249    -16656.18849        50.000  
  21697470.48449 114020976.53549     -2063.37549        50.000  
 16 04 02 13 36 34.0000000  0  2G17G28                                          
  22001090.89149 115616512.41849    -16659.00049        50.000  
  21697509.78149 114021183.05949     -2066.73449        50.000  
 16 04 02 13 36 34.1000000  0  2G17G28                                          
  22001407.92249 115618178.43849    -16661.55149        50.000  
  21697549.13349 114021389.85949     -2069.68449        50.000  
 16 04 02 13 36 34.2000000  0  2G17G28                                          
  22001725.02349 115619844.74249    -16664.24249        50.000  
  21697588.54749 114021596.99249     -2072.62549        50.000  
 16 04 02 13 36 34.3000000  0  2G17G28                                          
  22002042.14149 115621511.21549    -16666.01249        50.000  
  21697628.00849 114021804.34449     -2075.00449        50.000  
 16 04 02 13 36 34.4000000  0  2G17G28                                          
  22002359.30549 115623177.98449    -16668.91849        50.000  
  21697667.52349 114022012.03149     -2078.32849        50.000  
 16 04 02 13 36 34.5000000  0  2G17G28                                          
  22002676.53149 115624845.02049    -16671.71949        50.000  
  21697707.10249 114022220.02349     -2081.44149        50.000  
 16 04 02 13 36 34.6000000  0  2G17G28                                          
  22002993.80549 115626512.32449    -16674.25849        50.000  
  21697746.73449 114022428.33249     -2084.55149        50.000  
 16 04 02 13 36 34.7000000  0  2G17G28                                          
  22003311.12549 115628179.87549    -16676.78549        50.000  
  21697786.43049 114022636.93449     -2087.52349        50.000  
 16 04 02 13 36 34.8000000  0  2G17G28                                          
  22003628.49249 115629847.65249    -16679.02349        50.000  
  21697826.18049 114022845.79749     -2090.09449        50.000  
 16 04 02 13 36 34.9000000  0  2G17G28                                          
  22003945.92249 115631515.72749    -16682.23849        50.000  
  21697865.98449 114023054.99649     -2093.64549        50.000  
 16 04 02 13 36 35.0000000  0  2G17G28                                          
  22004263.40649 115633184.12149    -16685.35549        50.000  
  21697905.86749 114023264.57049     -2097.26249        50.000  
 16 04 02 13 36 35.1000000  0  2G17G28                                          
  22004580.93849 115634852.71949    -16687.39549        50.000  
  21697945.79749 114023474.38749     -2099.76649        50.000  
 16 04 02 13 36 35.2000000  0  2G17G28                                          
  22004898.50049 115636521.61349    -16690.17649        50.000  
  21697985.78949 114023684.54349     -2103.00449        50.000  
 16 04 02 13 36 35.3000000  0  2G17G28                                          
  22005216.14149 115638190.82049    -16693.52049        50.000  
  21698025.84449 114023895.04749     -2106.70749        50.000  
 16 04 02 13 36 35.4000000  0  2G17G28                                          
  22005533.82049 115639860.24249    -16695.40249        50.000  
  21698065.94549 114024105.81249     -2108.94949        50.000  
 16 04 02 13 36 35.5000000  0  2G17G28                                          
  22005851.54749 115641529.87149    -16697.55149        50.000  
  21698106.10249 114024316.83649     -2111.62949        50.000  
 16 04 02 13 36 35.6000000  0  2G17G28                                          
  22006169.32049 115643199.82849    -16700.79349        50.000  
  21698146.32049 114024528.22349     -2115.30549        50.000  
 16 04 02 13 36 35.7000000  0  2G17G28                                          
  22006487.15649 115644870.08249    -16704.02049        50.000  
  21698186.60949 114024739.94949     -2118.88349        50.000  
 16 04 02 13 36 35.8000000  0  2G17G28                                          
  22006805.03149 115646540.56249    -16706.18449        50.000  
  21698226.96149 114024951.96149     -2121.64549        49.000  
 16 04 02 13 36 35.9000000  0  2G17G28                                          
  22007122.96949 115648211.32449    -16708.85949        50.000  
  21698267.36749 114025164.27049     -2124.56249        50.000  
 16 04 02 13 36 36.0000000  0  2G17G28                                          
  22007440.94549 115649882.31649    -16711.15649        50.000  
  21698307.82849 114025376.87149     -2127.43049        49.000  
 16 04 02 13 36 36.1000000  0  2G17G28                                          
  22007758.96149 115651553.52749    -16713.28149        50.000  
  21698348.32849 114025589.73049     -2130.01649        50.000  
 16 04 02 13 36 36.2000000  0  2G17G28                                          
  22008077.02349 115653224.96949    -16715.65249        50.000  
  21698388.88349 114025802.85949     -2132.68449        50.000  
 16 04 02 13 36 36.3000000  0  2G17G28                                          
  22008395.14149 115654896.69149    -16718.59849        49.000  
  21698429.50849 114026016.31649     -2136.06249        50.000  
 16 04 02 13 36 36.4000000  0  2G17G28                                          
  22008713.33649 115656568.72749    -16721.56649        49.000  
  21698470.19549 114026230.13349     -2139.66449        49.000  
 16 04 02 13 36 36.5000000  0  2G17G28                                          
  22009031.54749 115658240.94549    -16723.44149        49.000  
  21698510.92249 114026444.16449     -2141.78549        49.000  
 16 04 02 13 36 36.6000000  0  2G17G28                                          
  22009349.78949 115659913.36349    -16725.33649        49.000  
  21698551.69549 114026658.44149     -2144.09849        49.000  
 16 04 02 13 36 36.7000000  0  2G17G28                                          
  22009668.10249 115661586.11749    -16728.70749        50.000  
  21698592.54749 114026873.10949     -2147.97749        49.000  
 16 04 02 13 36 36.8000000  0  2G17G28                                          
  22009986.46949 115663259.10249    -16731.13349        49.000  
  21698633.44549 114027088.04749     -2151.00449        49.000  
 16 04 02 13 36 36.9000000  0  2G17G28                                          
  22010304.88349 115664932.35249    -16733.90249        49.000  
  21698674.40649 114027303.28549     -2153.92649        49.000  
 16 04 02 13 36 37.0000000  0  2G17G28                                          
  22010623.34449 115666605.84849    -16736.25049        49.000  
  21698715.42249 114027518.81649     -2156.80949        49.000  
 16 04 02 13 36 37.1000000  0  2G17G28                                          
  22010941.84449 115668279.59849    -16738.75849        49.000  
  21698756.49249 114027734.64849     -2159.72349        49.000  
 16 04 02 13 36 37.2000000  0  2G17G28                                          
  22011260.37549 115669953.55149    -16740.64549        49.000  
  21698797.60949 114027950.71549     -2161.94549        49.000  
 16 04 02 13 36 37.3000000  0  2G17G28                                          
  22011578.96949 115671627.75449    -16743.23849        49.000  
  21698838.78949 114028167.09049     -2165.09849        49.000  
 16 04 02 13 36 37.4000000  0  2G17G28                                          
  22011897.61749 115673302.30149    -16746.75849        49.000  
  21698880.03149 114028383.84449     -2168.97349        49.000  
 16 04 02 13 36 37.5000000  0  2G17G28                                          
  22012216.32049 115674977.09049    -16749.18849        49.000  
  21698921.33649 114028600.88749     -2171.82049        49.000  
 16 04 02 13 36 37.6000000  0  2G17G28                                          
  22012535.06249 115676652.12549    -16751.75449        49.000  
  21698962.68849 114028818.21949     -2174.93049        49.000  
 16 04 02 13 36 37.7000000  0  2G17G28                                          
  22012853.85949 115678327.40249    -16753.91049        50.000  
  21699004.10249 114029035.83649     -2177.46549        49.000  
 16 04 02 13 36 37.8000000  0  2G17G28                                          
  22013172.71149 115680002.95749    -16756.83249        50.000  
  21699045.57849 114029253.77349     -2180.83649        49.000  
 16 04 02 13 36 37.9000000  0  2G17G28                                          
  22013491.60249 115681678.75449    -16759.26649        50.000  
  21699087.10249 114029471.99649     -2183.73849        50.000  
 16 04 02 13 36 38.0000000  0  2G17G28                                          
  22013810.56249 115683354.84849    -16762.21549        50.000  
