     2.10           OBSERVATION DATA    G (GPS)             RINEX VERSION / TYPE
Convert v1.8.0                          07-Jun-2016 18:54   PGM / RUN BY / DATE 
Signal Strength values S1,S2 are in dBHz                    COMMENT             
                                                            MARKER NAME         
                                                            MARKER NUMBER       
                                                            OBSERVER / AGENCY   
                    NovAtel GPSCard                         REC # / TYPE / VERS 
                                                            ANT # / TYPE        
0.0000        0.0000        0.0000                          APPROX POSITION XYZ 
        0.0000        0.0000        0.0000                  ANTENNA: DELTA H/E/N
     1     1                                                WAVELENGTH FACT L1/2
     1     1     6   G01   G08   G10   G11   G18   G21      WAVELENGTH FACT L1/2
                                                            COMMENT             
                                                            COMMENT             
                                                            COMMENT             
                                                            COMMENT             
                                                            COMMENT             
                                                            COMMENT             
     8    C1    L1    D1    S1    P2    L2    D2    S2      # / TYPES OF OBSERV 
     0.100                                                  INTERVAL            
  2016    04    02    12    06     6.9000000    GPS         TIME OF FIRST OBS   
  2016    04    02    12    10    27.5000000    GPS         TIME OF LAST OBS    
Leap Seconds Unknown                                        COMMENT             
                                                            END OF HEADER       
 16 04 02 12 06  6.9000000  0  2G01G18                                          
  24139898.62549 126856022.70349     -2175.05149        49.000  

  22462322.74249 118040302.17249     -6044.05949        50.000  

 16 04 02 12 06  7.0000000  0  2G01G18                                          
  24139940.03949 126856240.35549     -2177.34049        49.000  

  22462437.80549 118040906.82849     -6048.95749        50.000  

 16 04 02 12 06  7.1000000  0  3G01G18G11                                       
  24139981.49249 126856458.22349     -2179.70349        49.000  

  22462552.96949 118041512.00049     -6054.16449        50.000  

  22528014.89149 118385516.50059     -5716.59049        50.000  

 16 04 02 12 06  7.2000000  0  3G01G18G11                                       
  24140022.99249 126856676.27349     -2181.41049        49.000  

  22462668.21949 118042117.62949     -6058.67649        50.000  

  22528123.68849 118386088.25449     -5718.93449        50.000  

 16 04 02 12 06  7.3000000  0  3G01G18G11                                       
  24140064.50849 126856894.48449     -2182.94149        49.000  

  22462783.54749 118042723.68049     -6062.85549        50.000  

  22528232.53149 118386660.25849     -5721.35249        50.000  

 16 04 02 12 06  7.4000000  0  3G01G18G11                                       
  24140106.07849 126857112.94149     -2185.48449        49.000  

  22462898.97749 118043330.27749     -6068.41849        50.000  

  22528341.43849 118387232.59449     -5724.87149        50.000  

 16 04 02 12 06  7.5000000  0  3G01G18G11                                       
  24140147.70349 126857331.62149     -2187.71149        49.000  

  22463014.50049 118043937.36749     -6073.40649        50.000  

  22528450.41449 118387805.22749     -5727.82849        50.000  

 16 04 02 12 06  7.6000000  0  3G01G18G11                                       
  24140189.34449 126857550.44149     -2189.09049        49.000  

  22463130.10949 118044544.86349     -6077.52349        50.000  

  22528559.43049 118388378.08249     -5729.93449        50.000  

 16 04 02 12 06  7.7000000  0  3G01G18G11                                       
  24140231.01649 126857769.48049     -2191.22749        49.000  

  22463245.79749 118045152.86749     -6082.28549        50.000  

  22528668.48449 118388951.24249     -5732.92249        50.000  

 16 04 02 12 06  7.8000000  0  3G01G18G11                                       
  24140272.73449 126857988.69949     -2192.96149        49.000  

  22463361.57849 118045761.32449     -6086.85949        50.000  

  22528777.60249 118389524.66049     -5735.49249        50.000  

 16 04 02 12 06  7.9000000  0  3G01G18G11                                       
  24140314.47749 126858208.10949     -2194.92249        49.000  

  22463477.45349 118046370.25049     -6091.61749        50.000  

  22528886.77349 118390098.35249     -5738.27349        50.000  

 16 04 02 12 06  8.0000000  0  3G01G18G11                                       
  24140356.26649 126858427.71949     -2197.06649        49.000  

  22463593.41449 118046979.64149     -6096.38349        50.000  

  22528995.99249 118390672.30549     -5741.01249        50.000  

 16 04 02 12 06  8.1000000  0  3G01G18G11                                       
  24140398.09449 126858647.47749     -2198.52349        49.000  

  22463709.46949 118047589.48049     -6100.86749        50.000  

  22529105.26649 118391246.52049     -5743.58649        50.000  

 16 04 02 12 06  8.2000000  0  3G01G18G11                                       
  24140439.96949 126858867.51649     -2201.37949        49.000  

  22463825.61749 118048199.85549     -6106.24649        50.000  

  22529214.60249 118391821.07449     -5747.11349        50.000  

 16 04 02 12 06  8.3000000  0  3G01G18G11                                       
  24140481.88349 126859087.75049     -2203.35549        49.000  

  22463941.85949 118048810.71149     -6111.05549        50.000  

  22529324.00049 118392395.90649     -5749.80549        50.000  

 16 04 02 12 06  8.4000000  0  3G01G18G11                                       
  24140523.81249 126859308.11349     -2204.60249        49.000  

  22464058.18049 118049421.97749     -6115.05149        50.000  

  22529433.43049 118392970.94949     -5751.90249        50.000  

 16 04 02 12 06  8.5000000  0  3G01G18G11                                       
  24140565.77349 126859528.69949     -2206.64549        49.000  

  22464174.60249 118050033.73849     -6119.83249        50.000  

  22529542.92249 118393546.30549     -5754.79349        50.000  

 16 04 02 12 06  8.6000000  0  3G01G18G11                                       
  24140607.78149 126859749.46149     -2208.53149        49.000  

  22464291.10249 118050645.94549     -6124.50449        50.000  

  22529652.45349 118394121.90249     -5757.38749        50.000  

 16 04 02 12 06  8.7000000  0  3G01G18G11                                       
  24140649.83649 126859970.45749     -2210.89849        49.000  

  22464407.70349 118051258.68849     -6129.77049        50.000  

  22529762.05549 118394697.84449     -5760.78949        50.000  

 16 04 02 12 06  8.8000000  0  3G01G18G11                                       
  24140691.93849 126860191.66849     -2212.95749        49.000  

  22464524.39149 118051871.89149     -6134.41049        50.000  

  22529871.70349 118395274.05149     -5763.43449        50.000  

 16 04 02 12 06  8.9000000  0  3G01G18G11                                       
  24140734.06249 126860413.01649     -2214.43449        49.000  

  22464641.15649 118052485.53149     -6138.85949        50.000  

  22529981.40649 118395850.48449     -5765.77749        50.000  

 16 04 02 12 06  9.0000000  0  3G01G18G11                                       
  24140776.22749 126860634.62149     -2217.05549        49.000  

  22464758.02349 118053099.69149     -6144.21149        50.000  

  22530091.16449 118396427.26249     -5769.41049        50.000  

 16 04 02 12 06  9.1000000  0  3G01G18G11                                       
  24140818.44549 126860856.42649     -2218.91449        49.000  

  22464874.97749 118053714.33649     -6148.68449        50.000  

  22530200.96149 118397004.31649     -5771.89849        50.000  

 16 04 02 12 06  9.2000000  0  3G01G18G11                                       
  24140860.68049 126861078.34449     -2219.94149        49.000  

  22464992.01649 118054329.37149     -6152.64549        50.000  

  22530310.81249 118397581.57049     -5773.91849        50.000  

 16 04 02 12 06  9.3000000  0  3G01G18G11                                       
  24140902.95349 126861300.50049     -2222.33249        49.000  

  22465109.15649 118054944.91849     -6157.84849        50.000  

  22530420.71949 118398159.12549     -5776.82449        50.000  

 16 04 02 12 06  9.4000000  0  3G01G18G11                                       
  24140945.25849 126861522.82849     -2224.19549        49.000  

  22465226.37549 118055560.90649     -6162.41849        50.000  

  22530530.68049 118398736.95749     -5779.74249        50.000  

 16 04 02 12 06  9.5000000  0  3G01G18G11                                       
  24140987.60949 126861745.39549     -2226.58249        49.000  

  22465343.69549 118056177.42249     -6167.62549        50.000  

  22530640.69549 118399315.09049     -5782.82449        50.000  

 16 04 02 12 06  9.6000000  0  3G01G18G11                                       
  24141030.00049 126861968.16449     -2228.75449        49.000  

  22465461.10249 118056794.40249     -6172.39849        50.000  

  22530750.76649 118399893.51649     -5785.90649        50.000  

 16 04 02 12 06  9.7000000  0  3G01G18G11                                       
  24141072.43849 126862191.14549     -2230.74249        49.000  

  22465578.61749 118057411.89549     -6177.32849        50.000  

  22530860.89849 118400472.23849     -5788.58649        50.000  

 16 04 02 12 06  9.8000000  0  3G01G18G11                                       
  24141114.90649 126862414.32849     -2232.66849        49.000  

  22465696.20349 118058029.84049     -6181.69549        50.000  

  22530971.07849 118401051.23049     -5791.19149        50.000  

 16 04 02 12 06  9.9000000  0  3G01G18G11                                       
  24141157.40649 126862637.73449     -2235.00849        49.000  

  22465813.89849 118058648.29349     -6187.07849        50.000  

  22531081.32049 118401630.52749     -5794.43049        50.000  

 16 04 02 12 06 10.0000000  0  3G01G18G11                                       
  24141199.96149 126862861.34849     -2237.00049        49.000  

  22465931.68049 118059267.23049     -6191.78949        50.000  

  22531191.60949 118402210.11349     -5797.27749        50.000  

 16 04 02 12 06 10.1000000  0  3G01G18G11                                       
  24141242.55549 126863085.14849     -2238.92249        49.000  

  22466049.55549 118059886.62949     -6196.29349        50.000  

  22531301.95349 118402789.98049     -5799.95749        50.000  

 16 04 02 12 06 10.2000000  0  3G01G18G11                                       
  24141285.17249 126863309.10549     -2240.58249        49.000  

  22466167.50849 118060506.46549     -6200.84449        50.000  

  22531412.34449 118403370.07449     -5802.50449        50.000  

 16 04 02 12 06 10.3000000  0  3G01G18G11                                       
  24141327.82049 126863533.28549     -2242.68449        49.000  

  22466285.54749 118061126.80549     -6205.71549        50.000  

  22531522.78149 118403950.46949     -5805.32049        50.000  

 16 04 02 12 06 10.4000000  0  3G01G18G11                                       
  24141370.51649 126863757.65249     -2244.56649        49.000  

  22466403.68049 118061747.60549     -6210.58649        50.000  

  22531633.28149 118404531.14549     -5808.23449        50.000  

 16 04 02 12 06 10.5000000  0  3G01G18G11                                       
  24141413.26649 126863982.26649     -2247.09049        49.000  

  22466521.91449 118062368.91849     -6215.61349        50.000  

  22531743.85249 118405112.12949     -5811.41849        50.000  

 16 04 02 12 06 10.6000000  0  3G01G18G11                                       
  24141456.05549 126864207.10949     -2249.36749        49.000  

  22466640.24249 118062990.74249     -6220.63749        50.000  

  22531854.46949 118405693.44549     -5814.46949        50.000  

 16 04 02 12 06 10.7000000  0  3G01G18G11                                       
  24141498.86749 126864432.07049     -2250.64849        49.000  

  22466758.64849 118063612.96549     -6224.70749        50.000  

  22531965.12549 118406274.94149     -5816.55949        50.000  

 16 04 02 12 06 10.8000000  0  3G01G18G11                                       
  24141541.71949 126864657.28949     -2252.91849        49.000  

  22466877.15649 118064235.71949     -6229.80149        50.000  

  22532075.85249 118406856.78549     -5819.73849        50.000  

 16 04 02 12 06 10.9000000  0  3G01G18G11                                       
  24141584.60949 126864882.67249     -2254.68049        49.000  

  22466995.74249 118064858.91849     -6234.25849        50.000  

  22532186.60249 118407438.86749     -5822.12149        50.000  

 16 04 02 12 06 11.0000000  0  3G01G18G11                                       
  24141627.53149 126865108.23849     -2256.49649        49.000  

  22467114.41449 118065482.56249     -6238.96149        50.000  

  22532297.41449 118408021.21149     -5824.91849        50.000  

 16 04 02 12 06 11.1000000  0  3G01G18G11                                       
  24141670.48449 126865334.04749     -2258.86749        49.000  

  22467233.18849 118066106.73849     -6244.03549        50.000  

  22532408.29749 118408603.88749     -5828.06249        50.000  

 16 04 02 12 06 11.2000000  0  3G01G18G11                                       
  24141713.48449 126865560.02049     -2260.62549        49.000  

  22467352.04749 118066731.35249     -6248.66849        50.000  

  22532519.21949 118409186.80549     -5830.74649        50.000  

 16 04 02 12 06 11.3000000  0  3G01G18G11                                       
  24141756.52349 126865786.21549     -2262.84449        49.000  

  22467471.00049 118067356.44549     -6253.34449        50.000  

  22532630.20349 118409770.02049     -5833.50049        50.000  

 16 04 02 12 06 11.4000000  0  3G01G18G11                                       
  24141799.60249 126866012.59049     -2264.93849        49.000  

  22467590.04749 118067982.03949     -6258.67649        50.000  

  22532741.23449 118410353.51249     -5836.71149        50.000  

 16 04 02 12 06 11.5000000  0  3G01G18G11                                       
  24141842.73449 126866239.25449     -2267.45749        49.000  

  22467709.19549 118068608.16449     -6263.69149        50.000  

  22532852.33649 118410937.35949     -5839.81249        50.000  

 16 04 02 12 06 11.6000000  0  3G01G18G11                                       
  24141885.89149 126866466.05949     -2269.02049        49.000  

  22467828.42249 118069234.69549     -6267.75449        50.000  

  22532963.48449 118411521.43049     -5842.10949        50.000  

 16 04 02 12 06 11.7000000  0  3G01G18G11                                       
  24141929.08649 126866693.03149     -2270.72349        49.000  

  22467947.73449 118069861.68849     -6272.46549        50.000  

  22533074.68049 118412105.73849     -5844.59849        50.000  

 16 04 02 12 06 11.8000000  0  3G01G18G11                                       
  24141972.32049 126866920.21549     -2272.71949        49.000  

  22468067.14149 118070489.17649     -6277.29749        50.000  

  22533185.93049 118412690.35949     -5847.50049        50.000  

 16 04 02 12 06 11.9000000  0  3G01G18G11                                       
  24142015.57849 126867147.59849     -2274.84849        49.000  

  22468186.63349 118071117.12149     -6281.85249        50.000  

  22533297.22749 118413275.24249     -5850.27349        50.000  

 16 04 02 12 06 12.0000000  0  3G01G18G11                                       
  24142058.89149 126867375.19549     -2276.93049        49.000  

  22468306.22749 118071745.57049     -6286.91049        50.000  

  22533408.58649 118413860.44549     -5853.34849        50.000  

 16 04 02 12 06 12.1000000  0  3G01G18G11                                       
  24142102.24249 126867602.95349     -2278.57449        49.000  

  22468425.89849 118072374.44149     -6291.26649        50.000  

  22533519.98449 118414445.86349     -5855.75049        50.000  

 16 04 02 12 06 12.2000000  0  3G01G18G11                                       
  24142145.63349 126867830.97349     -2281.09849        49.000  

  22468545.67249 118073003.87149     -6296.76249        50.000  

  22533631.46149 118415031.65649     -5859.37949        50.000  

 16 04 02 12 06 12.3000000  0  3G01G18G11                                       
  24142189.05549 126868059.17249     -2282.85249        49.000  

  22468665.53949 118073633.73049     -6300.94149        50.000  

  22533742.97749 118415617.66849     -5861.62549        50.000  

 16 04 02 12 06 12.4000000  0  3G01G18G11                                       
  24142232.52349 126868287.60249     -2285.36749        49.000  

  22468785.49249 118074264.10949     -6306.47749        50.000  

  22533854.55549 118416204.00849     -5865.04749        50.000  

 16 04 02 12 06 12.5000000  0  3G01G18G11                                       
  24142276.03949 126868516.27049     -2287.78549        49.000  

  22468905.53949 118074895.00449     -6311.51649        50.000  

  22533966.19549 118416790.67249     -5868.28549        50.000  

 16 04 02 12 06 12.6000000  0  3G01G18G11                                       
  24142319.60249 126868745.17249     -2290.03549        49.000  

  22469025.68849 118075526.40649     -6316.57849        50.000  

  22534077.89149 118417377.64549     -5871.40249        50.000  

 16 04 02 12 06 12.7000000  0  3G01G18G11                                       
  24142363.18849 126868974.20749     -2291.31249        49.000  

  22469145.91449 118076158.21149     -6320.54349        50.000  

  22534189.63349 118417964.83249     -5873.31249        50.000  

 16 04 02 12 06 12.8000000  0  3G01G18G11                                       
  24142406.81249 126869203.46549     -2293.50449        49.000  

  22469266.23449 118076790.51249     -6325.39549        50.000  

  22534301.43049 118418552.32049     -5876.34449        50.000  

 16 04 02 12 06 12.9000000  0  3G01G18G11                                       
  24142450.49249 126869432.93449     -2295.56649        49.000  

  22469386.65649 118077423.30549     -6330.17249        50.000  

  22534413.28149 118419140.10249     -5879.12949        50.000  

 16 04 02 12 06 13.0000000  0  3G01G18G11                                       
  24142494.18049 126869662.52749     -2296.75449        49.000  

  22469507.14849 118078056.50849     -6334.36749        50.000  

  22534525.17249 118419728.09449     -5881.28549        50.000  

 16 04 02 12 06 13.1000000  0  3G01G18G11                                       
  24142537.89849 126869892.30949     -2298.64549        48.000  

  22469627.72749 118078690.16049     -6338.75449        50.000  

  22534637.11749 118420316.34449     -5883.77049        50.000  

 16 04 02 12 06 13.2000000  0  3G01G18G11                                       
  24142581.65649 126870122.25049     -2300.24649        48.000  

  22469748.39149 118079324.25449     -6343.21949        50.000  

  22534749.10249 118420904.84049     -5886.19949        50.000  

 16 04 02 12 06 13.3000000  0  3G01G18G11                                       
  24142625.45349 126870352.39149     -2302.30949        49.000  

  22469869.13349 118079958.82449     -6348.03549        50.000  

  22534861.14849 118421493.62549     -5889.18449        50.000  

 16 04 02 12 06 13.4000000  0  3G01G18G11                                       
  24142669.28949 126870582.73849     -2304.39849        49.000  

  22469989.97749 118080593.87149     -6352.91049        50.000  

  22534973.24249 118422082.68849     -5892.17249        50.000  

 16 04 02 12 06 13.5000000  0  4G01G18G08G11                                    
  24142713.16449 126870813.36349     -2307.34849        49.000  

  22470110.93849 118081229.48049     -6358.74249        50.000  

  20813239.19549 109374309.60259      8706.02749        50.000  

  22535085.41449 118422672.10549     -5895.78949        50.000  

 16 04 02 12 06 13.6000000  0  4G01G18G08G11                                    
  24142757.07849 126871044.16049     -2309.00849        49.000  

  22470231.96949 118081865.52749     -6363.00449        50.000  

  20813073.54749 109373439.13749      8702.33249        50.000  

  22535197.62549 118423261.78949     -5898.38349        50.000  

 16 04 02 12 06 13.7000000  0  4G01G18G08G11                                    
  24142801.03949 126871275.16049     -2310.85549        49.000  

  22470353.09449 118082502.05149     -6367.61349        50.000  

  20812907.94549 109372569.05149      8698.72749        49.000  

  22535309.89849 118423851.73849     -5900.89549        50.000  

 16 04 02 12 06 13.8000000  0  4G01G18G08G11                                    
  24142845.03949 126871506.35249     -2312.79749        49.000  

  22470474.30549 118083139.03949     -6372.12949        50.000  

  20812742.44549 109371699.34449      8695.09049        49.000  

  22535422.21149 118424441.96549     -5903.62949        50.000  

 16 04 02 12 06 13.9000000  0  5G01G18G08G10G11                                 
  24142889.06249 126871737.74249     -2314.97749        49.000  

  22470595.60949 118083776.51249     -6377.30549        50.000  

  20812577.00849 109370830.03549      8690.82049        49.000  

  20630964.93049 108416452.08259     10050.52749        49.000  

  22535534.58649 118425032.46949     -5906.58649        50.000  

 16 04 02 12 06 14.0000000  0  5G01G18G08G10G11                                 
  24142933.13349 126871969.34449     -2317.01649        49.000  

  22470717.00849 118084414.46549     -6382.07849        50.000  

  20812411.65649 109369961.10549      8686.96549        50.000  

  20630773.72749 108415447.30549     10044.30149        49.000  

  22535647.00849 118425623.27349     -5909.59849        50.000  

 16 04 02 12 06 14.1000000  0  5G01G18G08G10G11                                 
  24142977.24249 126872201.08649     -2318.23849        49.000  

  22470838.49249 118085052.83249     -6385.97749        50.000  

  20812246.38349 109369092.52049      8683.84049        49.000  

  20630582.62549 108414443.09049     10038.89549        49.000  

  22535759.47749 118426214.29349     -5911.58649        50.000  

 16 04 02 12 06 14.2000000  0  5G01G18G08G10G11                                 
  24143021.38349 126872433.04349     -2320.42249        48.000  

  22470960.06249 118085691.69949     -6390.95749        50.000  

  20812081.17249 109368224.33649      8679.85949        49.000  

  20630391.65649 108413439.52349     10032.34849        49.000  

  22535872.00049 118426805.60949     -5914.48049        50.000  

 16 04 02 12 06 14.3000000  0  5G01G18G08G10G11                                 
  24143065.56249 126872665.20749     -2322.49249        49.000  

  22471081.72749 118086331.04349     -6395.85549        50.000  

  20811916.02349 109367356.53549      8675.78949        49.000  

  20630200.78949 108412436.55949     10026.33249        49.000  

  22535984.58649 118427397.21549     -5917.43049        50.000  

 16 04 02 12 06 14.4000000  0  5G01G18G08G10G11                                 
  24143109.78149 126872897.54749     -2324.34449        49.000  

  22471203.47749 118086970.83649     -6400.42649        50.000  

  20811750.96149 109366489.10249      8672.19549        49.000  

  20630010.04749 108411434.21549     10020.05149        49.000  

  22536097.21149 118427989.07049     -5919.94949        50.000  

 16 04 02 12 06 14.5000000  0  5G01G18G08G10G11                                 
  24143154.03949 126873130.10249     -2326.56249        49.000  

  22471325.31249 118087611.10549     -6405.19549        50.000  

  20811585.95349 109365622.05949      8668.33249        49.000  

  20629819.39849 108410432.48449     10013.85549        49.000  

  22536209.90649 118428581.21949     -5922.96549        50.000  

 16 04 02 12 06 14.6000000  0  5G01G18G08G10G11                                 
  24143198.32849 126873362.85949     -2328.61349        48.000  

  22471447.24249 118088251.87549     -6410.20749        50.000  

  20811421.03949 109364755.43449      8664.06249        49.000  

  20629628.90649 108409431.41449     10007.25049        49.000  

  22536322.64849 118429173.67249     -5926.09049        50.000  

 16 04 02 12 06 14.7000000  0  5G01G18G08G10G11                                 
  24143242.66449 126873595.85249     -2331.01249        49.000  

  22471569.27349 118088893.13749     -6415.35249        50.000  

  20811256.16449 109363889.19949      8659.74649        49.000  

  20629438.50049 108408430.97749     10000.66449        49.000  

  22536435.44549 118429766.41049     -5929.13349        50.000  

 16 04 02 12 06 14.8000000  0  5G01G18G08G10G11                                 
  24143287.03949 126873829.05949     -2333.02049        49.000  

  22471691.39849 118089534.90649     -6420.01249        50.000  

  20811091.40649 109363023.38749      8656.04349        49.000  

  20629248.24249 108407431.18449      9994.53149        49.000  

  22536548.29749 118430359.46549     -5932.00849        50.000  

 16 04 02 12 06 14.9000000  0  5G01G18G08G10G11                                 
  24143331.43849 126874062.44149     -2334.80549        49.000  

  22471813.60949 118090177.10549     -6424.50049        50.000  

  20810926.73449 109362157.92649      8652.44949        49.000  

  20629058.07849 108406431.98849      9988.50049        49.000  

  22536661.20349 118430952.77049     -5934.52749        50.000  

 16 04 02 12 06 15.0000000  0  5G01G18G08G10G11                                 
  24143375.88349 126874295.99249     -2336.37949        49.000  

  22471935.90649 118090819.77049     -6429.05949        50.000  

  20810762.10949 109361292.82449      8648.83249        49.000  

  20628868.05549 108405433.38349      9982.56249        49.000  

  22536774.14849 118431546.32449     -5936.94949        50.000  

 16 04 02 12 06 15.1000000  0  5G01G18G08G10G11                                 
  24143420.36749 126874529.77749     -2338.59849        49.000  

  22472058.28949 118091462.92649     -6433.83249        50.000  

  20810597.57049 109360428.13749      8644.89149        49.000  

  20628678.16449 108404435.42649      9976.34049        49.000  

  22536887.16449 118432140.18849     -5939.91049        50.000  

 16 04 02 12 06 15.2000000  0  5G01G18G08G10G11                                 
  24143464.87549 126874763.68849     -2339.90649        48.000  

  22472180.75849 118092106.48849     -6437.90649        50.000  

  20810433.08649 109359563.77049      8641.69949        49.000  

  20628488.36749 108403438.02349      9970.81249        49.000  

  22537000.21949 118432734.26649     -5942.12549        50.000  

 16 04 02 12 06 15.3000000  0  5G01G18G08G10G11                                 
  24143509.43849 126874997.82849     -2342.30949        48.000  

  22472303.31249 118092750.54349     -6443.03949        50.000  

  20810268.68049 109358699.80149      8637.50049        49.000  

  20628298.71149 108402441.27049      9964.05549        49.000  

  22537113.32049 118433328.63749     -5945.23849        50.000  

 16 04 02 12 06 15.4000000  0  5G01G18G08G10G11                                 
  24143554.03149 126875232.19149     -2344.56249        48.000  

  22472425.96949 118093395.11749     -6448.15249        50.000  

  20810104.35249 109357836.27049      8633.24249        49.000  

  20628109.15649 108401445.16849      9957.70349        49.000  

  22537226.48449 118433923.32849     -5948.28149        50.000  

 16 04 02 12 06 15.5000000  0  5G01G18G08G10G11                                 
  24143598.66449 126875466.75849     -2346.66849        48.000  

  22472548.72749 118094040.15249     -6452.98849        50.000  

  20809940.12549 109356973.10949      8629.30549        49.000  

  20627919.78949 108400449.68449      9951.30149        49.000  

  22537339.70349 118434518.29349     -5951.21549        50.000  

 16 04 02 12 06 15.6000000  0  5G01G18G08G10G11                                 
  24143643.32849 126875701.47349     -2347.98849        48.000  

  22472671.55549 118094685.61349     -6456.93449        50.000  

  20809775.93849 109356110.28949      8626.23449        49.000  

  20627730.46149 108399454.77049      9945.84049        49.000  

  22537452.96149 118435113.48849     -5953.35549        50.000  

 16 04 02 12 06 15.7000000  0  5G01G18G08G10G11                                 
  24143688.03949 126875936.37149     -2350.00049        48.000  

  22472794.46949 118095331.53949     -6461.63349        50.000  

  20809611.85249 109355247.83649      8622.28549        49.000  

  20627541.28149 108398460.46949      9939.54349        49.000  

  22537566.28949 118435708.95349     -5956.12149        50.000  

 16 04 02 12 06 15.8000000  0  5G01G18G08G10G11                                 
  24143732.79749 126876171.55149     -2352.61749        48.000  

  22472917.49249 118095978.01649     -6467.08249        50.000  

  20809447.82049 109354385.85549      8617.82849        49.000  

  20627352.21149 108397466.86749      9932.80149        49.000  

  22537679.67249 118436304.76649     -5959.43849        50.000  

 16 04 02 12 06 15.9000000  0  5G01G18G08G10G11                                 
  24143777.57049 126876406.84049     -2353.92249        49.000  

  22473040.59449 118096624.87949     -6471.15649        50.000  

  20809283.84449 109353524.17249      8614.53549        49.000  

  20627163.20349 108396473.80149      9927.14149        49.000  

  22537793.09449 118436900.78949     -5961.66449        50.000  

 16 04 02 12 06 16.0000000  0  5G01G18G08G10G11                                 
  24143822.39849 126876642.41049     -2356.60249        48.000  

  22473163.78949 118097272.29349     -6476.55549        50.000  

  20809119.95349 109352662.94149      8610.16449        49.000  

  20626974.35949 108395481.43049      9920.32049        49.000  

  22537906.57849 118437497.15249     -5965.05949        50.000  

 16 04 02 12 06 16.1000000  0  5G01G18G08G10G11                                 
  24143867.26649 126876878.15649     -2358.49249        48.000  

  22473287.08649 118097920.16849     -6481.33249        50.000  

  20808956.14849 109351802.11349      8605.97349        49.000  

  20626785.71949 108394489.68049      9913.87949        49.000  

  22538020.10949 118438093.79749     -5968.09449        50.000  

 16 04 02 12 06 16.2000000  0  5G01G18G08G10G11                                 
  24143912.17249 126877114.13749     -2360.65649        48.000  

  22473410.46949 118098568.54349     -6486.08649        50.000  

  20808792.41449 109350941.66849      8602.34449        49.000  

  20626597.11749 108393498.57049      9907.78149        49.000  

  22538133.70349 118438690.73449     -5970.79349        50.000  

 16 04 02 12 06 16.3000000  0  5G01G18G08G10G11                                 
  24143957.12549 126877350.33249     -2362.87949        48.000  

  22473533.93049 118099217.40649     -6491.06249        50.000  

  20808628.76649 109350081.63349      8598.23449        49.000  

  20626408.64149 108392508.08249      9901.38349        49.000  

  22538247.35949 118439287.97349     -5973.81249        50.000  

 16 04 02 12 06 16.4000000  0  5G01G18G08G10G11                                 
  24144002.10949 126877586.71549     -2364.87549        48.000  

  22473657.49249 118099866.73049     -6495.80949        50.000  

  20808465.18049 109349221.97749      8594.28149        49.000  

  20626220.27349 108391518.21949      9895.08249        49.000  

  22538361.05549 118439885.47749     -5976.66049        50.000  

 16 04 02 12 06 16.5000000  0  5G01G18G08G10G11                                 
  24144047.11749 126877823.25449     -2366.10249        48.000  

  22473781.14149 118100516.49249     -6499.83649        50.000  

  20808301.64849 109348362.66049      8591.29749        49.000  

  20626032.02349 108390528.94549      9889.67649        49.000  

  22538474.79749 118440483.22349     -5978.67249        50.000  

 16 04 02 12 06 16.6000000  0  5G01G18G08G10G11                                 
  24144092.15649 126878059.96149     -2367.91049        48.000  

  22473904.86749 118101166.68449     -6504.28549        50.000  

  20808138.18849 109347503.69149      8587.40249        49.000  

  20625843.88349 108389540.24249      9883.53549        49.000  

  22538588.58649 118441081.21149     -5981.37149        50.000  

 16 04 02 12 06 16.7000000  0  5G01G18G08G10G11                                 
  24144137.25849 126878296.93049     -2370.53149        49.000  

  22474028.70349 118101817.43049     -6509.81249        50.000  

  20807974.82049 109346645.19549      8582.98049        49.000  

  20625655.91449 108388552.23849      9876.75849        49.000  

  22538702.45349 118441679.54749     -5984.66849        50.000  

 16 04 02 12 06 16.8000000  0  5G01G18G08G10G11                                 
  24144182.38349 126878534.07849     -2372.37949        48.000  

  22474152.61749 118102468.61349     -6514.23449        50.000  

  20807811.51649 109345787.03549      8579.34849        49.000  

  20625468.01649 108387564.83249      9870.69949        49.000  

  22538816.36749 118442278.13749     -5987.35249        50.000  

 16 04 02 12 06 16.9000000  0  5G01G18G08G10G11                                 
  24144227.54749 126878771.43849     -2374.51249        48.000  

  22474276.63349 118103120.28949     -6519.23849        50.000  

  20807648.28149 109344929.28949      8575.39849        49.000  

  20625280.24249 108386578.05549      9864.32849        49.000  

  22538930.33649 118442877.01649     -5990.24649        50.000  

 16 04 02 12 06 17.0000000  0  5G01G18G08G10G11                                 
  24144272.75049 126879008.96949     -2376.30149        48.000  

  22474400.73449 118103772.41049     -6523.75849        50.000  

  20807485.12549 109344071.90249      8571.64849        49.000  

  20625092.57849 108385591.87549      9858.27349        49.000  

  22539044.35249 118443476.15649     -5992.90249        50.000  

 16 04 02 12 06 17.1000000  0  5G01G18G08G10G11                                 
  24144317.98449 126879246.71949     -2378.43449        48.000  

  22474524.92249 118104425.02049     -6528.60249        50.000  

  20807322.07049 109343214.92249      8567.58649        49.000  

  20624905.04749 108384606.34849      9851.77749        49.000  

  22539158.41449 118444075.58649     -5995.82449        50.000  

 16 04 02 12 06 17.2000000  0  5G01G18G08G10G11                                 
  24144363.28149 126879484.75049     -2381.30549        48.000  

  22474649.21949 118105078.18049     -6534.04749        50.000  

  20807159.07849 109342358.39849      8562.93449        49.000  

  20624717.64149 108383621.49649      9844.90249        49.000  

  22539272.55549 118444675.37949     -5999.43049        50.000  

 16 04 02 12 06 17.3000000  0  5G01G18G08G10G11                                 
  24144408.61749 126879722.95749     -2383.12549        48.000  

  22474773.60249 118105731.80549     -6538.75049        50.000  

  20806996.14149 109341502.25049      8559.16449        49.000  

  20624530.40649 108382637.27349      9838.72349        49.000  

  22539386.73449 118445275.43449     -6002.09049        50.000  

 16 04 02 12 06 17.4000000  0  5G01G18G08G10G11                                 
  24144453.98449 126879961.37149     -2384.93049        48.000  

  22474898.07049 118106385.90249     -6543.19149        50.000  

  20806833.29749 109340646.49249      8555.61749        49.000  

  20624343.23449 108381653.66849      9832.86749        49.000  

  22539500.97749 118445875.77349     -6004.63349        50.000  

 16 04 02 12 06 17.5000000  0  5G01G18G08G10G11                                 
  24144499.38349 126880199.92649     -2386.39849        48.000  

  22475022.62549 118107040.41849     -6547.51649        50.000  

  20806670.51649 109339791.06249      8552.13349        49.000  

  20624156.18849 108380670.62949      9827.00049        49.000  

  22539615.25049 118446476.33649     -6007.03949        50.000  

 16 04 02 12 06 17.6000000  0  5G01G18G08G10G11                                 
  24144544.81249 126880438.65249     -2388.01649        48.000  

  22475147.25849 118107695.37949     -6551.92249        50.000  

  20806507.80549 109338935.98849      8548.69949        49.000  

  20623969.22749 108379688.17249      9821.25049        49.000  

  22539729.57849 118447077.13749     -6009.32449        50.000  

 16 04 02 12 06 17.7000000  0  5G01G18G08G10G11                                 
  24144590.29749 126880677.68849     -2391.39149        48.000  

  22475272.00849 118108350.91849     -6558.02049        50.000  

  20806345.18849 109338081.40249      8543.43049        49.000  

  20623782.42249 108378706.45349      9813.59849        49.000  

  22539843.98449 118447678.33649     -6013.60949        50.000  

 16 04 02 12 06 17.8000000  0  5G01G18G08G10G11                                 
  24144635.82049 126880916.90649     -2393.27749        48.000  

  22475396.83649 118109006.91449     -6562.53949        50.000  

  20806182.63349 109337227.19549      8539.96149        49.000  

  20623595.71949 108377725.34849      9807.53949        49.000  

  22539958.43849 118448279.80149     -6016.19549        50.000  

 16 04 02 12 06 17.9000000  0  5G01G18G08G10G11                                 
  24144681.36749 126881156.28549     -2394.74649        48.000  

  22475521.75049 118109663.34449     -6566.76249        50.000  

  20806020.14149 109336373.33649      8536.35549        49.000  

  20623409.09449 108376744.82049      9801.82449        49.000  

  22540072.94549 118448881.50049     -6018.43449        50.000  

 16 04 02 12 06 18.0000000  0  5G01G18G08G10G11                                 
  24144726.96949 126881395.89149     -2396.80549        48.000  

  22475646.75849 118110320.27349     -6571.47749        50.000  

  20805857.73449 109335519.89849      8532.58249        49.000  

  20623222.62549 108375764.94549      9795.60549        49.000  

  22540187.50049 118449483.51249     -6021.25049        50.000  

 16 04 02 12 06 18.1000000  0  5G01G18G08G10G11                                 
  24144772.60249 126881635.66849     -2398.71949        49.000  

  22475771.85949 118110977.66049     -6576.24249        50.000  

  20805695.39149 109334666.80149      8528.72749        49.000  

  20623036.27349 108374785.65249      9789.51649        49.000  

  22540302.10249 118450085.77349     -6024.11749        50.000  

 16 04 02 12 06 18.2000000  0  5G01G18G08G10G11                                 
  24144818.26649 126881875.64849     -2400.63349        48.000  

  22475897.04749 118111635.52049     -6580.83649        50.000  

  20805533.13349 109333814.11349      8525.04749        49.000  

  20622850.03949 108373807.00449      9783.27349        49.000  

  22540416.76649 118450688.31249     -6026.64149        50.000  

 16 04 02 12 06 18.3000000  0  5G01G18G08G10G11                                 
  24144863.97749 126882115.82049     -2402.76649        48.000  

  22476022.32049 118112293.82849     -6585.65649        50.000  

  20805370.93049 109332961.78149      8520.89149        49.000  

  20622663.95349 108372828.95349      9776.94149        49.000  

  22540531.47749 118451291.13349     -6029.70349        50.000  

 16 04 02 12 06 18.4000000  0  5G01G18G08G10G11                                 
  24144909.71949 126882356.17249     -2404.36749        48.000  

  22476147.68049 118112952.61349     -6590.08249        50.000  

  20805208.80549 109332109.83649      8517.47749        49.000  

  20622477.95349 108371851.52049      9771.07849        49.000  

  22540646.24249 118451894.21149     -6032.08649        50.000  

 16 04 02 12 06 18.5000000  0  5G01G18G08G10G11                                 
  24144955.48449 126882596.72349     -2406.27349        48.000  

  22476273.13349 118113611.85249     -6594.78149        50.000  

  20805046.75049 109331258.27049      8513.66049        49.000  

  20622292.06249 108370874.69549      9764.88749        49.000  

  22540761.05549 118452497.55149     -6034.69949        50.000  

 16 04 02 12 06 18.6000000  0  5G01G18G08G10G11                                 
  24145001.31249 126882837.55149     -2409.35949        48.000  

  22476398.68849 118114271.65649     -6600.73049        50.000  

  20804884.78949 109330407.17249      8508.56249        49.000  

  20622106.31249 108369898.58249      9757.40649        49.000  

  22540875.94549 118453101.27749     -6038.87949        50.000  

 16 04 02 12 06 18.7000000  0  5G01G18G08G10G11                                 
  24145047.18049 126883078.59449     -2411.35949        48.000  

  22476524.34449 118114931.94149     -6605.26649        50.000  

  20804722.90649 109329556.46949      8504.94149        49.000  

  20621920.68849 108368923.10249      9751.55549        49.000  

  22540990.89149 118453705.28149     -6041.46549        50.000  

 16 04 02 12 06 18.8000000  0  5G01G18G08G10G11                                 
  24145093.08649 126883319.81249     -2413.25849        48.000  

  22476650.07049 118115592.67649     -6609.88349        50.000  

  20804561.09449 109328706.12549      8501.18849        49.000  

  20621735.17249 108367948.21949      9745.29749        49.000  

  22541105.87549 118454309.53549     -6044.15649        50.000  

 16 04 02 12 06 18.9000000  0  5G01G18G08G10G11                                 
  24145139.03949 126883561.26649     -2415.51249        48.000  

  22476775.90649 118116253.90649     -6614.69549        50.000  

  20804399.34449 109327856.21949      8496.96549        49.000  

  20621549.74249 108366973.99249      9738.88749        49.000  

  22541220.91449 118454914.11349     -6047.22749        50.000  

 16 04 02 12 06 19.0000000  0  5G01G18G08G10G11                                 
  24145185.02349 126883802.91849     -2417.52749        49.000  

  22476901.82849 118116915.63749     -6619.72349        50.000  

  20804237.68849 109327006.69149      8493.06249        49.000  

  20621364.47749 108366000.39149      9732.54349        49.000  

  22541336.01649 118455518.96949     -6050.11349        50.000  

 16 04 02 12 06 19.1000000  0  5G01G18G08G10G11                                 
  24145231.03949 126884044.71549     -2418.78549        48.000  

  22477027.83649 118117577.75849     -6623.55149        50.000  

  20804076.10949 109326157.48449      8490.03149        49.000  

  20621179.29749 108365027.35949      9727.03949        49.000  

  22541451.16449 118456124.04349     -6051.98849        50.000  

 16 04 02 12 06 19.2000000  0  5G01G18G08G10G11                                 
  24145277.09449 126884286.74249     -2421.16049        49.000  

  22477153.93049 118118240.40649     -6628.81249        50.000  

  20803914.59449 109325308.71149      8485.59049        49.000  

  20620994.25849 108364054.98049      9720.38749        49.000  

  22541566.36749 118456729.44149     -6055.32849        50.000  

 16 04 02 12 06 19.3000000  0  5G01G18G08G10G11                                 
  24145323.19549 126884528.95349     -2422.87949        48.000  

  22477280.10949 118118903.50049     -6633.19149        50.000  

  20803753.14849 109324460.30549      8482.10549        49.000  

  20620809.35949 108363083.21949      9714.46149        49.000  

  22541681.60949 118457335.09849     -6057.77349        50.000  

 16 04 02 12 06 19.4000000  0  5G01G18G08G10G11                                 
  24145369.32049 126884771.34449     -2424.81649        48.000  

  22477406.37549 118119567.03949     -6637.84449        50.000  

  20803591.77349 109323612.25449      8478.35249        49.000  

  20620624.54749 108362112.02749      9708.37149        49.000  

  22541796.90649 118457941.00449     -6060.51649        50.000  

 16 04 02 12 06 19.5000000  0  5G01G18G08G10G11                                 
  24145415.48449 126885013.97749     -2427.25449        48.000  

  22477532.75049 118120231.10249     -6643.03549        50.000  

  20803430.46949 109322764.64549      8474.00849        49.000  

  20620439.87549 108361141.52749      9701.69149        49.000    20620443.47741
  84437267.99651      7559.76241        22.000  
  22541912.28149 118458547.24249     -6063.80149        50.000  

 16 04 02 12 06 19.6000000  0  5G01G18G08G10G11                                 
  24145461.70349 126885256.82849     -2429.59049        49.000  

  22477659.21149 118120895.65649     -6647.96949        50.000  

  20803269.25049 109321917.43849      8469.84049        49.000  

  20620255.32049 108360171.66049      9695.10249        49.000    20620260.31241
  84436512.25841      7554.62541        21.000  
  22542027.69549 118459153.77049     -6066.85249        50.000  

 16 04 02 12 06 19.7000000  0  5G01G18G08G10G11                                 
  24145507.94549 126885499.87549     -2431.54749        48.000  

  22477785.75849 118121560.68049     -6652.80549        50.000  

  20803108.10949 109321070.61349      8465.87149        49.000  

  20620070.87549 108359202.41449      9688.87149        49.000    20620075.87541
  84435757.00441      7549.77041        20.000  
  22542143.16449 118459760.57849     -6069.70749        50.000  

 16 04 02 12 06 19.8000000  0  5G01G18G08G10G11                                 
  24145554.24249 126885743.14549     -2433.52749        48.000  

  22477912.40649 118122226.20349     -6657.53949        50.000  

  20802947.03949 109320224.19949      8462.11749        49.000  

  20619886.55549 108358233.82049      9682.61349        49.000    20619891.16441
  84435002.25441      7544.89541        20.000  
  22542258.69549 118460367.69149     -6072.47749        50.000  

 16 04 02 12 06 19.9000000  0  5G01G18G08G10G11                                 
  24145600.54749 126885986.55149     -2434.91049        49.000  

  22478039.13349 118122892.12949     -6661.60549        50.000  

  20802786.04749 109319378.10549      8458.81649        49.000  

  20619702.32849 108357265.77749      9676.97749        49.000  

  22542374.26649 118460975.02049     -6074.68049        50.000  

 16 04 02 12 06 20.0000000  0  5G01G18G08G10G11                                 
  24145646.91449 126886230.21149     -2437.36349        49.000  

  22478165.95349 118123558.58649     -6666.77349        50.000  

  20802625.12549 109318532.45749      8454.46549        49.000  

  20619518.24249 108356298.41449      9670.41049        49.000  

  22542489.90649 118461582.68449     -6077.92649        50.000  

 16 04 02 12 06 20.1000000  0  5G01G18G08G10G11                                 
  24145693.29749 126886473.99649     -2438.74649        49.000  

  22478292.84449 118124225.42649     -6670.70749        50.000  

  20802464.25849 109317687.11349      8451.35949        49.000  

  20619334.28149 108355331.59449      9664.75049        49.000  

  22542605.57049 118462190.53149     -6079.87949        50.000  

 16 04 02 12 06 20.2000000  0  5G01G18G08G10G11                                 
  24145739.73449 126886718.00849     -2440.96149        49.000  

  22478419.84449 118124892.78549     -6675.92249        50.000  

  20802303.47749 109316842.18849      8447.21549        49.000  

  20619150.43049 108354365.43049      9658.29749        49.000  

  22542721.30549 118462798.71149     -6083.10549        50.000  

 16 04 02 12 06 20.3000000  0  5G01G18G08G10G11                                 
  24145786.21149 126886962.23849     -2443.29749        49.000  

  22478546.93049 118125560.61749     -6680.66449        50.000  

  20802142.75849 109315997.66849      8443.11749        49.000  

  20618966.68049 108353399.89849      9651.98049        49.000  

  22542837.09449 118463407.17649     -6086.09849        50.000  

 16 04 02 12 06 20.4000000  0  5G01G18G08G10G11                                 
  24145832.71949 126887206.60949     -2444.81649        49.000  

  22478674.09449 118126228.89549     -6685.23449        50.000  

  20801982.11749 109315153.48849      8439.51649        49.000  

  20618783.06249 108352434.95349      9645.99249        49.000  

  22542952.92249 118464015.87949     -6088.55549        50.000  

 16 04 02 12 06 20.5000000  0  5G01G18G08G10G11                                 
  24145879.26649 126887451.21149     -2446.94549        49.000  

  22478801.35249 118126897.65649     -6690.06649        50.000  

  20801821.54749 109314309.71949      8435.55149        49.000  

  20618599.56249 108351470.64849      9639.68849        49.000  

  22543068.81249 118464624.87949     -6091.42649        50.000  

 16 04 02 12 06 20.6000000  0  5G01G18G08G10G11                                 
  24145925.84449 126887696.00849     -2448.95349        49.000  

  22478928.70349 118127566.88749     -6694.79349        50.000  

  20801661.05549 109313466.32449      8431.76649        49.000  

  20618416.18049 108350506.96149      9633.34849        49.000  

  22543184.75849 118465234.15249     -6094.25449        50.000  

 16 04 02 12 06 20.7000000  0  5G01G18G08G10G11                                 
  24145972.46949 126887941.03549     -2451.21149        49.000  

  22479056.14849 118128236.61349     -6699.75849        50.000  

  20801500.62549 109312623.34849      8427.54749        50.000  

  20618232.90649 108349543.91849      9626.97349        49.000  

  22543300.75049 118465843.73449     -6097.28549        50.000  

 16 04 02 12 06 20.8000000  0  5G01G18G08G10G11                                 
  24146019.12549 126888186.23449     -2452.94549        49.000  

  22479183.67249 118128906.78949     -6704.19549        50.000  

  20801340.28149 109311780.73449      8423.98849        49.000  

  20618049.75849 108348581.48449      9621.02749        49.000  

  22543416.79749 118466453.57049     -6099.83649        50.000  

 16 04 02 12 06 20.9000000  0  5G01G18G08G10G11                                 
  24146065.82849 126888431.62949     -2454.85949        49.000  

  22479311.29749 118129577.43849     -6708.82049        50.000  

  20801180.04749 109310938.50849      8420.20749        49.000  

  20617866.74249 108347619.67249      9614.82049        49.000  

  22543532.89849 118467063.68449     -6102.50049        50.000  

 16 04 02 12 06 21.0000000  0  5G01G18G08G10G11                                 
  24146112.56249 126888677.20749     -2456.59049        49.000  

  22479439.00049 118130248.53949     -6713.22749        50.000  

  20801019.84449 109310096.65649      8416.54349        49.000  

  20617683.82849 108346658.45749      9608.89549        49.000    20617677.73441
  84425942.82851      7487.45341        20.000  
  22543649.05549 118467674.06249     -6105.11749        50.000  

 16 04 02 12 06 21.1000000  0  5G01G18G08G10G11                                 
  24146159.33649 126888923.02349     -2459.14149        49.000  

  22479566.80549 118130920.15249     -6718.49649        50.000  

  20800859.72749 109309255.21149      8412.34049        49.000  

  20617501.04749 108345697.90649      9602.14149        49.000    20617494.95341
  84425194.34841      7482.18841        20.000  
  22543765.25849 118468284.75449     -6108.28949        50.000  

 16 04 02 12 06 21.2000000  0  5G01G18G08G10G11                                 
  24146206.14149 126889169.01649     -2460.94149        49.000  

  22479694.69549 118131592.20749     -6723.17649        50.000  

  20800699.68049 109308414.14849      8408.35549        49.000  

  20617318.37549 108344737.95749      9595.91449        49.000    20617308.37541
  84424446.33641      7477.33641        20.000  
  22543881.52349 118468895.70349     -6111.05549        50.000  

 16 04 02 12 06 21.3000000  0  5G01G18G08G10G11                                 
  24146253.00049 126889415.25449     -2463.13749        49.000  

  22479822.68049 118132264.79749     -6728.09849        50.000  

  20800539.73449 109307573.50849      8404.43449        50.000  

  20617135.85249 108343778.67649      9589.66049        49.000    20617125.82841
  84423698.84041      7472.46541        20.000  
  22543997.84449 118469506.97349     -6113.98049        50.000  

 16 04 02 12 06 21.4000000  0  5G01G18G08G10G11                                 
  24146299.89149 126889661.65249     -2465.02749        49.000  

  22479950.75049 118132937.81249     -6732.78549        50.000  

  20800379.82849 109306733.22749      8400.53949        49.000  

  20616953.41449 108342819.98449      9583.25849        49.000  

  22544114.21149 118470118.50049     -6116.88749        50.000  

 16 04 02 12 06 21.5000000  0  5G01G18G08G10G11                                 
  24146346.82849 126889908.30149     -2467.24249        49.000  

  22480078.91449 118133611.34449     -6737.59049        50.000  

  20800220.01649 109305893.36749      8396.53949        49.000  

  20616771.12549 108341861.95349      9577.13349        49.000  

  22544230.64149 118470730.34049     -6119.72349        50.000  

 16 04 02 12 06 21.6000000  0  5G01G18G08G10G11                                 
  24146393.79749 126890155.12549     -2469.21949        49.000  

  22480207.16449 118134285.32049     -6742.20749        50.000  

  20800060.26649 109305053.87949      8392.73449        49.000  

  20616588.93049 108340904.52349      9570.86749        49.000  

  22544347.11749 118471342.43049     -6122.35249        50.000  

 16 04 02 12 06 21.7000000  0  5G01G18G08G10G11                                 
  24146440.78949 126890402.09849     -2470.57849        49.000  

  22480335.50049 118134959.73049     -6746.43449        50.000  

  20799900.58649 109304214.71949      8389.44949        49.000  

  20616406.83649 108339947.67249      9565.17249        49.000  

  22544463.63349 118471954.75849     -6124.63749        50.000  

 16 04 02 12 06 21.8000000  0  5G01G18G08G10G11                                 
  24146487.83649 126890649.30949     -2472.94149        48.000  

  22480463.93049 118135634.63749     -6751.34849        50.000  

  20799740.98449 109303375.98849      8385.24649        49.000  

  20616224.87549 108338991.48049      9558.56649        49.000  

  22544580.21949 118472567.40249     -6127.73049        50.000  

 16 04 02 12 06 21.9000000  0  5G01G18G08G10G11                                 
  24146534.92249 126890896.75849     -2475.46949        49.000  

  22480592.46949 118136310.07449     -6756.68849        50.000  

  20799581.44549 109302537.69549      8380.87549        49.000  

  20616043.04749 108338035.95349      9551.96949        49.000  

  22544696.85949 118473180.36749     -6131.00449        50.000  

 16 04 02 12 06 22.0000000  0  5G01G18G08G10G11                                 
  24146582.04749 126891144.39849     -2477.55949        49.000  

  22480721.08649 118136985.94549     -6761.32049        50.000  

  20799421.99249 109301699.76649      8376.99249        49.000  

  20615861.33649 108337081.03149      9545.59849        49.000  

  22544813.55549 118473793.59449     -6133.91449        50.000  

 16 04 02 12 06 22.1000000  0  5G01G18G08G10G11                                 
  24146629.21149 126891392.20349     -2479.00449        49.000  

  22480849.78949 118137662.29749     -6765.85549        50.000  

  20799262.61749 109300862.20349      8373.39149        49.000  

  20615679.71949 108336126.71949      9539.73449        49.000  

  22544930.28949 118474407.08249     -6136.32849        50.000  

 16 04 02 12 06 22.2000000  0  5G01G18G08G10G11                                 
  24146676.40649 126891640.21149     -2480.85549        49.000  

  22480978.57849 118138339.08249     -6770.12949        50.000  

  20799103.30549 109300025.02349      8369.93449        49.000  

  20615498.23449 108335173.00449      9534.03549        49.000  

  22545047.07849 118475020.83649     -6138.75449        50.000  

 16 04 02 12 06 22.3000000  0  5G01G18G08G10G11                                 
  24146723.63349 126891888.42649     -2483.17649        49.000  

  22481107.45349 118139016.36349     -6775.25849        50.000  

  20798944.07049 109299188.22749      8365.56249        49.000  

  20615316.88349 108334219.93849      9527.14149        49.000  

  22545163.93849 118475634.87949     -6141.97749        50.000  

 16 04 02 12 06 22.4000000  0  5G01G18G08G10G11                                 
  24146770.92249 126892136.91049     -2485.94549        48.000  

  22481236.44549 118139694.19549     -6780.81649        50.000  

  20798784.92249 109298351.89849      8361.07449        49.000  

  20615135.65649 108333267.56649      9520.30149        49.000  

  22545280.85949 118476249.28149     -6145.49249        50.000  

 16 04 02 12 06 22.5000000  0  5G01G18G08G10G11                                 
  24146818.23449 126892385.53549     -2487.17649        48.000  

  22481365.50849 118140372.43049     -6784.70349        50.000  

  20798625.84449 109297515.90249      8357.98449        49.000  

  20614954.52349 108332315.74649      9514.86349        49.000  

  22545397.81249 118476863.89149     -6147.45749        50.000  

 16 04 02 12 06 22.6000000  0  5G01G18G08G10G11                                 
  24146865.58649 126892634.37949     -2489.48049        48.000  

  22481494.66449 118141051.14849     -6789.64849        50.000  

  20798466.82849 109296680.30549      8353.75449        49.000  

  20614773.52349 108331364.57849      9508.27049        49.000  

  22545514.82849 118477478.80149     -6150.56649        50.000  

 16 04 02 12 06 22.7000000  0  5G01G18G08G10G11                                 
  24146912.98449 126892883.41849     -2491.39149        49.000  

  22481623.91449 118141730.34849     -6794.40249        50.000  

