     2.10           OBSERVATION DATA    G (GPS)             RINEX VERSION / TYPE
Convert v1.8.0                          07-Jun-2016 18:54   PGM / RUN BY / DATE 
Signal Strength values S1,S2 are in dBHz                    COMMENT             
                                                            MARKER NAME         
                                                            MARKER NUMBER       
                                                            OBSERVER / AGENCY   
                    NovAtel GPSCard                         REC # / TYPE / VERS 
                                                            ANT # / TYPE        
0.0000        0.0000        0.0000                          APPROX POSITION XYZ 
        0.0000        0.0000        0.0000                  ANTENNA: DELTA H/E/N
     1     1                                                WAVELENGTH FACT L1/2
     1     1     7   G03   G04   G16   G21   G23   G26   G31WAVELENGTH FACT L1/2
                                                            COMMENT             
                                                            COMMENT             
                                                            COMMENT             
                                                            COMMENT             
                                                            COMMENT             
                                                            COMMENT             
     8    C1    L1    D1    S1    P2    L2    D2    S2      # / TYPES OF OBSERV 
     0.100                                                  INTERVAL            
  2016    04    02    12    36     6.6000000    GPS         TIME OF FIRST OBS   
  2016    04    02    12    40    27.6000000    GPS         TIME OF LAST OBS    
Leap Seconds Unknown                                        COMMENT             
                                                            END OF HEADER       
 16 04 02 12 36  6.6000000  0  1G26                                             
  21681773.08649 113938485.08259       183.89149        50.000  

 16 04 02 12 36  6.7000000  0  1G26                                             
  21681769.62549 113938466.91049       179.24249        49.000  

 16 04 02 12 36  6.8000000  0  2G26G31                                          
  21681766.27349 113938449.26249       173.96149        49.000  

  22347479.29749 117436795.21959     -1896.35549        50.000  

 16 04 02 12 36  6.9000000  0  2G26G31                                          
  21681763.02349 113938432.15649       168.53549        49.000  

  22347515.44549 117436985.15649     -1902.20349        50.000  

 16 04 02 12 36  7.0000000  0  2G26G31                                          
  21681759.85249 113938415.51249       164.08249        50.000  

  22347551.67249 117437175.58249     -1906.84049        50.000  

 16 04 02 12 36  7.1000000  0  2G26G31                                          
  21681756.78149 113938399.37949       158.73049        50.000  

  22347588.01649 117437366.55949     -1912.57049        50.000  

 16 04 02 12 36  7.2000000  0  2G26G31                                          
  21681753.80549 113938383.78149       153.44149        49.000  

  22347624.45349 117437558.09049     -1918.07849        50.000  

 16 04 02 12 36  7.3000000  0  2G26G31                                          
  21681750.93849 113938368.68849       148.37149        49.000  

  22347661.00049 117437750.16449     -1923.55149        50.000  

 16 04 02 12 36  7.4000000  0  2G26G31                                          
  21681748.17249 113938354.20349       142.19949        49.000  

  22347697.67249 117437942.86349     -1929.96149        50.000  

 16 04 02 12 36  7.5000000  0  2G26G31                                          
  21681745.50849 113938340.19549       137.47349        49.000  

  22347734.43849 117438136.08249     -1935.01249        50.000  

 16 04 02 12 36  7.6000000  0  2G26G31                                          
  21681742.94549 113938326.71549       132.32049        49.000  

  22347771.30549 117438329.84849     -1940.50049        50.000  

 16 04 02 12 36  7.7000000  0  3G26G31G04                                       
  21681740.47749 113938313.73049       127.44949        49.000  

  22347808.27349 117438524.14549     -1945.59049        50.000  

  21953947.33649 115368771.05559      5569.35249        49.000  

 16 04 02 12 36  7.8000000  0  3G26G31G04                                       
  21681738.10249 113938301.25449       122.29749        49.000  

  22347845.35249 117438718.96949     -1950.94149        50.000  

  21953841.40649 115368214.37949      5564.31249        49.000  

 16 04 02 12 36  7.9000000  0  3G26G31G04                                       
  21681735.83649 113938289.32449       116.79349        49.000  

  22347882.53949 117438914.38349     -1956.85949        50.000  

  21953735.53949 115367658.23849      5558.92249        49.000  

 16 04 02 12 36  8.0000000  0  3G26G31G04                                       
  21681733.65649 113938277.89549       111.80149        49.000  

  22347919.83649 117439110.32049     -1962.09449        50.000  

  21953629.80549 115367102.58649      5554.09049        49.000  

 16 04 02 12 36  8.1000000  0  3G26G31G04                                       
  21681731.58649 113938266.99649       106.32449        50.000  

  22347957.22749 117439306.82049     -1967.91449        50.000  

  21953524.15649 115366547.44949      5548.75449        49.000  

 16 04 02 12 36  8.2000000  0  3G26G31G04                                       
  21681729.59449 113938256.59849       101.54749        50.000  

  22347994.71949 117439503.85249     -1972.99649        50.000  

  21953418.60949 115365992.80149      5544.03549        49.000  

 16 04 02 12 36  8.3000000  0  3G26G31G04                                       
  21681727.70349 113938246.68849        96.68849        49.000  

  22348032.31249 117439701.39549     -1978.18849        50.000  

  21953313.16449 115365438.61749      5539.39549        49.000  

 16 04 02 12 36  8.4000000  0  3G26G31G04                                       
  21681725.92249 113938237.27749        91.57449        50.000  

  22348070.01649 117439899.46549     -1983.52349        50.000  

  21953207.79749 115364884.92249      5534.46949        49.000  

 16 04 02 12 36  8.5000000  0  3G26G31G04                                       
  21681724.23449 113938228.40249        86.23449        50.000  

  22348107.81249 117440098.10949     -1989.19149        50.000  

  21953102.53949 115364331.75449      5529.19149        49.000  

 16 04 02 12 36  8.6000000  0  3G26G31G04                                       
  21681722.64849 113938220.07849        80.76249        50.000  

  22348145.73449 117440297.33249     -1995.10549        50.000  

  21952997.38349 115363779.12149      5523.76249        49.000  

 16 04 02 12 36  8.7000000  0  3G26G31G04                                       
  21681721.16449 113938212.27349        75.68849        50.000  

  22348183.75049 117440497.09849     -2000.32849        50.000  

  21952892.32049 115363226.98849      5518.91449        49.000  

 16 04 02 12 36  8.8000000  0  3G26G31G04                                       
  21681719.78149 113938205.01649        69.82449        50.000  

  22348221.86749 117440697.44149     -2006.53549        50.000  

  21952787.35249 115362675.38749      5513.33649        49.000  

 16 04 02 12 36  8.9000000  0  3G26G31G04                                       
  21681718.51649 113938198.35549        63.83249        50.000  

  22348260.10949 117440898.40249     -2012.66849        50.000  

  21952682.53949 115362124.35949      5507.50849        49.000  

 16 04 02 12 36  9.0000000  0  3G26G31G04                                       
  21681717.32849 113938192.12949        59.62549        50.000  

  22348298.44549 117441099.84449     -2017.30549        50.000  

  21952577.76649 115361573.77349      5503.38349        49.000  

 16 04 02 12 36  9.1000000  0  3G26G31G04                                       
  21681716.23449 113938186.41449        54.69949        50.000  

  22348336.87549 117441301.81249     -2022.46149        50.000  

  21952473.09449 115361023.68049      5498.51649        49.000  

 16 04 02 12 36  9.2000000  0  3G26G31G04                                       
  21681715.25849 113938181.26249        49.02749        50.000  

  22348375.43049 117441504.37549     -2028.40249        50.000  

  21952368.51649 115360474.11749      5493.12949        49.000  

 16 04 02 12 36  9.3000000  0  3G26G31G04                                       
  21681714.37549 113938176.60249        43.98849        50.000  

  22348414.07849 117441707.46949     -2033.74249        50.000  

  21952264.02349 115359925.05149      5488.10249        49.000  

 16 04 02 12 36  9.4000000  0  3G26G31G04                                       
  21681713.60249 113938172.44949        39.12149        50.000  

  22348452.82849 117441911.09049     -2038.81649        50.000  

  21952159.63349 115359376.47349      5483.36749        49.000  

 16 04 02 12 36  9.5000000  0  3G26G31G04                                       
  21681712.90649 113938168.78149        34.26249        50.000  

  22348491.67249 117442115.22749     -2044.02749        50.000  

  21952055.33649 115358828.36349      5478.63349        49.000  

 16 04 02 12 36  9.6000000  0  3G26G31G04                                       
  21681712.30549 113938165.66449        28.67649        50.000  

  22348530.64149 117442319.95349     -2050.09049        50.000  

  21951951.13349 115358280.78949      5473.27349        49.000  

 16 04 02 12 36  9.7000000  0  3G26G31G04                                       
  21681711.80549 113938163.04349        23.71949        50.000  

  22348569.69549 117442525.18449     -2055.05949        50.000  

  21951847.02349 115357733.69949      5468.53149        49.000  

 16 04 02 12 36  9.8000000  0  3G26G31G04                                       
  21681711.40649 113938160.93049        18.75849        50.000  

  22348608.84449 117442730.96949     -2060.55549        50.000  

  21951743.00849 115357187.10249      5463.53949        49.000  

 16 04 02 12 36  9.9000000  0  3G26G31G04                                       
  21681711.10249 113938159.33249        13.49649        50.000  

  22348648.10949 117442937.28949     -2066.00449        50.000  

  21951639.10949 115356641.00049      5458.50849        49.000  

 16 04 02 12 36 10.0000000  0  3G26G31G04                                       
  21681710.89849 113938158.23049         8.50449        50.000  

  22348687.46949 117443144.14149     -2071.31249        50.000  

  21951535.28949 115356095.39149      5453.61749        49.000  

 16 04 02 12 36 10.1000000  0  3G26G31G04                                       
  21681710.78149 113938157.62949         3.50449        50.000  

  22348726.93049 117443351.52049     -2076.57049        50.000  

  21951431.56249 115355550.26249      5448.77349        49.000  

 16 04 02 12 36 10.2000000  0  3G26G31G04                                       
  21681710.78149 113938157.58249        -2.07849        50.000  

  22348766.50049 117443559.47349     -2082.26649        50.000  

  21951327.93049 115355005.66849      5443.40649        49.000  

 16 04 02 12 36 10.3000000  0  3G26G31G04                                       
  21681710.87549 113938158.06249        -7.36749        50.000  

  22348806.18849 117443768.00449     -2088.07049        50.000  

  21951224.41449 115354461.59849      5438.23049        49.000  

 16 04 02 12 36 10.4000000  0  3G26G31G04                                       
  21681711.07049 113938159.04349       -12.37549        50.000  

  22348845.96949 117443977.05949     -2093.46949        50.000  

  21951120.97749 115353918.01649      5433.27049        49.000  

 16 04 02 12 36 10.5000000  0  3G26G31G04                                       
  21681711.37549 113938160.61749       -18.39549        50.000  

  22348885.85949 117444186.71549     -2099.49249        50.000  

  21951017.63349 115353374.99649      5427.63749        49.000  

 16 04 02 12 36 10.6000000  0  3G26G31G04                                       
  21681711.75849 113938162.71149       -23.52749        50.000  

  22348925.87549 117444396.93849     -2105.07849        50.000  

  21950914.39149 115352832.48849      5422.57449        49.000  

 16 04 02 12 36 10.7000000  0  3G26G31G04                                       
  21681712.24249 113938165.27749       -28.18849        50.000  

  22348965.96949 117444607.66049     -2110.02749        50.000  

  21950811.26649 115352290.45749      5417.89849        49.000  

 16 04 02 12 36 10.8000000  0  3G26G31G04                                       
  21681712.82049 113938168.33649       -32.97749        50.000  

  22349006.16449 117444818.90249     -2115.05549        50.000  

  21950708.20349 115351748.88749      5413.30949        49.000  

 16 04 02 12 36 10.9000000  0  3G26G31G04                                       
  21681713.52349 113938172.02749       -39.48449        50.000  

  22349046.48449 117445030.80149     -2121.90649        50.000  

  21950605.27349 115351207.93049      5406.93849        49.000  

 16 04 02 12 36 11.0000000  0  3G26G31G04                                       
  21681714.32049 113938176.22349       -44.47749        50.000  

  22349086.89849 117445243.24249     -2127.20749        50.000  

  21950502.42249 115350667.47749      5402.13749        49.000  

 16 04 02 12 36 11.1000000  0  3G26G31G04                                       
  21681715.20349 113938180.85249       -48.92249        50.000  

  22349127.41449 117445456.13749     -2131.91849        50.000  

  21950399.65649 115350127.44149      5397.69949        49.000  

 16 04 02 12 36 11.2000000  0  3G26G31G04                                       
  21681716.20349 113938186.07449       -54.66449        50.000  

  22349168.06249 117445669.66449     -2138.06649        50.000  

  21950297.00049 115349587.98049      5392.13749        49.000  

 16 04 02 12 36 11.3000000  0  3G26G31G04                                       
  21681717.28949 113938191.79349       -59.62549        50.000  

  22349208.79749 117445883.70749     -2143.15249        50.000  

  21950194.46949 115349048.99649      5387.46549        49.000  

 16 04 02 12 36 11.4000000  0  3G26G31G04                                       
  21681718.48449 113938198.04749       -65.02349        49.000  

  22349249.63349 117446098.31649     -2148.85549        50.000  

  21950092.00049 115348510.54349      5382.10549        49.000  

 16 04 02 12 36 11.5000000  0  3G26G31G04                                       
  21681719.78149 113938204.87549       -70.85949        50.000  

  22349290.58649 117446313.52749     -2154.91849        50.000  

  21949989.63349 115347972.64549      5376.49249        49.000  

 16 04 02 12 36 11.6000000  0  3G26G31G04                                       
  21681721.17249 113938212.18849       -75.64849        50.000  

  22349331.64849 117446529.25849     -2160.07449        50.000  

  21949887.36749 115347435.22749      5371.66449        49.000  

 16 04 02 12 36 11.7000000  0  3G26G31G04                                       
  21681722.66449 113938220.02749       -80.94149        50.000  

  22349372.80549 117446745.53549     -2165.58249        50.000  

  21949785.18849 115346898.30549      5366.62149        49.000  

 16 04 02 12 36 11.8000000  0  3G26G31G04                                       
  21681724.25049 113938228.39549       -86.14149        50.000  

  22349414.07049 117446962.37149     -2171.10249        50.000  

  21949683.10949 115346361.90249      5361.56249        49.000  

 16 04 02 12 36 11.9000000  0  3G26G31G04                                       
  21681725.93049 113938237.23449       -91.07449        50.000  

  22349455.43049 117447179.72349     -2176.45349        50.000  

  21949581.12549 115345825.96949      5356.73449        49.000  

 16 04 02 12 36 12.0000000  0  3G26G31G04                                       
  21681727.71149 113938246.62949       -96.25849        50.000  

  22349496.89849 117447397.63749     -2181.73849        50.000  

  21949479.24249 115345290.57049      5351.73449        49.000  

 16 04 02 12 36 12.1000000  0  3G26G31G04                                       
  21681729.59449 113938256.51249      -101.39149        50.000  

  22349538.46149 117447616.07049     -2187.18049        50.000  

  21949377.43849 115344755.63349      5346.75849        49.000  

 16 04 02 12 36 12.2000000  0  2G26G04                                          
  21681731.55549 113938266.86349      -105.93049        50.000  

  21949275.73449 115344221.16849      5342.34449        49.000  

 16 04 02 12 36 12.3000000  0  2G26G04                                          
  21681733.62549 113938277.73849      -111.13749        50.000  

  21949174.11749 115343687.21149      5337.13349        49.000  

 16 04 02 12 36 12.4000000  0  2G26G04                                          
  21681735.79749 113938289.15649      -116.66049        50.000  

  21949072.60949 115343153.77049      5331.87549        49.000  

 16 04 02 12 36 12.5000000  0  2G26G04                                          
  21681738.06249 113938301.06649      -121.59449        50.000  

  21948971.21149 115342620.81649      5327.14549        49.000  

 16 04 02 12 36 12.6000000  0  1G04                                             
  21948869.89849 115342088.40249      5321.62149        49.000  

 16 04 02 12 36 12.7000000  0  1G04                                             
  21948768.68849 115341556.51249      5316.32849        49.000  

 16 04 02 12 36 12.8000000  0  1G04                                             
  21948667.56249 115341025.07849      5311.69549        49.000  

 16 04 02 12 36 12.9000000  0  1G04                                             
  21948566.56249 115340494.21149      5306.12549        49.000  

 16 04 02 12 36 13.0000000  0  1G04                                             
  21948465.63349 115339963.82849      5301.51649        49.000  

 16 04 02 12 36 13.1000000  0  1G04                                             
  21948364.78149 115339433.83649      5297.44149        49.000  

 16 04 02 12 36 13.2000000  0  1G04                                             
  21948264.03949 115338904.45349      5291.47349        49.000  

 16 04 02 12 36 13.3000000  0  1G04                                             
  21948163.39849 115338375.53949      5286.63349        49.000  

 16 04 02 12 36 13.4000000  0  1G04                                             
  21948062.85249 115337847.13749      5281.37549        49.000  

 16 04 02 12 36 13.5000000  0  1G04                                             
  21947962.38349 115337319.24649      5276.41049        49.000  

 16 04 02 12 36 13.6000000  0  1G04                                             
  21947862.03149 115336791.87949      5271.23049        49.000  

 16 04 02 12 36 13.7000000  0  1G04                                             
  21947761.78949 115336265.00449      5266.14849        49.000  

 16 04 02 12 36 13.8000000  0  2G16G04                                          
  22855912.53949 120108630.80159    -11883.55549        49.000  

  21947661.63349 115335738.67249      5260.81249        49.000  

 16 04 02 12 36 13.9000000  0  2G16G04                                          
  22856138.71149 120109819.35549    -11887.69549        49.000  

  21947561.57849 115335212.83649      5255.80549        49.000  

 16 04 02 12 36 14.0000000  0  2G16G04                                          
  22856364.96149 120111008.25849    -11890.92649        49.000  

  21947461.60249 115334687.44549      5251.70349        49.000  

 16 04 02 12 36 14.1000000  0  2G16G04                                          
  22856591.27349 120112197.55549    -11895.09049        49.000  

  21947361.74249 115334162.54749      5246.65249        49.000  

 16 04 02 12 36 14.2000000  0  2G16G04                                          
  22856817.66449 120113387.30549    -11899.62549        49.000  

  21947261.95349 115333638.17249      5241.21549        49.000  

 16 04 02 12 36 14.3000000  0  2G16G04                                          
  22857044.14149 120114577.46149    -11903.85549        49.000  

  21947162.27349 115333114.30949      5236.12949        49.000  

 16 04 02 12 36 14.4000000  0  2G16G04                                          
  22857270.70349 120115768.00049    -11907.38749        49.000  

  21947062.67249 115332590.91449      5231.63349        49.000  

 16 04 02 12 36 14.5000000  0  2G16G04                                          
  22857497.34449 120116958.98849    -11912.05949        49.000  

  21946963.17249 115332068.06249      5226.01649        49.000  

 16 04 02 12 36 14.6000000  0  2G16G04                                          
  22857724.06249 120118150.37949    -11915.97749        49.000  

  21946863.76649 115331545.68849      5221.31249        49.000  

 16 04 02 12 36 14.7000000  0  2G16G04                                          
  22857950.84449 120119342.15249    -11919.90649        50.000  

  21946764.44549 115331023.78949      5216.50049        49.000  

 16 04 02 12 36 14.8000000  0  2G16G04                                          
  22858177.73449 120120534.35549    -11924.11349        49.000  

  21946665.22749 115330502.41049      5211.37949        49.000  

 16 04 02 12 36 14.9000000  0  2G16G04                                          
  22858404.68849 120121727.00449    -11928.50849        49.000  

  21946566.11749 115329981.57449      5206.05949        49.000  

 16 04 02 12 36 15.0000000  0  2G16G04                                          
  22858631.70349 120122920.03549    -11932.82449        49.000  

  21946467.09449 115329461.21549      5200.86349        49.000  

 16 04 02 12 36 15.1000000  0  2G16G04                                          
  22858858.82049 120124113.50849    -11936.72349        50.000  

  21946368.17249 115328941.37149      5196.10249        49.000  

 16 04 02 12 36 15.2000000  0  2G16G04                                          
  22859085.99249 120125307.35549    -11940.75449        50.000  

  21946269.34449 115328422.00049      5191.12149        49.000  

 16 04 02 12 36 15.3000000  0  2G16G04                                          
  22859313.27349 120126501.72749    -11945.94949        50.000  

  21946170.63349 115327903.23849      5185.05949        49.000  

 16 04 02 12 36 15.4000000  0  2G16G04                                          
  22859540.64149 120127696.48849    -11949.96549        50.000  

  21946072.00849 115327384.96549      5180.13749        49.000  

 16 04 02 12 36 15.5000000  0  2G16G04                                          
  22859768.07849 120128891.64849    -11953.57849        50.000  

  21945973.45349 115326867.17249      5175.52349        49.000  

 16 04 02 12 36 15.6000000  0  2G16G04                                          
  22859995.59449 120130087.21949    -11957.75049        50.000  

  21945875.01649 115326349.86349      5170.75049        49.000  

 16 04 02 12 36 15.7000000  0  2G16G04                                          
  22860223.18049 120131283.21149    -11962.21149        50.000  

  21945776.65649 115325833.10249      5165.18849        49.000  

 16 04 02 12 36 15.8000000  0  2G16G04                                          
  22860450.85949 120132479.61749    -11966.27049        50.000  

  21945678.41449 115325316.81249      5160.40249        49.000  

 16 04 02 12 36 15.9000000  0  2G16G04                                          
  22860678.60249 120133676.39549    -11970.03149        50.000  

  21945580.27349 115324801.00449      5155.66849        49.000  

 16 04 02 12 36 16.0000000  0  2G16G04                                          
  22860906.41449 120134873.60549    -11974.19549        50.000  

  21945482.21949 115324285.71149      5150.50449        49.000  

 16 04 02 12 36 16.1000000  0  2G16G04                                          
  22861134.32049 120136071.27049    -11978.77349        50.000  

  21945384.25849 115323770.96149      5145.05549        49.000  

 16 04 02 12 36 16.2000000  0  2G16G04                                          
  22861362.31249 120137269.28949    -11982.50449        50.000  

  21945286.39149 115323256.66049      5140.47749        49.000  

 16 04 02 12 36 16.3000000  0  2G16G04                                          
  22861590.37549 120138467.76249    -11986.96549        50.000  

  21945188.61749 115322742.89849      5135.12949        49.000  

 16 04 02 12 36 16.4000000  0  2G16G04                                          
  22861818.53149 120139666.66049    -11991.10549        49.000  

  21945090.95349 115322229.65249      5130.03149        49.000  

 16 04 02 12 36 16.5000000  0  2G16G04                                          
  22862046.75049 120140865.94149    -11994.86349        49.000  

  21944993.35949 115321716.88749      5125.27049        49.000  

 16 04 02 12 36 16.6000000  0  2G16G04                                          
  22862275.02349 120142065.60949    -11998.73849        49.000  

  21944895.86749 115321204.59449      5120.55949        49.000  

 16 04 02 12 36 16.7000000  0  2G16G04                                          
  22862503.39849 120143265.72349    -12003.36349        49.000  

  21944798.47749 115320692.83249      5115.00849        49.000  

 16 04 02 12 36 16.8000000  0  2G16G04                                          
  22862731.85949 120144466.27049    -12007.56649        49.000  

  21944701.19549 115320181.59049      5109.95349        49.000  

 16 04 02 12 36 16.9000000  0  2G16G04                                          
  22862960.39849 120145667.22749    -12011.68849        49.000  

  21944604.03149 115319670.84849      5104.99249        49.000  

 16 04 02 12 36 17.0000000  0  2G16G04                                          
  22863188.96949 120146868.56249    -12015.54349        49.000  

  21944506.93049 115319160.58649      5100.14149        49.000  

 16 04 02 12 36 17.1000000  0  2G16G04                                          
  22863417.64849 120148070.29749    -12019.40649        49.000  

  21944409.91449 115318650.80949      5095.45749        49.000  

 16 04 02 12 36 17.2000000  0  2G16G04                                          
  22863646.41449 120149272.44149    -12023.59449        49.000  

  21944313.00049 115318141.53149      5090.32049        49.000  

 16 04 02 12 36 17.3000000  0  2G16G04                                          
  22863875.26649 120150475.03949    -12028.08249        49.000  

  21944216.20349 115317632.79749      5084.91049        49.000  

 16 04 02 12 36 17.4000000  0  2G16G04                                          
  22864104.20349 120151678.05949    -12032.61349        49.000  

  21944119.49249 115317124.56649      5079.60949        49.000  

 16 04 02 12 36 17.5000000  0  2G16G04                                          
  22864333.19549 120152881.43849    -12035.73049        49.000  

  21944022.86749 115316616.79749      5075.44549        49.000  

 16 04 02 12 36 17.6000000  0  2G16G04                                          
  22864562.26649 120154085.21549    -12039.84049        49.000  

  21943926.33649 115316109.51649      5070.39849        49.000  

 16 04 02 12 36 17.7000000  0  2G16G04                                          
  22864791.43049 120155289.48049    -12044.69549        49.000  

  21943829.92249 115315602.80949      5064.63349        49.000  

 16 04 02 12 36 17.8000000  0  2G16G04                                          
  22865020.64849 120156494.12149    -12048.59049        49.000  

  21943733.58649 115315096.56249      5059.91449        49.000  

 16 04 02 12 36 17.9000000  0  2G16G04                                          
  22865249.96149 120157699.16449    -12052.64149        49.000  

  21943637.35249 115314590.81649      5055.00049        49.000  

 16 04 02 12 36 18.0000000  0  2G16G04                                          
  22865479.36749 120158904.67649    -12057.18449        49.000  

  21943541.21949 115314085.62949      5049.49249        49.000  

 16 04 02 12 36 18.1000000  0  2G16G04                                          
  22865708.82849 120160110.50849    -12060.52349        49.000  

  21943445.17249 115313580.85249      5045.23049        49.000  

 16 04 02 12 36 18.2000000  0  2G16G04                                          
  22865938.38349 120161316.78949    -12064.69549        49.000  

  21943349.21949 115313076.60949      5040.25849        49.000  

 16 04 02 12 36 18.3000000  0  2G16G04                                          
  22866167.99249 120162523.39149    -12068.18049        49.000  

  21943253.33649 115312572.78949      5035.82449        49.000  

 16 04 02 12 36 18.4000000  0  2G16G04                                          
  22866397.68049 120163730.46549    -12072.72349        49.000  

  21943157.57049 115312069.52749      5030.27049        49.000  

 16 04 02 12 36 18.5000000  0  2G16G04                                          
  22866627.45349 120164937.91049    -12076.65249        49.000  

  21943061.89849 115311566.71949      5025.61749        49.000  

 16 04 02 12 36 18.6000000  0  2G16G04                                          
  22866857.29749 120166145.81649    -12081.37949        49.000  

  21942966.32049 115311064.46549      5019.98049        49.000  

 16 04 02 12 36 18.7000000  0  2G16G04                                          
  22867087.23449 120167354.14549    -12085.36349        49.000  

  21942870.84449 115310562.73449      5014.87549        49.000  

 16 04 02 12 36 18.8000000  0  2G16G04                                          
  22867317.25849 120168562.91049    -12089.87949        49.000  

  21942775.46949 115310061.52349      5009.55149        49.000  

 16 04 02 12 36 18.9000000  0  2G16G04                                          
  22867547.34449 120169772.03549    -12093.37149        49.000  

  21942680.17249 115309560.76249      5005.10949        49.000  

 16 04 02 12 36 19.0000000  0  2G16G04                                          
  22867777.52349 120170981.64549    -12098.12549        49.000  

  21942584.99249 115309060.58249      4999.34449        49.000  

 16 04 02 12 36 19.1000000  0  2G16G04                                          
  22868007.78149 120172191.67249    -12102.54349        49.000  

  21942489.91449 115308560.89549      4994.24249        49.000  

 16 04 02 12 36 19.2000000  0  2G16G04                                          
  22868238.11749 120173402.06249    -12106.16849        49.000  

  21942394.91449 115308061.68049      4989.65249        49.000  

 16 04 02 12 36 19.3000000  0  2G16G04                                          
  22868468.53149 120174612.88749    -12110.38749        49.000  

  21942300.03149 115307562.97749      4984.60949        49.000  

 16 04 02 12 36 19.4000000  0  2G16G04                                          
  22868699.01649 120175824.08249    -12113.93849        49.000  

  21942205.21949 115307064.74249      4980.00449        49.000  

 16 04 02 12 36 19.5000000  0  2G16G04                                          
  22868929.58649 120177035.74249    -12118.87949        49.000  

  21942110.50049 115306567.06249      4974.26649        49.000  

 16 04 02 12 36 19.6000000  0  2G16G04                                          
  22869160.23449 120178247.77749    -12122.48049        49.000  

  21942015.88349 115306069.84449      4969.64849        49.000  

 16 04 02 12 36 19.7000000  0  2G16G04                                          
  22869390.96149 120179460.24649    -12127.00049        49.000  

  21941921.36749 115305573.15649      4964.35949        49.000  

 16 04 02 12 36 19.8000000  0  2G16G04                                          
  22869621.77349 120180673.12549    -12130.98849        49.000  

  21941826.94549 115305076.96949      4959.32849        49.000  

 16 04 02 12 36 19.9000000  0  2G16G04                                          
  22869852.66449 120181886.44949    -12135.63749        49.000  

  21941732.62549 115304581.32049      4953.90249        49.000  

 16 04 02 12 36 20.0000000  0  2G16G04                                          
  22870083.61749 120183100.19149    -12139.49249        49.000  

  21941638.39849 115304086.18049      4948.88349        49.000  

 16 04 02 12 36 20.1000000  0  2G16G04                                          
  22870314.64849 120184314.27349    -12143.04749        49.000  

  21941544.26649 115303591.46149      4944.67649        49.000  

 16 04 02 12 36 20.2000000  0  2G16G04                                          
  22870545.77349 120185528.77749    -12147.02049        49.000  

  21941450.22749 115303097.26649      4939.65649        49.000  

 16 04 02 12 36 20.3000000  0  2G16G04                                          
  22870776.96949 120186743.71149    -12151.52749        49.000  

  21941356.28949 115302603.57849      4934.38349        49.000  

 16 04 02 12 36 20.4000000  0  2G16G04                                          
  22871008.24249 120187959.07849    -12155.71549        49.000  

  21941262.44549 115302110.43849      4928.97749        49.000  

 16 04 02 12 36 20.5000000  0  2G16G04                                          
  22871239.59449 120189174.84849    -12159.97749        49.000  

  21941168.68849 115301617.77749      4923.97749        49.000  

 16 04 02 12 36 20.6000000  0  2G16G04                                          
  22871471.03949 120190391.08249    -12164.53149        49.000  

  21941075.03949 115301125.66849      4918.60949        49.000  

 16 04 02 12 36 20.7000000  0  2G16G04                                          
  22871702.54749 120191607.64849    -12167.67249        49.000  

  21940981.46949 115300633.98849      4914.41849        49.000  

 16 04 02 12 36 20.8000000  0  2G16G04                                          
  22871934.14149 120192824.64849    -12172.11349        49.000  

  21940888.00849 115300142.83649      4909.08249        49.000  

 16 04 02 12 36 20.9000000  0  2G16G04                                          
  22872165.81249 120194042.09049    -12176.48049        49.000  

  21940794.63349 115299652.21149      4903.82049        49.000  

 16 04 02 12 36 21.0000000  0  2G16G04                                          
  22872397.57849 120195259.92249    -12180.59449        49.000  

  21940701.36749 115299162.07849      4898.68449        49.000  

 16 04 02 12 36 21.1000000  0  2G16G04                                          
  22872629.40649 120196478.18449    -12184.75049        49.000  

  21940608.19549 115298672.46149      4893.58249        49.000  

 16 04 02 12 36 21.2000000  0  2G16G04                                          
  22872861.33649 120197696.85949    -12188.86349        49.000  

  21940515.11749 115298183.34049      4888.71549        49.000  

 16 04 02 12 36 21.3000000  0  2G16G04                                          
  22873093.31249 120198915.90649    -12192.46149        49.000  

  21940422.14149 115297694.69549      4884.04749        49.000  

 16 04 02 12 36 21.4000000  0  2G16G04                                          
  22873325.37549 120200135.35249    -12196.66449        49.000  

  21940329.24249 115297206.53149      4879.03149        49.000  

 16 04 02 12 36 21.5000000  0  2G16G04                                          
  22873557.50849 120201355.23049    -12200.98849        49.000  

  21940236.45349 115296718.89549      4873.84849        49.000  

 16 04 02 12 36 21.6000000  0  2G16G04                                          
  22873789.75049 120202575.53949    -12205.28149        49.000  

  21940143.75849 115296231.77749      4868.75449        49.000  

 16 04 02 12 36 21.7000000  0  2G16G04                                          
  22874022.05549 120203796.32049    -12209.71949        49.000  

  21940051.16449 115295745.21549      4863.34849        49.000  

 16 04 02 12 36 21.8000000  0  2G16G04                                          
  22874254.43849 120205017.42249    -12213.30549        49.000  

  21939958.66449 115295259.09049      4858.67249        49.000  

 16 04 02 12 36 21.9000000  0  2G16G04                                          
  22874486.89849 120206238.99249    -12217.86349        49.000  

  21939866.24249 115294773.50449      4853.37149        49.000  

 16 04 02 12 36 22.0000000  0  2G16G04                                          
  22874719.43849 120207460.95349    -12221.87149        49.000  

  21939773.93049 115294288.40649      4848.43849        49.000  

 16 04 02 12 36 22.1000000  0  2G16G04                                          
  22874952.05549 120208683.33649    -12226.03949        49.000  

  21939681.72749 115293803.83249      4843.33649        49.000  

 16 04 02 12 36 22.2000000  0  2G16G04                                          
  22875184.75049 120209906.15249    -12230.34449        49.000  

  21939589.60949 115293319.77049      4838.04749        49.000  

 16 04 02 12 36 22.3000000  0  2G16G04                                          
  22875417.52349 120211129.39549    -12234.70349        49.000  

  21939497.60249 115292836.23449      4832.80149        49.000  

 16 04 02 12 36 22.4000000  0  2G16G04                                          
  22875650.35249 120212352.96149    -12237.72349        49.000  

  21939405.66449 115292353.10549      4828.89549        49.000  

 16 04 02 12 36 22.5000000  0  2G16G04                                          
  22875883.27349 120213576.98049    -12242.30549        49.000  

  21939313.83649 115291870.53549      4823.35549        49.000  

 16 04 02 12 36 22.6000000  0  2G16G04                                          
  22876116.28149 120214801.46149    -12246.93849        49.000  

  21939222.10949 115291388.50049      4817.91449        49.000  

 16 04 02 12 36 22.7000000  0  2G16G04                                          
  22876349.35949 120216026.31249    -12250.73449        49.000  

  21939130.46149 115290906.94149      4813.06249        49.000  

 16 04 02 12 36 22.8000000  0  2G16G04                                          
  22876582.53149 120217251.63349    -12255.59449        49.000  

  21939038.93049 115290425.94149      4807.37149        49.000  

 16 04 02 12 36 22.9000000  0  2G16G04                                          
  22876815.78149 120218477.37949    -12259.48049        49.000  

  21938947.50849 115289945.46149      4802.36349        49.000  

 16 04 02 12 36 23.0000000  0  2G16G04                                          
  22877049.10249 120219703.48049    -12263.25849        49.000  

  21938856.15649 115289465.42249      4797.82449        49.000  

 16 04 02 12 36 23.1000000  0  2G16G04                                          
  22877282.50849 120220930.05949    -12267.91449        49.000  

  21938764.92249 115288985.95349      4792.18849        49.000  

 16 04 02 12 36 23.2000000  0  2G16G04                                          
  22877515.99249 120222157.00449    -12271.42249        49.000  

  21938673.76649 115288506.93849      4787.80549        49.000  

 16 04 02 12 36 23.3000000  0  2G16G04                                          
  22877749.53949 120223384.27749    -12274.73449        49.000  

  21938582.68849 115288028.35949      4783.44949        49.000  

 16 04 02 12 36 23.4000000  0  2G16G04                                          
  22877983.15649 120224612.03149    -12279.74249        49.000  

  21938491.72749 115287550.33649      4777.73449        49.000  

 16 04 02 12 36 23.5000000  0  2G16G04                                          
  22878216.87549 120225840.23849    -12284.21549        49.000  

  21938400.87549 115287072.87149      4772.21149        49.000  

 16 04 02 12 36 23.6000000  0  2G16G04                                          
  22878450.66449 120227068.79349    -12287.76649        49.000  

  21938310.09449 115286595.83249      4767.74249        49.000  

 16 04 02 12 36 23.7000000  0  2G16G04                                          
  22878684.53949 120228297.81649    -12292.26649        49.000  

  21938219.43849 115286119.37149      4762.39849        49.000  

 16 04 02 12 36 23.8000000  0  2G16G04                                          
  22878918.46949 120229527.19549    -12295.98849        49.000  

  21938128.85249 115285643.35549      4757.60949        49.000  

 16 04 02 12 36 23.9000000  0  2G16G04                                          
  22879152.50049 120230757.03549    -12300.66449        49.000  

  21938038.37549 115285167.87949      4752.14149        49.000  

 16 04 02 12 36 24.0000000  0  2G16G04                                          
  22879386.60949 120231987.28549    -12304.72349        49.000  

  21937947.99249 115284692.91849      4747.08249        49.000  

 16 04 02 12 36 24.1000000  0  2G16G04                                          
  22879620.78949 120233217.91449    -12308.48849        49.000  

  21937857.70349 115284218.42249      4742.44949        49.000  

 16 04 02 12 36 24.2000000  0  2G16G04                                          
  22879855.04749 120234448.95749    -12312.60249        49.000  

  21937767.50849 115283744.43849      4737.40249        49.000  

 16 04 02 12 36 24.3000000  0  2G16G04                                          
  22880089.38349 120235680.37549    -12316.14849        49.000  

  21937677.41449 115283270.90249      4732.99249        49.000  

 16 04 02 12 36 24.4000000  0  2G16G04                                          
  22880323.78149 120236912.19949    -12320.38749        49.000  

  21937587.39849 115282797.89149      4727.71149        49.000  

 16 04 02 12 36 24.5000000  0  2G16G04                                          
  22880558.27349 120238144.44949    -12324.74649        49.000  

  21937497.48449 115282325.37949      4722.64549        49.000  

 16 04 02 12 36 24.6000000  0  2G16G04                                          
  22880792.82849 120239377.11349    -12328.58649        49.000  

  21937407.67249 115281853.39149      4717.53549        49.000  

 16 04 02 12 36 24.7000000  0  2G16G04                                          
  22881027.46949 120240610.14549    -12332.52749        49.000  

  21937317.93849 115281381.85949      4712.72349        49.000  

 16 04 02 12 36 24.8000000  0  2G16G04                                          
  22881262.19549 120241843.64549    -12337.16049        49.000  

  21937228.31249 115280910.87149      4707.36749        49.000  

 16 04 02 12 36 24.9000000  0  2G16G04                                          
  22881497.00049 120243077.54349    -12341.23449        49.000  

  21937138.77349 115280440.38749      4702.26249        49.000  

 16 04 02 12 36 25.0000000  0  2G16G04                                          
  22881731.87549 120244311.75449    -12344.13349        50.000  

  21937049.32049 115279970.31249      4698.31649        49.000  

 16 04 02 12 36 25.1000000  0  2G16G04                                          
  22881966.82049 120245546.39149    -12348.32849        50.000  

  21936959.96149 115279500.73849      4693.48849        49.000  

 16 04 02 12 36 25.2000000  0  2G16G04                                          
  22882201.84449 120246781.41449    -12352.16449        49.000  

  21936870.70349 115279031.66449      4688.59449        49.000  

 16 04 02 12 36 25.3000000  0  2G16G04                                          
  22882436.93049 120248016.82449    -12356.56649        49.000  

  21936781.52349 115278563.06649      4683.36749        49.000  

 16 04 02 12 36 25.4000000  0  2G16G04                                          
  22882672.13349 120249252.72749    -12361.06249        49.000  

  21936692.46149 115278095.05149      4677.78149        49.000  

 16 04 02 12 36 25.5000000  0  2G16G04                                          
  22882907.39149 120250489.00849    -12364.96549        50.000  

  21936603.48449 115277627.49649      4673.10249        49.000  

 16 04 02 12 36 25.6000000  0  2G16G04                                          
  22883142.71949 120251725.66849    -12368.71149        49.000  

  21936514.60249 115277160.43049      4668.21549        49.000  

 16 04 02 12 36 25.7000000  0  2G16G04                                          
  22883378.14149 120252962.80949    -12373.68049        49.000  

  21936425.82849 115276693.93449      4662.34049        49.000  

 16 04 02 12 36 25.8000000  0  2G16G04                                          
  22883613.65649 120254200.41049    -12378.27749        50.000  

  21936337.15649 115276227.98049      4656.92249        49.000  

 16 04 02 12 36 25.9000000  0  2G16G04                                          
  22883849.22749 120255438.36749    -12381.93449        49.000  

  21936248.58649 115275762.48449      4652.28549        49.000  

 16 04 02 12 36 26.0000000  0  2G16G04                                          
  22884084.89849 120256676.76649    -12386.07449        49.000  

  21936160.10949 115275297.52049      4647.21149        49.000  

 16 04 02 12 36 26.1000000  0  2G16G04                                          
  22884320.63349 120257915.53549    -12389.85549        49.000  

  21936071.71949 115274833.02049      4642.48849        49.000  

 16 04 02 12 36 26.2000000  0  2G16G04                                          
  22884556.44549 120259154.69549    -12393.86749        49.000  

  21935983.41449 115274369.00449      4637.58649        49.000  

 16 04 02 12 36 26.3000000  0  2G16G04                                          
  22884792.33649 120260394.32449    -12398.40249        49.000  

  21935895.23449 115273905.55149      4632.17649        49.000  

 16 04 02 12 36 26.4000000  0  2G16G04                                          
  22885028.28949 120261634.23449    -12401.28949        49.000  

  21935807.11749 115273442.47749      4628.25849        49.000  

 16 04 02 12 36 26.5000000  0  2G16G04                                          
  22885264.32849 120262874.65649    -12406.15249        49.000  

  21935719.11749 115272979.99249      4622.49649        49.000  

 16 04 02 12 36 26.6000000  0  2G16G04                                          
  22885500.46149 120264115.48849    -12410.77049        50.000  

  21935631.20349 115272518.02349      4616.96549        49.000  

 16 04 02 12 36 26.7000000  0  2G16G04                                          
  22885736.67249 120265356.75449    -12414.98849        50.000  

  21935543.39149 115272056.57849      4611.82849        49.000  

 16 04 02 12 36 26.8000000  0  2G16G04                                          
  22885972.94549 120266598.46549    -12419.52349        49.000  

  21935455.68849 115271595.67249      4606.46149        49.000  

 16 04 02 12 36 26.9000000  0  2G16G04                                          
  22886209.31249 120267840.57849    -12423.05549        49.000  

  21935368.07849 115271135.26649      4601.69549        49.000  

 16 04 02 12 36 27.0000000  0  2G16G04                                          
  22886445.74249 120269083.03149    -12426.48849        49.000  

  21935280.54749 115270675.28149      4597.42649        49.000  

 16 04 02 12 36 27.1000000  0  2G16G04                                          
  22886682.25849 120270325.91449    -12431.10249        49.000  

  21935193.10949 115270215.83649      4591.98449        49.000  

 16 04 02 12 36 27.2000000  0  2G16G04                                          
  22886918.86749 120271569.31249    -12436.30949        49.000  

  21935105.79749 115269756.98449      4585.87949        49.000  

 16 04 02 12 36 27.3000000  0  2G16G04                                          
  22887155.53949 120272813.04349    -12439.40249        49.000  

  21935018.54749 115269298.56249      4581.66449        49.000  

 16 04 02 12 36 27.4000000  0  2G16G04                                          
  22887392.28149 120274057.14149    -12443.08649        49.000  

  21934931.39849 115268840.60549      4577.13349        49.000  

 16 04 02 12 36 27.5000000  0  2G16G04                                          
  22887629.10949 120275301.67649    -12447.43849        49.000  

  21934844.35249 115268383.17649      4571.92249        49.000  

 16 04 02 12 36 27.6000000  0  2G16G04                                          
  22887866.00849 120276546.64849    -12451.87149        49.000  

  21934757.40649 115267926.28549      4566.43449        49.000  

 16 04 02 12 36 27.7000000  0  2G16G04                                          
  22888102.99249 120277792.00449    -12455.80949        49.000  

  21934670.55549 115267469.86349      4561.52749        49.000  

 16 04 02 12 36 27.8000000  0  2G16G04                                          
  22888340.05549 120279037.79349    -12459.93449        49.000  

  21934583.80549 115267013.96549      4556.51649        49.000  

 16 04 02 12 36 27.9000000  0  2G16G04                                          
  22888577.19549 120280283.94949    -12463.67649        50.000  

  21934497.13349 115266558.53149      4551.96149        49.000  

 16 04 02 12 36 28.0000000  0  2G16G04                                          
  22888814.43049 120281530.60249    -12468.74649        50.000  

  21934410.57849 115266103.69549      4545.79349        49.000  

 16 04 02 12 36 28.1000000  0  2G16G04                                          
  22889051.73449 120282777.65649    -12472.58649        50.000  

  21934324.11749 115265649.35549      4540.85249        49.000  

 16 04 02 12 36 28.2000000  0  2G16G04                                          
  22889289.09449 120284025.03549    -12475.83249        50.000  

  21934237.73449 115265195.41449      4536.90249        49.000  

 16 04 02 12 36 28.3000000  0  2G16G04                                          
  22889526.55549 120285272.88749    -12480.53949        50.000  

  21934151.46149 115264742.05149      4531.23849        49.000  

 16 04 02 12 36 28.4000000  0  2G16G04                                          
  22889764.08649 120286521.10549    -12484.31249        50.000  

  21934065.28149 115264289.15249      4526.52749        49.000  

 16 04 02 12 36 28.5000000  0  2G16G04                                          
  22890001.69549 120287769.75449    -12488.55149        50.000  

  21933979.18849 115263836.77349      4521.33649        49.000  

 16 04 02 12 36 28.6000000  0  2G16G04                                          
  22890239.37549 120289018.77749    -12492.44549        50.000  

  21933893.19549 115263384.85949      4516.64549        49.000  

 16 04 02 12 36 28.7000000  0  2G16G04                                          
  22890477.14849 120290268.25449    -12496.81249        50.000  

  21933807.32049 115262933.48849      4511.25049        49.000  

 16 04 02 12 36 28.8000000  0  2G16G04                                          
  22890714.98449 120291518.06649    -12500.29349        50.000  

  21933721.51649 115262482.56249      4506.87949        49.000  

 16 04 02 12 36 28.9000000  0  2G16G04                                          
  22890952.89849 120292768.34449    -12505.02349        50.000  

  21933635.80549 115262032.18849      4501.34849        49.000  

 16 04 02 12 36 29.0000000  0  2G16G04                                          
  22891190.89849 120294019.07049    -12509.30949        50.000  

  21933550.20349 115261582.34849      4495.96549        49.000  

 16 04 02 12 36 29.1000000  0  2G16G04                                          
  22891428.96949 120295270.11749    -12512.84449        50.000  

  21933464.68849 115261132.93849      4491.53949        49.000  

 16 04 02 12 36 29.2000000  0  2G16G04                                          
  22891667.12549 120296521.62949    -12517.20749        50.000  

  21933379.27349 115260684.08649      4486.16849        49.000  

 16 04 02 12 36 29.3000000  0  2G16G04                                          
  22891905.35249 120297773.53949    -12521.23849        50.000  

  21933293.95349 115260235.71149      4481.27749        49.000  

 16 04 02 12 36 29.4000000  0  2G16G04                                          
  22892143.64849 120299025.83249    -12525.08249        50.000  

  21933208.72749 115259787.83649      4476.27349        49.000  

 16 04 02 12 36 29.5000000  0  2G16G04                                          
  22892382.04749 120300278.63349    -12530.34049        50.000  

  21933123.61749 115259340.52749      4470.45349        49.000  

 16 04 02 12 36 29.6000000  0  2G16G04                                          
  22892620.50849 120301531.80149    -12533.94549        50.000  

  21933038.58649 115258893.70749      4465.66849        49.000  

 16 04 02 12 36 29.7000000  0  2G16G04                                          
  22892859.04749 120302785.33649    -12537.35949        50.000  

  21932953.63349 115258447.35249      4461.22349        49.000  

 16 04 02 12 36 29.8000000  0  2G16G04                                          
  22893097.68049 120304039.28949    -12541.63749        50.000  

  21932868.78949 115258001.48449      4456.14549        49.000  

 16 04 02 12 36 29.9000000  0  2G16G04                                          
  22893336.37549 120305293.63749    -12545.55549        49.000  

  21932784.05549 115257556.14849      4450.93849        49.000  

 16 04 02 12 36 30.0000000  0  2G16G04                                          
  22893575.14849 120306548.41049    -12549.91849        50.000  

  21932699.39849 115257111.29349      4446.02049        49.000  

 16 04 02 12 36 30.1000000  0  2G16G04                                          
  22893813.98449 120307803.52349    -12553.27349        50.000  

  21932614.82849 115256666.87149      4441.83249        49.000  

 16 04 02 12 36 30.2000000  0  2G16G04                                          
  22894052.91449 120309059.05949    -12557.36749        50.000  

  21932530.36749 115256223.00449      4436.39549        49.000  

 16 04 02 12 36 30.3000000  0  2G16G04                                          
  22894291.92249 120310315.07449    -12562.28949        49.000  

  21932446.00849 115255779.67249      4430.62949        49.000  

 16 04 02 12 36 30.4000000  0  2G16G04                                          
  22894531.01649 120311571.50049    -12566.41849        50.000  

  21932361.74249 115255336.85549      4425.66449        49.000  

 16 04 02 12 36 30.5000000  0  2G16G04                                          
  22894770.18049 120312828.33249    -12570.66449        49.000  

  21932277.57849 115254894.54349      4420.34849        49.000  

 16 04 02 12 36 30.6000000  0  2G16G04                                          
  22895009.43049 120314085.58649    -12574.73449        50.000  

  21932193.50849 115254452.75449      4415.34449        49.000  

 16 04 02 12 36 30.7000000  0  2G16G04                                          
  22895248.75849 120315343.26249    -12578.95749        50.000  

  21932109.53149 115254011.46949      4410.16849        49.000  

 16 04 02 12 36 30.8000000  0  2G16G04                                          
  22895488.16449 120316601.32449    -12582.71149        50.000  

  21932025.64849 115253570.67249      4405.52049        49.000  

 16 04 02 12 36 30.9000000  0  2G16G04                                          
  22895727.64149 120317859.79749    -12586.68449        50.000  

  21931941.88349 115253130.37949      4400.54749        49.000  

 16 04 02 12 36 31.0000000  0  2G16G04                                          
  22895967.21149 120319118.68849    -12591.21549        50.000  

  21931858.19549 115252690.59449      4395.28149        49.000  

 16 04 02 12 36 31.1000000  0  2G16G04                                          
  22896206.85249 120320378.03549    -12595.61349        50.000  

  21931774.61749 115252251.35949      4389.91049        49.000  

 16 04 02 12 36 31.2000000  0  2G16G04                                          
  22896446.55549 120321637.73849    -12599.12949        49.000  

  21931691.11749 115251812.58249      4385.33249        49.000  

 16 04 02 12 36 31.3000000  0  2G16G04                                          
  22896686.34449 120322897.84049    -12603.21549        49.000  

  21931607.71949 115251374.29749      4380.35249        49.000  

 16 04 02 12 36 31.4000000  0  2G16G04                                          
  22896926.21149 120324158.33649    -12606.92649        49.000  

  21931524.40649 115250936.50449      4375.58649        49.000  

 16 04 02 12 36 31.5000000  0  2G16G04                                          
  22897166.15649 120325419.25449    -12611.39849        49.000  

  21931441.19549 115250499.21549      4370.39849        49.000  

 16 04 02 12 36 31.6000000  0  2G16G04                                          
  22897406.17249 120326680.61349    -12615.66849        49.000  

  21931358.08649 115250062.48049      4364.97749        49.000  

 16 04 02 12 36 31.7000000  0  2G16G04                                          
  22897646.27349 120327942.36349    -12619.75849        49.000  

  21931275.07049 115249626.19949      4360.24249        49.000  

 16 04 02 12 36 31.8000000  0  2G16G04                                          
  22897886.46149 120329204.55149    -12624.08649        49.000  

  21931192.14849 115249190.48049      4354.78549        49.000  

 16 04 02 12 36 31.9000000  0  2G16G04                                          
  22898126.72749 120330467.14849    -12628.21149        49.000  

  21931109.33649 115248755.26649      4349.64849        49.000  

 16 04 02 12 36 32.0000000  0  2G16G04                                          
  22898367.06249 120331730.12949    -12631.81249        49.000  

  21931026.60249 115248320.52049      4344.92649        49.000  

 16 04 02 12 36 32.1000000  0  2G16G04                                          
  22898607.48449 120332993.52749    -12636.17249        49.000  

  21930943.97749 115247886.28949      4339.87149        49.000  

 16 04 02 12 36 32.2000000  0  2G16G04                                          
