     2.10           OBSERVATION DATA    G (GPS)             RINEX VERSION / TYPE
Convert v1.8.0                          09-Jun-2016 15:01   PGM / RUN BY / DATE 
Signal Strength values S1,S2 are in dBHz                    COMMENT             
                                                            MARKER NAME         
                                                            MARKER NUMBER       
                                                            OBSERVER / AGENCY   
                    NovAtel GPSCard                         REC # / TYPE / VERS 
                                                            ANT # / TYPE        
0.0000        0.0000        0.0000                          APPROX POSITION XYZ 
        0.0000        0.0000        0.0000                  ANTENNA: DELTA H/E/N
     1     0                                                WAVELENGTH FACT L1/2
     1     0     2   G09   G29                              WAVELENGTH FACT L1/2
                                                            COMMENT             
                                                            COMMENT             
                                                            COMMENT             
                                                            COMMENT             
                                                            COMMENT             
                                                            COMMENT             
     4    C1    L1    D1    S1                              # / TYPES OF OBSERV 
     0.100                                                  INTERVAL            
  2016    04    02    12    51     6.8000000    GPS         TIME OF FIRST OBS   
  2016    04    02    12    53    23.5000000    GPS         TIME OF LAST OBS    
Leap Seconds Unknown                                        COMMENT             
                                                            END OF HEADER       
 16 04 02 12 51  6.8000000  0  1G29                                             
  22418456.35249 117809782.88359     -4175.84849        50.000  
 16 04 02 12 51  6.9000000  0  2G09G29                                          
  23731068.16449 124707603.58659     -6181.10249        50.000  
  22418535.85249 117810200.62549     -4179.22349        50.000  
 16 04 02 12 51  7.0000000  0  2G09G29                                          
  23731185.83649 124708221.98449     -6187.16049        50.000  
  22418615.43049 117810618.78149     -4183.56649        50.000  
 16 04 02 12 51  7.1000000  0  2G09G29                                          
  23731303.64149 124708841.00849     -6193.35549        50.000  
  22418695.07849 117811037.35249     -4187.53549        50.000  
 16 04 02 12 51  7.2000000  0  2G09G29                                          
  23731421.53949 124709460.55149     -6198.43049        50.000  
  22418774.78949 117811456.28149     -4191.23449        50.000  
 16 04 02 12 51  7.3000000  0  2G09G29                                          
  23731539.53149 124710080.61749     -6203.59049        50.000  
  22418854.57049 117811875.54749     -4194.52049        50.000  
 16 04 02 12 51  7.4000000  0  2G09G29                                          
  23731657.62549 124710701.21549     -6208.87549        50.000  
  22418934.42249 117812295.16849     -4197.83249        50.000  
 16 04 02 12 51  7.5000000  0  2G09G29                                          
  23731775.81249 124711322.29349     -6213.84049        50.000  
  22419014.32849 117812715.11349     -4201.19149        50.000  
 16 04 02 12 51  7.6000000  0  2G09G29                                          
  23731894.10949 124711943.97349     -6219.82449        50.000  
  22419094.31249 117813135.44949     -4205.19949        50.000  
 16 04 02 12 51  7.7000000  0  2G09G29                                          
  23732012.51649 124712566.20749     -6225.28549        50.000  
  22419174.36749 117813556.15649     -4208.80549        50.000  
 16 04 02 12 51  7.8000000  0  2G09G29                                          
  23732131.02349 124713188.94949     -6230.56249        50.000  
  22419254.48449 117813977.19549     -4212.41049        50.000  
 16 04 02 12 51  7.9000000  0  2G09G29                                          
  23732249.64149 124713812.26649     -6236.15249        50.000  
  22419334.68849 117814398.63749     -4216.25049        50.000  
 16 04 02 12 51  8.0000000  0  2G09G29                                          
  23732368.35249 124714436.09049     -6241.49649        50.000  
  22419414.94549 117814820.41449     -4219.71549        50.000  
 16 04 02 12 51  8.1000000  0  2G09G29                                          
  23732487.17249 124715060.51649     -6247.16449        50.000  
  22419495.28149 117815242.59049     -4223.59849        50.000  
 16 04 02 12 51  8.2000000  0  2G09G29                                          
  23732606.08649 124715685.42249     -6252.25449        50.000  
  22419575.68849 117815665.08649     -4226.86349        50.000  
 16 04 02 12 51  8.3000000  0  2G09G29                                          
  23732725.12549 124716310.97749     -6258.54349        50.000  
  22419656.17249 117816088.03149     -4231.35549        50.000  
 16 04 02 12 51  8.4000000  0  2G09G29                                          
  23732844.25849 124716937.00849     -6263.21549        50.000  
  22419736.71149 117816511.28149     -4234.16849        50.000  
 16 04 02 12 51  8.5000000  0  2G09G29                                          
  23732963.50049 124717563.59449     -6268.96949        50.000  
  22419817.32049 117816934.91449     -4238.22749        50.000  
 16 04 02 12 51  8.6000000  0  2G09G29                                          
  23733082.84449 124718190.76649     -6274.94149        50.000  
  22419898.00849 117817358.94949     -4242.41849        50.000  
 16 04 02 12 51  8.7000000  0  2G09G29                                          
  23733202.29749 124718818.52749     -6280.56249        50.000  
  22419978.77349 117817783.39149     -4246.35249        50.000  
 16 04 02 12 51  8.8000000  0  2G09G29                                          
  23733321.85949 124719446.79749     -6285.83249        50.000  
  22420059.60249 117818208.15249     -4249.50449        50.000  
 16 04 02 12 51  8.9000000  0  2G09G29                                          
  23733441.51649 124720075.62549     -6291.19949        50.000  
  22420140.50849 117818633.30549     -4253.20749        50.000  
 16 04 02 12 51  9.0000000  0  2G09G29                                          
  23733561.27349 124720704.94149     -6296.19949        50.000  
  22420221.46949 117819058.75449     -4256.27749        50.000  
 16 04 02 12 51  9.1000000  0  2G09G29                                          
  23733681.14849 124721334.81249     -6301.63349        50.000  
  22420302.50049 117819484.58649     -4260.07849        50.000  
 16 04 02 12 51  9.2000000  0  2G09G29                                          
  23733801.11749 124721965.24649     -6307.48849        50.000  
  22420383.60249 117819910.80549     -4264.09049        50.000  
 16 04 02 12 51  9.3000000  0  2G09G29                                          
  23733921.20349 124722596.25849     -6313.12949        50.000  
  22420464.78149 117820337.40649     -4267.92649        50.000  
 16 04 02 12 51  9.4000000  0  2G09G29                                          
  23734041.37549 124723227.79349     -6318.52049        50.000  
  22420546.03149 117820764.35949     -4271.48849        50.000  
 16 04 02 12 51  9.5000000  0  2G09G29                                          
  23734161.66449 124723859.96149     -6324.64549        50.000  
  22420627.36749 117821191.75849     -4275.77749        50.000  
 16 04 02 12 51  9.6000000  0  2G09G29                                          
  23734282.04749 124724492.57849     -6329.18049        50.000  
  22420708.75049 117821619.44149     -4278.71149        50.000  
 16 04 02 12 51  9.7000000  0  2G09G29                                          
  23734402.54749 124725125.80549     -6335.42249        50.000  
  22420790.21149 117822047.54349     -4283.00049        50.000  
 16 04 02 12 51  9.8000000  0  2G09G29                                          
  23734523.14849 124725759.58249     -6340.77049        50.000  
  22420871.75049 117822476.02349     -4286.62949        50.000  
 16 04 02 12 51  9.9000000  0  2G09G29                                          
  23734643.85949 124726393.87949     -6345.90649        50.000  
  22420953.35249 117822904.83249     -4289.83249        50.000  
 16 04 02 12 51 10.0000000  0  2G09G29                                          
  23734764.65649 124727028.69149     -6351.24649        50.000  
  22421035.00849 117823333.97749     -4293.37149        50.000  
 16 04 02 12 51 10.1000000  0  2G09G29                                          
  23734885.57049 124727664.04749     -6356.30149        50.000  
  22421116.74249 117823763.50049     -4296.80949        50.000  
 16 04 02 12 51 10.2000000  0  2G09G29                                          
  23735006.57049 124728299.91049     -6361.75849        50.000  
  22421198.53949 117824193.34049     -4300.31249        50.000  
 16 04 02 12 51 10.3000000  0  2G09G29                                          
  23735127.68049 124728936.36349     -6367.46949        50.000  
  22421280.41449 117824623.59849     -4304.37949        50.000  
 16 04 02 12 51 10.4000000  0  2G09G29                                          
  23735248.89849 124729573.37949     -6373.15249        50.000  
  22421362.36749 117825054.22749     -4308.17649        50.000  
 16 04 02 12 51 10.5000000  0  2G09G29                                          
  23735370.22749 124730210.94149     -6378.82449        50.000  
  22421444.38349 117825485.22749     -4312.07449        50.000  
 16 04 02 12 51 10.6000000  0  2G09G29                                          
  23735491.64849 124730849.03549     -6383.85249        50.000  
  22421526.46149 117825916.57449     -4315.32049        50.000  
 16 04 02 12 51 10.7000000  0  2G09G29                                          
  23735613.18849 124731487.68049     -6389.53549        50.000  
  22421608.61749 117826348.29749     -4319.14549        50.000  
 16 04 02 12 51 10.8000000  0  2G09G29                                          
  23735734.82049 124732126.86749     -6394.70749        50.000  
  22421690.85249 117826780.37949     -4322.55949        50.000  
 16 04 02 12 51 10.9000000  0  2G09G29                                          
  23735856.55549 124732766.59849     -6400.39549        50.000  
  22421773.14149 117827212.81249     -4326.21549        50.000  
 16 04 02 12 51 11.0000000  0  2G09G29                                          
  23735978.39149 124733406.85949     -6405.60549        50.000  
  22421855.50049 117827645.63349     -4329.85249        50.000  
 16 04 02 12 51 11.1000000  0  2G09G29                                          
  23736100.33649 124734047.68849     -6411.02349        50.000  
  22421937.93049 117828078.80149     -4333.40649        50.000  
 16 04 02 12 51 11.2000000  0  2G09G29                                          
  23736222.38349 124734689.03149     -6416.63749        50.000  
  22422020.43049 117828512.33249     -4337.19149        50.000  
 16 04 02 12 51 11.3000000  0  2G09G29                                          
  23736344.53149 124735330.93849     -6421.87949        50.000  
  22422103.00049 117828946.23449     -4340.67649        50.000  
 16 04 02 12 51 11.4000000  0  2G09G29                                          
  23736466.78149 124735973.34449     -6427.12549        50.000  
  22422185.62549 117829380.46549     -4344.21949        50.000  
 16 04 02 12 51 11.5000000  0  2G09G29                                          
  23736589.14149 124736616.36349     -6432.92249        50.000  
  22422268.33649 117829815.11349     -4348.16049        50.000  
 16 04 02 12 51 11.6000000  0  2G09G29                                          
  23736711.60249 124737259.89149     -6438.36349        50.000  
  22422351.11749 117830250.09449     -4351.77749        50.000  
 16 04 02 12 51 11.7000000  0  2G09G29                                          
  23736834.17249 124737903.99249     -6444.22349        50.000  
  22422433.96949 117830685.49249     -4355.93449        50.000  
 16 04 02 12 51 11.8000000  0  2G09G29                                          
  23736956.85249 124738548.66049     -6449.65249        50.000  
  22422516.89149 117831121.23849     -4359.46949        50.000  
 16 04 02 12 51 11.9000000  0  2G09G29                                          
  23737079.62549 124739193.85249     -6455.10949        50.000  
  22422599.88349 117831557.35949     -4363.13349        50.000  
 16 04 02 12 51 12.0000000  0  2G09G29                                          
  23737202.50849 124739839.60949     -6460.34049        50.000  
  22422682.93849 117831993.85949     -4366.73049        50.000  
 16 04 02 12 51 12.1000000  0  2G09G29                                          
  23737325.50849 124740485.89149     -6465.97749        50.000  
  22422766.06249 117832430.68849     -4370.25449        50.000  
 16 04 02 12 51 12.2000000  0  2G09G29                                          
  23737448.59449 124741132.71149     -6471.26249        50.000  
  22422849.26649 117832867.89149     -4373.91049        50.000  
 16 04 02 12 51 12.3000000  0  2G09G29                                          
  23737571.76649 124741780.05549     -6476.26649        50.000  
  22422932.52349 117833305.43449     -4377.06249        50.000  
 16 04 02 12 51 12.4000000  0  2G09G29                                          
  23737695.04749 124742427.92249     -6481.55949        50.000  
  22423015.84449 117833743.31649     -4380.54749        50.000  
 16 04 02 12 51 12.5000000  0  2G09G29                                          
  23737818.43849 124743076.35949     -6487.62549        50.000  
  22423099.24249 117834181.59849     -4384.80549        50.000  
 16 04 02 12 51 12.6000000  0  2G09G29                                          
  23737941.94549 124743725.41049     -6493.37549        50.000  
  22423182.72749 117834620.30549     -4388.84849        50.000  
 16 04 02 12 51 12.7000000  0  2G09G29                                          
  23738065.54749 124744374.98049     -6499.16449        50.000  
  22423266.27349 117835059.35549     -4392.63349        50.000  
 16 04 02 12 51 12.8000000  0  2G09G29                                          
  23738189.27349 124745025.15649     -6504.52349        50.000  
  22423349.91449 117835498.84049     -4396.47349        50.000  
 16 04 02 12 51 12.9000000  0  2G09G29                                          
  23738313.08649 124745675.80149     -6509.36349        50.000  
  22423433.60249 117835938.60249     -4399.50449        50.000  
 16 04 02 12 51 13.0000000  0  2G09G29                                          
  23738437.00849 124746327.01649     -6515.07849        50.000  
  22423517.35949 117836378.75449     -4403.40649        50.000  
 16 04 02 12 51 13.1000000  0  2G09G29                                          
  23738561.02349 124746978.71949     -6520.16849        50.000  
  22423601.18049 117836819.21949     -4406.53149        50.000  
 16 04 02 12 51 13.2000000  0  2G09G29                                          
  23738685.15649 124747631.03549     -6526.20749        50.000  
  22423685.08649 117837260.11349     -4410.70749        50.000  
 16 04 02 12 51 13.3000000  0  2G09G29                                          
  23738809.39149 124748283.89849     -6531.71949        50.000  
  22423769.05549 117837701.38749     -4414.68049        50.000  
 16 04 02 12 51 13.4000000  0  2G09G29                                          
  23738933.71949 124748937.28549     -6536.90649        50.000  
  22423853.09449 117838142.99649     -4418.03149        50.000  
 16 04 02 12 51 13.5000000  0  2G09G29                                          
  23739058.18049 124749591.28149     -6543.02749        50.000  
  22423937.21149 117838585.02749     -4422.23449        50.000  
 16 04 02 12 51 13.6000000  0  2G09G29                                          
  23739182.72749 124750245.79349     -6548.21149        50.000  
  22424021.39849 117839027.40649     -4425.75849        50.000  
 16 04 02 12 51 13.7000000  0  2G09G29                                          
  23739307.37549 124750900.79749     -6553.07449        50.000  
  22424105.64149 117839470.09049     -4428.71949        50.000  
 16 04 02 12 51 13.8000000  0  2G09G29                                          
  23739432.13349 124751556.38349     -6558.91849        50.000  
  22424189.95349 117839913.17649     -4432.71949        50.000  
 16 04 02 12 51 13.9000000  0  2G09G29                                          
  23739556.99249 124752212.52749     -6564.58249        50.000  
  22424274.34449 117840356.64849     -4436.71549        50.000  
 16 04 02 12 51 14.0000000  0  2G09G29                                          
  23739681.96149 124752869.23049     -6569.91049        50.000  
  22424358.80549 117840800.49249     -4440.19949        50.000  
 16 04 02 12 51 14.1000000  0  2G09G29                                          
  23739807.01649 124753526.41449     -6575.11749        50.000  
  22424443.32049 117841244.64549     -4443.50049        50.000  
 16 04 02 12 51 14.2000000  0  2G09G29                                          
  23739932.18049 124754184.18449     -6580.62549        50.000  
  22424527.90649 117841689.19549     -4447.19149        50.000  
 16 04 02 12 51 14.3000000  0  2G09G29                                          
  23740057.45349 124754842.48849     -6586.00049        50.000  
  22424612.57049 117842134.10249     -4450.91449        50.000  
 16 04 02 12 51 14.4000000  0  2G09G29                                          
  23740182.82049 124755501.30549     -6591.17649        50.000  
  22424697.29749 117842579.35249     -4454.25449        50.000  
 16 04 02 12 51 14.5000000  0  2G09G29                                          
  23740308.29749 124756160.69549     -6596.94949        50.000  
  22424782.10249 117843024.98849     -4458.26249        50.000  
 16 04 02 12 51 14.6000000  0  2G09G29                                          
  23740433.87549 124756820.64849     -6602.61749        50.000  
  22424866.97749 117843471.00849     -4462.11749        50.000  
 16 04 02 12 51 14.7000000  0  2G09G29                                          
  23740559.57049 124757481.14549     -6607.88349        50.000  
  22424951.92249 117843917.39149     -4465.68849        50.000  
 16 04 02 12 51 14.8000000  0  2G09G29                                          
  23740685.35949 124758142.15249     -6613.07049        50.000  
  22425036.92249 117844364.10249     -4468.86749        50.000  
 16 04 02 12 51 14.9000000  0  2G09G29                                          
  23740811.23449 124758803.65649     -6618.01249        50.000  
  22425121.99249 117844811.14849     -4472.17249        50.000  
 16 04 02 12 51 15.0000000  0  2G09G29                                          
  23740937.23449 124759465.78149     -6624.32849        50.000  
  22425207.14849 117845258.61349     -4476.58249        50.000  
 16 04 02 12 51 15.1000000  0  2G09G29                                          
  23741063.33649 124760128.43849     -6629.55949        50.000  
  22425292.36749 117845706.44949     -4480.21149        50.000  
 16 04 02 12 51 15.2000000  0  2G09G29                                          
  23741189.54749 124760791.67649     -6635.49649        50.000  
  22425377.66449 117846154.66849     -4484.16449        50.000  
 16 04 02 12 51 15.3000000  0  2G09G29                                          
  23741315.84449 124761455.39549     -6640.29349        50.000  
  22425463.01649 117846603.21149     -4487.23849        50.000  
 16 04 02 12 51 15.4000000  0  2G09G29                                          
  23741442.25049 124762119.66449     -6645.52749        50.000  
  22425548.43849 117847052.10549     -4490.71549        50.000  
 16 04 02 12 51 15.5000000  0  2G09G29                                          
  23741568.75049 124762784.47749     -6651.05949        50.000  
  22425633.93049 117847501.37149     -4494.39149        50.000  
 16 04 02 12 51 15.6000000  0  2G09G29                                          
  23741695.36749 124763449.85949     -6656.91849        50.000  
  22425719.49249 117847951.02349     -4498.46949        50.000  
 16 04 02 12 51 15.7000000  0  2G09G29                                          
  23741822.10249 124764115.78949     -6662.38749        50.000  
  22425805.12549 117848401.04349     -4502.09049        50.000  
 16 04 02 12 51 15.8000000  0  2G09G29                                          
  23741948.93049 124764782.28949     -6668.11349        50.000  
  22425890.84449 117848851.46949     -4506.14849        50.000  
 16 04 02 12 51 15.9000000  0  2G09G29                                          
  23742075.87549 124765449.34849     -6673.39549        50.000  
  22425976.62549 117849302.25849     -4509.71949        50.000  
 16 04 02 12 51 16.0000000  0  2G09G29                                          
  23742202.90649 124766116.93449     -6679.10949        50.000  
  22426062.47749 117849753.39849     -4513.44949        50.000  
 16 04 02 12 51 16.1000000  0  2G09G29                                          
  23742330.03949 124766785.02349     -6683.71549        50.000  
  22426148.38349 117850204.86749     -4516.34049        50.000  
 16 04 02 12 51 16.2000000  0  2G09G29                                          
  23742457.27349 124767453.66049     -6689.28949        50.000  
  22426234.35949 117850656.69549     -4520.11349        50.000  
 16 04 02 12 51 16.3000000  0  2G09G29                                          
  23742584.61749 124768122.82049     -6694.47749        50.000  
  22426320.40649 117851108.87549     -4523.64849        50.000  
 16 04 02 12 51 16.4000000  0  2G09G29                                          
  23742712.05549 124768792.51249     -6699.96949        50.000  
  22426406.52349 117851561.40649     -4527.20749        50.000  
 16 04 02 12 51 16.5000000  0  2G09G29                                          
  23742839.60949 124769462.79349     -6705.68449        50.000  
  22426492.71949 117852014.33649     -4531.09849        50.000  
 16 04 02 12 51 16.6000000  0  2G09G29                                          
  23742967.25049 124770133.57049     -6710.82849        50.000  
  22426578.96949 117852467.60249     -4534.52349        50.000  
 16 04 02 12 51 16.7000000  0  2G09G29                                          
  23743095.00849 124770804.91849     -6716.53549        50.000  
  22426665.29749 117852921.25449     -4538.41049        50.000  
 16 04 02 12 51 16.8000000  0  2G09G29                                          
  23743222.86749 124771476.82049     -6722.02749        50.000  
  22426751.69549 117853375.27349     -4542.01649        50.000  
 16 04 02 12 51 16.9000000  0  2G09G29                                          
  23743350.82049 124772149.22749     -6727.02749        50.000  
  22426838.15649 117853829.63349     -4545.48049        50.000  
 16 04 02 12 51 17.0000000  0  2G09G29                                          
  23743478.88349 124772822.19949     -6732.64549        50.000  
  22426924.68849 117854284.35949     -4549.07049        50.000  
 16 04 02 12 51 17.1000000  0  2G09G29                                          
  23743607.06249 124773495.71549     -6738.04749        50.000  
  22427011.28949 117854739.46549     -4552.83249        50.000  
 16 04 02 12 51 17.2000000  0  2G09G29                                          
  23743735.32849 124774169.77049     -6743.71549        50.000  
  22427097.95349 117855194.91049     -4556.37949        50.000  
 16 04 02 12 51 17.3000000  0  2G09G29                                          
  23743863.68849 124774844.29749     -6748.14849        50.000  
  22427184.68849 117855650.67649     -4559.34449        50.000  
 16 04 02 12 51 17.4000000  0  2G09G29                                          
  23743992.16449 124775519.42249     -6754.22749        50.000  
  22427271.48449 117856106.84849     -4563.51249        50.000  
 16 04 02 12 51 17.5000000  0  2G09G29                                          
  23744120.72749 124776195.08649     -6759.52349        50.000  
  22427358.35949 117856563.37149     -4567.11749        50.000  
 16 04 02 12 51 17.6000000  0  2G09G29                                          
  23744249.40649 124776871.27349     -6764.96149        50.000  
  22427445.30549 117857020.25049     -4570.66049        50.000  
 16 04 02 12 51 17.7000000  0  2G09G29                                          
  23744378.19549 124777548.05149     -6770.80949        50.000  
  22427532.32049 117857477.54349     -4574.71549        50.000  
 16 04 02 12 51 17.8000000  0  2G09G29                                          
  23744507.07849 124778225.34049     -6775.94949        50.000  
  22427619.39849 117857935.16049     -4578.10249        50.000  
 16 04 02 12 51 17.9000000  0  2G09G29                                          
  23744636.07049 124778903.21149     -6781.78549        50.000  
  22427706.56249 117858393.17649     -4582.16849        50.000  
 16 04 02 12 51 18.0000000  0  2G09G29                                          
  23744765.17249 124779581.63749     -6787.19949        50.000  
  22427793.78949 117858851.58249     -4585.83649        50.000  
 16 04 02 12 51 18.1000000  0  2G09G29                                          
  23744894.35949 124780260.57049     -6792.44549        50.000  
  22427881.07849 117859310.30149     -4589.10549        50.000  
 16 04 02 12 51 18.2000000  0  2G09G29                                          
  23745023.66449 124780940.06249     -6797.94949        50.000  
  22427968.44549 117859769.41849     -4593.08649        50.000  
 16 04 02 12 51 18.3000000  0  2G09G29                                          
  23745153.07049 124781620.10949     -6803.34849        50.000  
  22428055.88349 117860228.89149     -4596.46149        50.000  
 16 04 02 12 51 18.4000000  0  2G09G29                                          
  23745282.57049 124782300.66849     -6808.50449        50.000  
  22428143.38349 117860688.69549     -4599.88349        50.000  
 16 04 02 12 51 18.5000000  0  2G09G29                                          
  23745412.19549 124782981.81649     -6814.87549        50.000  
  22428230.96149 117861148.93449     -4604.54349        50.000  
 16 04 02 12 51 18.6000000  0  2G09G29                                          
  23745541.92249 124783663.52349     -6820.02749        50.000  
  22428318.62549 117861609.54349     -4608.07849        50.000  
 16 04 02 12 51 18.7000000  0  2G09G29                                          
  23745671.73449 124784345.73849     -6825.06249        50.000  
  22428406.33649 117862070.46949     -4611.19149        50.000  
 16 04 02 12 51 18.8000000  0  2G09G29                                          
  23745801.64849 124785028.44149     -6829.89149        50.000  
  22428494.10249 117862531.71949     -4614.23449        50.000  
 16 04 02 12 51 18.9000000  0  2G09G29                                          
  23745931.67249 124785711.69549     -6835.58249        50.000  
  22428581.94549 117862993.32049     -4617.89149        50.000  
 16 04 02 12 51 19.0000000  0  2G09G29                                          
  23746061.79749 124786395.53149     -6841.61349        50.000  
  22428669.85949 117863455.35249     -4622.30549        50.000  
 16 04 02 12 51 19.1000000  0  2G09G29                                          
  23746192.03149 124787079.91449     -6846.75449        50.000  
  22428757.84449 117863917.72749     -4625.59449        50.000  
 16 04 02 12 51 19.2000000  0  2G09G29                                          
  23746322.36749 124787764.81649     -6852.18449        50.000  
  22428845.91449 117864380.46149     -4629.33649        50.000  
 16 04 02 12 51 19.3000000  0  2G09G29                                          
  23746452.80549 124788450.28549     -6857.69149        50.000  
  22428934.03949 117864843.56649     -4632.90249        50.000  
 16 04 02 12 51 19.4000000  0  2G09G29                                          
  23746583.34449 124789136.27049     -6862.65249        50.000  
  22429022.24249 117865307.02049     -4636.19149        50.000  
 16 04 02 12 51 19.5000000  0  2G09G29                                          
  23746713.99249 124789822.81249     -6868.53949        50.000  
  22429110.50849 117865770.86349     -4640.28949        50.000  
 16 04 02 12 51 19.6000000  0  2G09G29                                          
  23746844.73449 124790509.88749     -6873.58649        50.000  
  22429198.84449 117866235.04349     -4643.60249        50.000  
 16 04 02 12 51 19.7000000  0  2G09G29                                          
  23746975.58649 124791197.50449     -6879.18449        50.000  
  22429287.24249 117866699.59449     -4647.45749        50.000  
 16 04 02 12 51 19.8000000  0  2G09G29                                          
  23747106.52349 124791885.58649     -6883.90249        50.000  
  22429375.69549 117867164.42649     -4650.26649        50.000  
 16 04 02 12 51 19.9000000  0  2G09G29                                          
  23747237.57049 124792574.22349     -6889.23449        50.000  
  22429464.22749 117867629.63349     -4653.73849        50.000  
 16 04 02 12 51 20.0000000  0  2G09G29                                          
  23747368.71949 124793263.41449     -6894.94149        50.000  
  22429552.82049 117868095.21149     -4657.61749        50.000  
 16 04 02 12 51 20.1000000  0  2G09G29                                          
  23747499.97749 124793953.16449     -6900.62149        50.000  
  22429641.49249 117868561.18849     -4661.69949        50.000  
 16 04 02 12 51 20.2000000  0  2G09G29                                          
  23747631.33649 124794643.47749     -6906.03949        50.000  
  22429730.24249 117869027.52749     -4665.29749        50.000  
 16 04 02 12 51 20.3000000  0  2G09G29                                          
  23747762.79749 124795334.34049     -6911.83649        50.000  
  22429819.05549 117869494.25449     -4669.27349        50.000  
 16 04 02 12 51 20.4000000  0  2G09G29                                          
  23747894.37549 124796025.77749     -6917.54749        50.000  
  22429907.93049 117869961.36749     -4673.12949        50.000  
 16 04 02 12 51 20.5000000  0  2G09G29                                          
  23748026.06249 124796717.75449     -6922.63349        50.000  
  22429996.88349 117870428.84449     -4676.50849        50.000  
 16 04 02 12 51 20.6000000  0  2G09G29                                          
  23748157.83649 124797410.25049     -6928.09049        50.000  
  22430085.91449 117870896.66449     -4680.09049        50.000  
 16 04 02 12 51 20.7000000  0  2G09G29                                          
  23748289.72749 124798103.34049     -6933.83649        50.000  
  22430175.01649 117871364.89849     -4684.15249        50.000  
 16 04 02 12 51 20.8000000  0  2G09G29                                          
  23748421.71149 124798796.93449     -6938.93449        50.000  
  22430264.17249 117871833.45349     -4687.37949        50.000  
 16 04 02 12 51 20.9000000  0  2G09G29                                          
  23748553.79749 124799491.04349     -6943.94949        50.000  
  22430353.39849 117872302.34849     -4690.73449        50.000  
 16 04 02 12 51 21.0000000  0  2G09G29                                          
  23748685.98449 124800185.68849     -6949.20349        50.000  
  22430442.68849 117872771.60249     -4694.20749        50.000  
 16 04 02 12 51 21.1000000  0  2G09G29                                          
  23748818.25849 124800880.81649     -6954.10249        50.000  
  22430532.04749 117873241.15249     -4697.26649        50.000  
 16 04 02 12 51 21.2000000  0  2G09G29                                          
  23748950.64149 124801576.47749     -6959.56249        50.000  
  22430621.46949 117873711.07049     -4700.92249        50.000  
 16 04 02 12 51 21.3000000  0  2G09G29                                          
  23749083.12549 124802272.71549     -6965.42249        50.000  
  22430710.96949 117874181.37949     -4705.02049        50.000  
 16 04 02 12 51 21.4000000  0  2G09G29                                          
  23749215.72749 124802969.52049     -6971.06649        50.000  
  22430800.54749 117874652.07849     -4708.90249        50.000  
 16 04 02 12 51 21.5000000  0  2G09G29                                          
  23749348.42249 124803666.82849     -6976.16449        50.000  
  22430890.18049 117875123.09449     -4712.09849        50.000  
 16 04 02 12 51 21.6000000  0  2G09G29                                          
  23749481.21949 124804364.69549     -6981.60949        50.000  
  22430979.89149 117875594.50449     -4715.85949        50.000  
 16 04 02 12 51 21.7000000  0  2G09G29                                          
  23749614.13349 124805063.12949     -6987.45749        50.000  
  22431069.67249 117876066.28149     -4719.81249        50.000  
 16 04 02 12 51 21.8000000  0  2G09G29                                          
  23749747.15649 124805762.16049     -6993.30549        50.000  
  22431159.53149 117876538.50049     -4724.07849        50.000  
 16 04 02 12 51 21.9000000  0  2G09G29                                          
  23749880.26649 124806461.63749     -6997.83249        50.000  
  22431249.43849 117877010.96949     -4726.61349        50.000  
 16 04 02 12 51 22.0000000  0  2G09G29                                          
  23750013.48449 124807161.71949     -7003.75849        50.000  
  22431339.43049 117877483.87949     -4730.85949        50.000  
 16 04 02 12 51 22.1000000  0  2G09G29                                          
  23750146.82049 124807862.35249     -7009.29749        50.000  
  22431429.49249 117877957.15649     -4734.63749        50.000  
 16 04 02 12 51 22.2000000  0  2G09G29                                          
  23750280.23449 124808563.43849     -7013.91849        50.000  
  22431519.60249 117878430.70749     -4737.43049        50.000  
 16 04 02 12 51 22.3000000  0  2G09G29                                          
  23750413.75049 124809265.09849     -7019.43849        50.000  
  22431609.78949 117878904.64549     -4741.15249        50.000  
 16 04 02 12 51 22.4000000  0  2G09G29                                          
  23750547.37549 124809967.31249     -7025.32449        50.000  
  22431700.06249 117879378.97349     -4745.27749        50.000  
 16 04 02 12 51 22.5000000  0  2G09G29                                          
  23750681.10249 124810670.03949     -7030.22749        50.000  
  22431790.38349 117879853.62549     -4748.33249        50.000  
 16 04 02 12 51 22.6000000  0  2G09G29                                          
  23750814.94549 124811373.36749     -7036.31649        50.000  
  22431880.78949 117880328.71149     -4752.79349        50.000  
 16 04 02 12 51 22.7000000  0  2G09G29                                          
  23750948.87549 124812077.21549     -7041.61749        50.000  
  22431971.25849 117880804.12149     -4756.18449        50.000  
 16 04 02 12 51 22.8000000  0  2G09G29                                          
  23751082.92249 124812781.65249     -7047.40649        50.000  
  22432061.80549 117881279.94949     -4760.11749        50.000  
 16 04 02 12 51 22.9000000  0  2G09G29                                          
  23751217.07849 124813486.62949     -7052.94149        50.000  
  22432152.42249 117881756.15249     -4763.96949        50.000  
 16 04 02 12 51 23.0000000  0  2G09G29                                          
  23751351.32849 124814192.11749     -7057.75849        50.000  
  22432243.10249 117882232.67649     -4767.02049        50.000  
 16 04 02 12 51 23.1000000  0  2G09G29                                          
  23751485.67249 124814898.07449     -7062.39149        50.000  
  22432333.83649 117882709.48049     -4769.69949        50.000  
 16 04 02 12 51 23.2000000  0  2G09G29                                          
  23751620.11749 124815604.59849     -7068.18049        50.000  
  22432424.64849 117883186.69149     -4773.84449        50.000  
 16 04 02 12 51 23.3000000  0  2G09G29                                          
  23751754.66449 124816311.64849     -7073.50849        50.000  
  22432515.52349 117883664.24649     -4777.29749        50.000  
 16 04 02 12 51 23.4000000  0  2G09G29                                          
  23751889.32849 124817019.30949     -7079.90249        50.000  
  22432606.48449 117884142.22749     -4781.83649        50.000  
 16 04 02 12 51 23.5000000  0  2G09G29                                          
  23752024.10249 124817727.52049     -7085.27049        50.000  
  22432697.51649 117884620.58249     -4785.54349        50.000  
 16 04 02 12 51 23.6000000  0  2G09G29                                          
  23752158.96949 124818436.25849     -7090.34849        50.000  
  22432788.60249 117885099.29349     -4788.96949        50.000  
 16 04 02 12 51 23.7000000  0  2G09G29                                          
  23752293.94549 124819145.54749     -7095.93849        50.000  
  22432879.76649 117885578.36749     -4792.65649        50.000  
 16 04 02 12 51 23.8000000  0  2G09G29                                          
  23752429.01649 124819855.33249     -7100.54749        50.000  
  22432970.98449 117886057.75449     -4795.49649        50.000  
 16 04 02 12 51 23.9000000  0  2G09G29                                          
  23752564.18049 124820565.62949     -7105.86349        50.000  
  22433062.28149 117886537.49249     -4799.10549        50.000  
 16 04 02 12 51 24.0000000  0  2G09G29                                          
  23752699.45349 124821276.49649     -7111.68849        50.000  
  22433153.64149 117887017.61349     -4803.08249        50.000  
 16 04 02 12 51 24.1000000  0  2G09G29                                          
  23752834.82049 124821987.88349     -7116.83649        50.000  
  22433245.07049 117887498.07049     -4806.41849        50.000  
 16 04 02 12 51 24.2000000  0  2G09G29                                          
  23752970.29749 124822699.79349     -7122.23449        50.000  
  22433336.56249 117887978.87949     -4809.96949        50.000  
 16 04 02 12 51 24.3000000  0  2G09G29                                          
  23753105.88349 124823412.31649     -7128.09049        50.000  
  22433428.14149 117888460.12549     -4814.19149        50.000  
 16 04 02 12 51 24.4000000  0  2G09G29                                          
  23753241.57849 124824125.39849     -7133.92249        50.000  
  22433519.79749 117888941.74249     -4818.16049        50.000  
 16 04 02 12 51 24.5000000  0  2G09G29                                          
  23753377.36749 124824838.96149     -7138.69949        50.000  
  22433611.50049 117889423.67249     -4821.20749        50.000  
 16 04 02 12 51 24.6000000  0  2G09G29                                          
  23753513.25849 124825553.07849     -7144.29349        50.000  
  22433703.27349 117889905.96549     -4824.82449        50.000  
 16 04 02 12 51 24.7000000  0  2G09G29                                          
  23753649.25849 124826267.71149     -7149.24249        50.000  
  22433795.12549 117890388.61749     -4828.19549        50.000  
 16 04 02 12 51 24.8000000  0  2G09G29                                          
  23753785.34449 124826982.85949     -7154.50049        50.000  
  22433887.02349 117890871.59049     -4831.60249        50.000  
 16 04 02 12 51 24.9000000  0  2G09G29                                          
  23753921.53949 124827698.58649     -7160.13749        50.000  
  22433979.00849 117891354.96149     -4835.37549        50.000  
 16 04 02 12 51 25.0000000  0  2G09G29                                          
  23754057.84449 124828414.84049     -7165.56249        50.000  
  22434071.04749 117891838.69149     -4839.14849        50.000  
 16 04 02 12 51 25.1000000  0  2G09G29                                          
  23754194.25049 124829131.67649     -7171.43449        50.000  
  22434163.17249 117892322.81649     -4843.14149        50.000  
 16 04 02 12 51 25.2000000  0  2G09G29                                          
  23754330.76649 124829849.03149     -7176.54749        50.000  
  22434255.37549 117892807.29749     -4846.63349        50.000  
 16 04 02 12 51 25.3000000  0  2G09G29                                          
  23754467.37549 124830566.91849     -7181.91049        50.000  
  22434347.63349 117893292.11349     -4849.97349        50.000  
 16 04 02 12 51 25.4000000  0  2G09G29                                          
  23754604.09449 124831285.38749     -7187.77349        50.000  
  22434439.96949 117893777.34849     -4854.24649        50.000  
 16 04 02 12 51 25.5000000  0  2G09G29                                          
  23754740.90649 124832004.35549     -7192.68449        50.000  
  22434532.36749 117894262.89849     -4857.34049        50.000  
 16 04 02 12 51 25.6000000  0  2G09G29                                          
  23754877.82849 124832723.87149     -7197.99249        50.000  
  22434624.83649 117894748.82449     -4861.00449        50.000  
 16 04 02 12 51 25.7000000  0  2G09G29                                          
  23755014.85249 124833443.93049     -7203.35549        50.000  
  22434717.36749 117895235.09849     -4864.48849        50.000  
 16 04 02 12 51 25.8000000  0  2G09G29                                          
  23755151.96149 124834164.45349     -7207.91049        50.000  
  22434809.96149 117895721.67249     -4867.30149        50.000  
 16 04 02 12 51 25.9000000  0  2G09G29                                          
  23755289.18049 124834885.52349     -7213.78549        50.000  
  22434902.62549 117896208.61749     -4871.29349        50.000  
 16 04 02 12 51 26.0000000  0  2G09G29                                          
  23755426.50849 124835607.20349     -7219.74249        50.000  
  22434995.35949 117896695.98049     -4875.53949        50.000  
 16 04 02 12 51 26.1000000  0  2G09G29                                          
  23755563.93849 124836329.35549     -7224.53149        50.000  
  22435088.16449 117897183.65649     -4878.63349        50.000  
 16 04 02 12 51 26.2000000  0  2G09G29                                          
  23755701.46949 124837052.12149     -7230.82849        50.000  
  22435181.04749 117897671.75449     -4883.01649        50.000  
 16 04 02 12 51 26.3000000  0  2G09G29                                          
  23755839.10949 124837775.42249     -7235.93049        50.000  
  22435274.00049 117898160.20349     -4886.27349        50.000  
 16 04 02 12 51 26.4000000  0  2G09G29                                          
  23755976.85249 124838499.27049     -7241.50449        50.000  
  22435367.02349 117898649.03549     -4890.16449        50.000  
 16 04 02 12 51 26.5000000  0  2G09G29                                          
  23756114.69549 124839223.66049     -7246.98049        50.000  
  22435460.10949 117899138.23449     -4893.90649        50.000  
 16 04 02 12 51 26.6000000  0  2G09G29                                          
  23756252.64849 124839948.60949     -7252.35549        50.000  
  22435553.27349 117899627.80549     -4897.53549        50.000  
 16 04 02 12 51 26.7000000  0  2G09G29                                          
  23756390.68849 124840674.03949     -7257.17649        50.000  
  22435646.50049 117900117.68049     -4900.44549        50.000  
 16 04 02 12 51 26.8000000  0  2G09G29                                          
  23756528.83649 124841400.02349     -7262.85249        50.000  
  22435739.79749 117900607.93849     -4904.41449        50.000  
 16 04 02 12 51 26.9000000  0  2G09G29                                          
  23756667.10949 124842126.61349     -7268.73449        50.000  
  22435833.17249 117901098.62149     -4908.59449        50.000  
 16 04 02 12 51 27.0000000  0  2G09G29                                          
  23756805.46949 124842853.69949     -7273.98849        50.000  
  22435926.60249 117901589.61749     -4911.96949        50.000  
 16 04 02 12 51 27.1000000  0  2G09G29                                          
  23756943.93849 124843581.34049     -7279.36749        50.000  
  22436020.10949 117902080.99649     -4915.66849        50.000  
 16 04 02 12 51 27.2000000  0  2G09G29                                          
  23757082.49249 124844309.47749     -7284.48449        50.000  
  22436113.68049 117902572.69149     -4918.87149        50.000  
 16 04 02 12 51 27.3000000  0  2G09G29                                          
  23757221.16449 124845038.18849     -7290.12549        50.000  
  22436207.32049 117903064.78549     -4922.80949        50.000  
 16 04 02 12 51 27.4000000  0  2G09G29                                          
  23757359.94549 124845767.48449     -7295.91849        50.000  
  22436301.04749 117903557.27749     -4926.77049        50.000  
 16 04 02 12 51 27.5000000  0  2G09G29                                          
  23757498.82049 124846497.28949     -7301.10949        50.000  
  22436394.82849 117904050.10249     -4930.15249        50.000  
 16 04 02 12 51 27.6000000  0  2G09G29                                          
  23757637.80549 124847227.65249     -7306.57449        50.000  
  22436488.68849 117904543.32049     -4934.03949        50.000  
 16 04 02 12 51 27.7000000  0  2G09G29                                          
  23757776.88349 124847958.53549     -7311.98449        50.000  
  22436582.60949 117905036.87949     -4937.47749        50.000  
 16 04 02 12 51 27.8000000  0  2G09G29                                          
  23757916.07049 124848689.97749     -7317.19949        50.000  
  22436676.59449 117905530.79349     -4940.84049        50.000  
 16 04 02 12 51 27.9000000  0  2G09G29                                          
  23758055.34449 124849421.88349     -7322.07049        50.000  
  22436770.64849 117906025.02349     -4943.99249        50.000  
 16 04 02 12 51 28.0000000  0  2G09G29                                          
  23758194.75049 124850154.43049     -7328.30149        50.000  
  22436864.77349 117906519.70749     -4948.53949        50.000  
 16 04 02 12 51 28.1000000  0  2G09G29                                          
  23758334.22749 124850887.41849     -7332.78949        50.000  
  22436958.96149 117907014.64849     -4951.37149        50.000  
 16 04 02 12 51 28.2000000  0  2G09G29                                          
  23758473.81249 124851620.92249     -7337.95349        50.000  
  22437053.21149 117907509.93449     -4954.53549        50.000  
 16 04 02 12 51 28.3000000  0  2G09G29                                          
  23758613.49249 124852354.98849     -7343.76649        50.000  
  22437147.53949 117908005.61349     -4958.64549        50.000  
 16 04 02 12 51 28.4000000  0  2G09G29                                          
  23758753.29749 124853089.64549     -7349.51649        50.000  
  22437241.93849 117908501.68449     -4962.51249        50.000  
 16 04 02 12 51 28.5000000  0  2G09G29                                          
  23758893.18849 124853824.77349     -7354.23049        50.000  
  22437336.39149 117908998.06649     -4965.74649        50.000  
 16 04 02 12 51 28.6000000  0  2G09G29                                          
  23759033.18849 124854560.47749     -7359.91049        50.000  
  22437430.92249 117909494.83649     -4969.50449        50.000  
 16 04 02 12 51 28.7000000  0  2G09G29                                          
  23759173.28149 124855296.73049     -7365.61349        50.000  
  22437525.53149 117909991.98849     -4973.47349        50.000  
 16 04 02 12 51 28.8000000  0  2G09G29                                          
  23759313.50049 124856033.56649     -7371.34849        50.000  
  22437620.21149 117910489.53949     -4977.46149        50.000  
 16 04 02 12 51 28.9000000  0  2G09G29                                          
  23759453.79749 124856770.86749     -7376.06249        50.000  
  22437714.94549 117910987.36749     -4980.21149        50.000  
 16 04 02 12 51 29.0000000  0  2G09G29                                          
  23759594.20349 124857508.68449     -7381.03549        50.000  
  22437809.75049 117911485.54749     -4983.49649        50.000  
 16 04 02 12 51 29.1000000  0  2G09G29                                          
  23759734.71949 124858247.06649     -7386.53149        50.000  
  22437904.62549 117911984.10949     -4987.20349        50.000  
 16 04 02 12 51 29.2000000  0  2G09G29                                          
  23759875.32049 124858985.92649     -7391.88749        50.000  
  22437999.54749 117912482.96949     -4990.56249        50.000  
 16 04 02 12 51 29.3000000  0  2G09G29                                          
  23760016.03149 124859725.37549     -7397.59449        50.000  
  22438094.55549 117912982.26249     -4994.82849        50.000  
 16 04 02 12 51 29.4000000  0  2G09G29                                          
  23760156.85249 124860465.39149     -7403.26249        50.000  
  22438189.64149 117913481.91849     -4998.56649        50.000  
 16 04 02 12 51 29.5000000  0  2G09G29                                          
  23760297.77349 124861205.93449     -7408.43449        50.000  
  22438284.79749 117913981.93449     -5001.98849        50.000  
 16 04 02 12 51 29.6000000  0  2G09G29                                          
  23760438.79749 124861946.99649     -7413.62149        50.000  
  22438380.01649 117914482.28949     -5005.28949        50.000  
 16 04 02 12 51 29.7000000  0  2G09G29                                          
  23760579.90649 124862688.59449     -7418.68449        50.000  
  22438475.29749 117914983.00049     -5008.68849        50.000  
 16 04 02 12 51 29.8000000  0  2G09G29                                          
  23760721.13349 124863430.71949     -7424.29349        50.000  
  22438570.65649 117915484.07049     -5012.55549        50.000  
 16 04 02 12 51 29.9000000  0  2G09G29                                          
  23760862.46149 124864173.41449     -7430.18449        50.000  
  22438666.07849 117915985.52049     -5016.43849        50.000  
 16 04 02 12 51 30.0000000  0  2G09G29                                          
  23761003.89149 124864916.64149     -7435.20749        50.000  
  22438761.57049 117916487.35249     -5020.05549        50.000  
 16 04 02 12 51 30.1000000  0  2G09G29                                          
  23761145.41449 124865660.32049     -7439.58249        50.000  
  22438857.11749 117916989.42249     -5022.45349        50.000  
 16 04 02 12 51 30.2000000  0  2G09G29                                          
  23761287.03149 124866404.53949     -7445.09849        50.000  
  22438952.72749 117917491.88349     -5026.24249        50.000  
 16 04 02 12 51 30.3000000  0  2G09G29                                          
  23761428.75049 124867149.28549     -7450.24649        50.000  
  22439048.40649 117917994.68449     -5029.77349        50.000  
 16 04 02 12 51 30.4000000  0  2G09G29                                          
  23761570.57849 124867894.60949     -7456.01649        50.000  
  22439144.16449 117918497.87149     -5033.58249        50.000  
 16 04 02 12 51 30.5000000  0  2G09G29                                          
  23761712.50049 124868640.40249     -7460.92649        50.000  
  22439239.96949 117919001.36349     -5036.77749        50.000  
 16 04 02 12 51 30.6000000  0  2G09G29                                          
  23761854.53149 124869386.77749     -7466.80949        50.000  
  22439335.86749 117919505.26649     -5040.87949        50.000  
 16 04 02 12 51 30.7000000  0  2G09G29                                          
  23761996.67249 124870133.69549     -7472.18449        50.000  
  22439431.82849 117920009.53149     -5044.53149        50.000  
 16 04 02 12 51 30.8000000  0  2G09G29                                          
  23762138.90649 124870881.14849     -7477.68849        50.000  
  22439527.85249 117920514.14549     -5048.11349        50.000  
 16 04 02 12 51 30.9000000  0  2G09G29                                          
  23762281.25849 124871629.19949     -7483.37949        50.000  
  22439623.95349 117921019.18049     -5052.10549        50.000  
 16 04 02 12 51 31.0000000  0  2G09G29                                          
  23762423.69549 124872377.72749     -7488.37149        50.000  
  22439720.11749 117921524.53149     -5055.46949        50.000  
 16 04 02 12 51 31.1000000  0  2G09G29                                          
  23762566.25049 124873126.87149     -7494.60249        50.000  
  22439816.35949 117922030.30149     -5059.68049        50.000  
 16 04 02 12 51 31.2000000  0  2G09G29                                          
  23762708.90649 124873876.55549     -7499.65249        50.000  
  22439912.67249 117922536.44549     -5063.09049        50.000  
 16 04 02 12 51 31.3000000  0  2G09G29                                          
  23762851.68049 124874626.78549     -7505.53149        50.000  
  22440009.06249 117923042.96149     -5067.24649        50.000  
 16 04 02 12 51 31.4000000  0  2G09G29                                          
  23762994.54749 124875377.55549     -7510.43049        50.000  
  22440105.51649 117923549.83649     -5070.43449        50.000  
 16 04 02 12 51 31.5000000  0  2G09G29                                          
  23763137.51649 124876128.83649     -7515.91849        50.000  
  22440202.03949 117924057.03549     -5074.00849        50.000  
 16 04 02 12 51 31.6000000  0  2G09G29                                          
  23763280.58649 124876880.68049     -7521.30949        50.000  
  22440298.63349 117924564.63349     -5077.70749        50.000  
 16 04 02 12 51 31.7000000  0  2G09G29                                          
  23763423.74249 124877633.02749     -7526.61349        50.000  
  22440395.28949 117925072.56249     -5081.31249        50.000  
 16 04 02 12 51 31.8000000  0  2G09G29                                          
  23763567.01649 124878385.90249     -7531.51649        50.000  
  22440492.00049 117925580.82449     -5084.38349        50.000  
 16 04 02 12 51 31.9000000  0  2G09G29                                          
  23763710.38349 124879139.27749     -7536.66849        50.000  
  22440588.78149 117926089.41449     -5087.74249        50.000  
 16 04 02 12 51 32.0000000  0  2G09G29                                          
  23763853.85249 124879893.19949     -7542.15649        50.000  
  22440685.64149 117926598.37949     -5091.40649        50.000  
 16 04 02 12 51 32.1000000  0  2G09G29                                          
  23763997.43049 124880647.70749     -7548.07849        50.000  
  22440782.57049 117927107.74649     -5095.55949        50.000  
 16 04 02 12 51 32.2000000  0  2G09G29                                          
  23764141.10249 124881402.71149     -7553.00049        50.000  
  22440879.56249 117927617.43449     -5098.63749        50.000  
 16 04 02 12 51 32.3000000  0  2G09G29                                          
  23764284.87549 124882158.23849     -7558.32049        50.000  
  22440976.61749 117928127.47749     -5102.31649        50.000  
 16 04 02 12 51 32.4000000  0  2G09G29                                          
  23764428.75049 124882914.29749     -7563.68049        50.000  
  22441073.74249 117928637.87149     -5105.87149        50.000  
 16 04 02 12 51 32.5000000  0  2G09G29                                          
  23764572.73449 124883670.94149     -7569.14549        50.000  
  22441170.94549 117929148.66849     -5109.56249        50.000  
 16 04 02 12 51 32.6000000  0  2G09G29                                          
  23764716.81249 124884428.08249     -7574.50849        50.000  
  22441268.21149 117929659.78949     -5113.13349        50.000  
 16 04 02 12 51 32.7000000  0  2G09G29                                          
  23764861.00849 124885185.82449     -7580.53149        50.000  
  22441365.55549 117930171.33649     -5117.43049        50.000  
 16 04 02 12 51 32.8000000  0  2G09G29                                          
  23765005.30549 124885944.11349     -7585.84049        50.000  
  22441462.96949 117930683.25049     -5121.01649        50.000  
 16 04 02 12 51 32.9000000  0  2G09G29                                          
  23765149.70349 124886702.94549     -7591.50049        50.000  
  22441560.45349 117931195.52049     -5124.73849        50.000  
 16 04 02 12 51 33.0000000  0  2G09G29                                          
  23765294.20349 124887462.29349     -7596.35549        50.000  
  22441658.00049 117931708.14149     -5128.00449        50.000  
 16 04 02 12 51 33.1000000  0  2G09G29                                          
  23765438.80549 124888222.16849     -7601.58249        50.000  
  22441755.61749 117932221.11349     -5131.48849        50.000  
 16 04 02 12 51 33.2000000  0  2G09G29                                          
  23765583.49249 124888982.51649     -7606.44949        50.000  
  22441853.28149 117932734.38349     -5134.55549        50.000  
 16 04 02 12 51 33.3000000  0  2G09G29                                          
  23765728.30549 124889743.48449     -7612.66849        50.000  
  22441951.03949 117933248.07449     -5138.70749        50.000  
 16 04 02 12 51 33.4000000  0  2G09G29                                          
  23765873.21149 124890504.99249     -7618.13749        50.000  
  22442048.85949 117933762.14849     -5142.54349        50.000  
 16 04 02 12 51 33.5000000  0  2G09G29                                          
  23766018.21949 124891266.97749     -7622.67249        50.000  
  22442146.74249 117934276.52349     -5145.40649        50.000  
 16 04 02 12 51 33.6000000  0  2G09G29                                          
  23766163.32049 124892029.50049     -7628.06649        50.000  
  22442244.68849 117934791.26249     -5149.12949        50.000  
 16 04 02 12 51 33.7000000  0  2G09G29                                          
  23766308.53149 124892792.58649     -7633.66849        50.000  
  22442342.71149 117935306.36349     -5152.75849        50.000  
 16 04 02 12 51 33.8000000  0  2G09G29                                          
  23766453.83649 124893556.19149     -7638.98449        50.000  
  22442440.80549 117935821.83649     -5156.50449        50.000  
 16 04 02 12 51 33.9000000  0  2G09G29                                          
