     2.10           OBSERVATION DATA    G (GPS)             RINEX VERSION / TYPE
Convert v1.8.0                          09-Jun-2016 15:03   PGM / RUN BY / DATE 
Signal Strength values S1,S2 are in dBHz                    COMMENT             
                                                            MARKER NAME         
                                                            MARKER NUMBER       
                                                            OBSERVER / AGENCY   
                    NovAtel GPSCard                         REC # / TYPE / VERS 
                                                            ANT # / TYPE        
0.0000        0.0000        0.0000                          APPROX POSITION XYZ 
        0.0000        0.0000        0.0000                  ANTENNA: DELTA H/E/N
     1     0                                                WAVELENGTH FACT L1/2
     1     0     5   G04   G07   G09   G16   G26            WAVELENGTH FACT L1/2
                                                            COMMENT             
                                                            COMMENT             
                                                            COMMENT             
                                                            COMMENT             
                                                            COMMENT             
                                                            COMMENT             
     4    C1    L1    D1    S1                              # / TYPES OF OBSERV 
     0.100                                                  INTERVAL            
  2016    04    02    14    11     7.3000000    GPS         TIME OF FIRST OBS   
  2016    04    02    14    13    23.6000000    GPS         TIME OF LAST OBS    
Leap Seconds Unknown                                        COMMENT             
                                                            END OF HEADER       
 16 04 02 14 11  7.3000000  0  1G09                                             
  22508733.39849 118284191.53159      3213.42649        49.000  
 16 04 02 14 11  7.4000000  0  1G09                                             
  22508672.30549 118283870.51249      3207.00049        49.000  
 16 04 02 14 11  7.5000000  0  1G09                                             
  22508611.34449 118283550.14149      3200.42649        49.000  
 16 04 02 14 11  7.6000000  0  1G09                                             
  22508550.50049 118283230.41449      3193.87549        49.000  
 16 04 02 14 11  7.7000000  0  2G09G16                                          
  22508489.79749 118282911.37549      3187.09049        49.000  
  22176348.37549 116537495.94959     10015.79349        49.000  
 16 04 02 14 11  7.8000000  0  2G09G16                                          
  22508429.20349 118282592.95349      3180.91449        49.000  
  22176157.82049 116536494.56649     10011.48849        49.000  
 16 04 02 14 11  7.9000000  0  2G09G16                                          
  22508368.73449 118282275.18849      3174.09849        49.000  
  22175967.39849 116535493.65649     10006.63349        49.000  
 16 04 02 14 11  8.0000000  0  2G09G16                                          
  22508308.39849 118281958.10949      3167.51649        49.000  
  22175777.02349 116534493.25849     10001.75049        49.000  
 16 04 02 14 11  8.1000000  0  2G09G16                                          
  22508248.17249 118281641.62949      3161.35249        49.000  
  22175586.78149 116533493.27749      9997.32049        49.000  
 16 04 02 14 11  8.2000000  0  2G09G16                                          
  22508188.07049 118281325.80549      3154.87149        49.000  
  22175396.57849 116532493.75849      9992.82849        49.000  
 16 04 02 14 11  8.3000000  0  2G09G16                                          
  22508128.10249 118281010.64549      3148.36349        49.000  
  22175206.50049 116531494.73049      9987.97749        49.000  
 16 04 02 14 11  8.4000000  0  2G09G16                                          
  22508068.25049 118280696.10949      3142.13749        49.000  
  22175016.46949 116530496.13749      9983.66449        49.000  
 16 04 02 14 11  8.5000000  0  2G09G16                                          
  22508008.52349 118280382.23449      3135.42649        49.000  
  22174826.43849 116529498.01249      9978.93449        49.000  
 16 04 02 14 11  8.6000000  0  2G09G16                                          
  22507948.90649 118280068.92649      3129.89549        49.000  
  22174636.57049 116528500.28549      9975.04349        49.000  
 16 04 02 14 11  8.7000000  0  2G09G16                                          
  22507889.43049 118279756.34049      3122.69949        49.000  
  22174446.79749 116527503.08249      9969.90249        49.000  
 16 04 02 14 11  8.8000000  0  2G09G16                                          
  22507830.06249 118279444.37549      3116.20349        49.000  
  22174257.11749 116526506.33649      9965.02349        49.000  
 16 04 02 14 11  8.9000000  0  2G09G16                                          
  22507770.82049 118279133.08649      3109.51249        49.000  
  22174067.53949 116525510.05949      9960.43449        49.000  
 16 04 02 14 11  9.0000000  0  2G09G16                                          
  22507711.71149 118278822.46149      3102.80949        49.000  
  22173878.04749 116524514.27349      9955.47749        49.000  
 16 04 02 14 11  9.1000000  0  2G09G16                                          
  22507652.72749 118278512.48049      3096.54749        49.000  
  22173688.66449 116523518.96949      9950.77749        49.000  
 16 04 02 14 11  9.2000000  0  2G09G16                                          
  22507593.85249 118278203.08649      3090.63749        49.000  
  22173499.33649 116522524.03149      9946.92249        49.000  
 16 04 02 14 11  9.3000000  0  2G09G16                                          
  22507535.11749 118277894.43849      3083.05149        49.000  
  22173310.10949 116521529.67249      9941.24249        49.000  
 16 04 02 14 11  9.4000000  0  2G09G16                                          
  22507476.51649 118277586.46549      3076.29349        49.000  
  22173120.97749 116520535.80549      9936.24649        49.000  
 16 04 02 14 11  9.5000000  0  2G09G16                                          
  22507418.01649 118277279.03949      3070.93849        49.000  
  22172931.88349 116519542.31249      9932.58249        49.000  
 16 04 02 14 11  9.6000000  0  2G09G16                                          
  22507359.64149 118276972.27349      3064.43849        49.000  
  22172742.91449 116518549.28149      9927.99249        49.000  
 16 04 02 14 11  9.7000000  0  2G09G16                                          
  22507301.37549 118276666.14849      3058.11749        49.000  
  22172554.03149 116517556.71549      9923.52749        49.000  
 16 04 02 14 11  9.8000000  0  2G09G16                                          
  22507243.25049 118276360.67649      3051.38349        49.000  
  22172365.24249 116516564.61749      9918.67249        49.000  
 16 04 02 14 11  9.9000000  0  2G09G16                                          
  22507185.24249 118276055.86749      3044.67649        49.000  
  22172176.55549 116515572.98449      9913.94149        49.000  
 16 04 02 14 11 10.0000000  0  2G09G16                                          
  22507127.36749 118275751.71949      3038.17649        49.000  
  22171987.94549 116514581.84849      9909.04349        49.000  
 16 04 02 14 11 10.1000000  0  2G09G16                                          
  22507069.60949 118275448.18049      3032.01249        49.000  
  22171799.41449 116513591.13349      9904.75049        49.000  
 16 04 02 14 11 10.2000000  0  2G09G16                                          
  22507011.96949 118275145.30949      3025.55949        49.000  
  22171610.97749 116512600.89549      9900.13749        49.000  
 16 04 02 14 11 10.3000000  0  2G09G16                                          
  22506954.46149 118274843.09049      3018.80949        49.000  
  22171422.64849 116511611.13349      9895.23049        49.000  
 16 04 02 14 11 10.4000000  0  2G09G16                                          
  22506897.07049 118274541.49649      3012.57849        49.000  
  22171234.39149 116510621.81249      9890.80949        49.000  
 16 04 02 14 11 10.5000000  0  2G09G16                                          
  22506839.82049 118274240.59449      3005.59849        49.000  
  22171046.21949 116509633.00049      9885.64149        49.000  
 16 04 02 14 11 10.6000000  0  2G09G16                                          
  22506782.68849 118273940.37949      2998.75049        49.000  
  22170858.14849 116508644.68849      9880.66049        49.000  
 16 04 02 14 11 10.7000000  0  2G09G16                                          
  22506725.68049 118273640.77349      2992.68449        49.000  
  22170670.16449 116507656.80149      9876.39149        49.000  
 16 04 02 14 11 10.8000000  0  2G09G16                                          
  22506668.78949 118273341.82849      2986.12949        49.000  
  22170482.26649 116506669.39549      9871.77349        49.000  
 16 04 02 14 11 10.9000000  0  2G09G16                                          
  22506612.03149 118273043.53149      2979.69949        49.000  
  22170294.46149 116505682.44949      9867.05549        49.000  
 16 04 02 14 11 11.0000000  0  2G09G16                                          
  22506555.39149 118272745.90649      2972.86749        50.000  
  22170106.74249 116504695.98849      9862.20349        49.000  
 16 04 02 14 11 11.1000000  0  2G09G16                                          
  22506498.88349 118272448.90249      2966.77049        50.000  
  22169919.10949 116503709.98049      9857.88749        49.000  
 16 04 02 14 11 11.2000000  0  2G09G16                                          
  22506442.47749 118272152.50449      2960.70349        50.000  
  22169731.55549 116502724.38349      9853.68049        49.000  
 16 04 02 14 11 11.3000000  0  2G09G16                                          
  22506386.21949 118271856.82849      2953.42649        50.000  
  22169544.12549 116501739.32449      9848.20749        49.000  
 16 04 02 14 11 11.4000000  0  2G09G16                                          
  22506330.07049 118271561.76249      2947.14549        49.000  
  22169356.75849 116500754.69549      9843.82049        49.000  
 16 04 02 14 11 11.5000000  0  2G09G16                                          
  22506274.05549 118271267.38349      2940.25849        49.000  
  22169169.49249 116499770.57449      9838.69149        49.000  
 16 04 02 14 11 11.6000000  0  2G09G16                                          
  22506218.15649 118270973.62149      2934.43849        49.000  
  22168982.30549 116498786.87949      9834.74249        49.000  
 16 04 02 14 11 11.7000000  0  2G09G16                                          
  22506162.38349 118270680.51249      2927.80149        49.000  
  22168795.22749 116497803.65649      9829.91449        49.000  
 16 04 02 14 11 11.8000000  0  2G09G16                                          
  22506106.72749 118270388.04749      2921.07449        49.000  
  22168608.21949 116496820.90249      9825.00049        49.000  
 16 04 02 14 11 11.9000000  0  2G09G16                                          
  22506051.19549 118270096.26649      2914.64849        49.000  
  22168421.31249 116495838.63349      9820.52749        49.000  
 16 04 02 14 11 12.0000000  0  2G09G16                                          
  22505995.78949 118269805.08649      2908.39149        49.000  
  22168234.47749 116494856.78949      9815.99249        49.000  
 16 04 02 14 11 12.1000000  0  2G09G16                                          
  22505940.51649 118269514.58249      2901.53549        49.000  
  22168047.71149 116493875.44149      9811.03549        49.000  
 16 04 02 14 11 12.2000000  0  2G09G16                                          
  22505885.35249 118269224.69949      2895.68849        49.000  
  22167861.05549 116492894.53149      9806.93049        49.000  
 16 04 02 14 11 12.3000000  0  2G09G16                                          
  22505830.31249 118268935.43849      2889.39849        49.000  
  22167674.47749 116491914.05549      9802.50049        49.000  
 16 04 02 14 11 12.4000000  0  2G09G16                                          
  22505775.39149 118268646.83649      2882.68849        49.000  
  22167487.99249 116490934.04349      9797.81649        49.000  
 16 04 02 14 11 12.5000000  0  2G09G16                                          
  22505720.60249 118268358.85549      2876.61749        49.000  
  22167301.57049 116489954.50049      9793.26649        49.000  
 16 04 02 14 11 12.6000000  0  2G09G16                                          
  22505665.93049 118268071.55949      2869.52049        49.000  
  22167115.25849 116488975.42249      9788.25849        49.000  
 16 04 02 14 11 12.7000000  0  2G09G16                                          
  22505611.37549 118267784.86749      2863.80149        49.000  
  22166929.03149 116487996.79349      9784.24649        49.000  
 16 04 02 14 11 12.8000000  0  2G09G16                                          
  22505556.93849 118267498.81249      2857.05149        49.000  
  22166742.89149 116487018.61749      9779.24249        49.000  
 16 04 02 14 11 12.9000000  0  2G09G16                                          
  22505502.64149 118267213.46149      2850.30949        49.000  
  22166556.85949 116486040.94149      9774.50449        49.000  
 16 04 02 14 11 13.0000000  0  2G09G16                                          
  22505448.46149 118266928.73049      2843.68449        49.000  
  22166370.89849 116485063.71549      9769.76249        49.000  
 16 04 02 14 11 13.1000000  0  2G09G16                                          
  22505394.41449 118266644.69949      2836.90249        49.000  
  22166185.02349 116484087.00449      9764.61349        49.000  
 16 04 02 14 11 13.2000000  0  2G09G16                                          
  22505340.47749 118266361.28949      2830.96949        49.000  
  22165999.24249 116483110.73049      9760.51249        49.000  
 16 04 02 14 11 13.3000000  0  2G09G16                                          
  22505286.66449 118266078.47749      2824.85249        49.000  
  22165813.54749 116482134.86749      9756.32049        49.000  
 16 04 02 14 11 13.4000000  0  2G09G16                                          
  22505232.97749 118265796.32849      2818.37149        49.000  
  22165627.93849 116481159.49249      9751.70749        49.000  
 16 04 02 14 11 13.5000000  0  2G09G16                                          
  22505179.39849 118265514.82849      2811.70349        49.000  
  22165442.42249 116480184.57849      9746.85549        49.000  
 16 04 02 14 11 13.6000000  0  2G09G16                                          
  22505125.95349 118265233.97749      2805.01649        49.000  
  22165256.98449 116479210.12949      9741.99249        49.000  
 16 04 02 14 11 13.7000000  0  3G07G09G16                                       
  24294834.40649 127670215.82459     13636.82849        49.000  
  22505072.64149 118264953.84449      2797.90249        49.000  
  22165071.64849 116478236.22349      9736.62549        49.000  
 16 04 02 14 11 13.8000000  0  3G07G09G16                                       
  24294574.93849 127668852.30949     13633.55949        49.000  
  22505019.46149 118264674.35249      2791.63349        49.000  
  22164886.40649 116477262.76249      9732.28549        49.000  
 16 04 02 14 11 13.9000000  0  3G07G09G16                                       
  24294315.53949 127667489.13749     13630.03149        49.000  
  22504966.40649 118264395.52349      2784.89849        49.000  
  22164701.25049 116476289.77749      9727.41449        49.000  
 16 04 02 14 11 14.0000000  0  3G07G09G16                                       
  24294056.20349 127666126.32049     13626.53549        49.000  
  22504913.46949 118264117.35549      2778.26249        49.000  
  22164516.18849 116475317.28549      9722.58649        49.000  
 16 04 02 14 11 14.1000000  0  3G07G09G16                                       
  24293796.95349 127664763.82449     13623.43849        49.000  
  22504860.65649 118263839.81249      2772.14549        49.000  
  22164331.19549 116474345.23049      9718.17249        49.000  
 16 04 02 14 11 14.2000000  0  3G07G09G16                                       
  24293537.73449 127663401.64149     13620.37149        49.000  
  22504807.96149 118263562.89849      2765.98449        49.000  
  22164146.30549 116473373.61349      9714.03549        49.000  
 16 04 02 14 11 14.3000000  0  3G07G09G16                                       
  24293278.59449 127662039.71949     13617.64149        49.000  
  22504755.36749 118263286.55549      2760.22749        49.000  
  22163961.47749 116472402.40249      9709.86349        49.000  
 16 04 02 14 11 14.4000000  0  3G07G09G16                                       
  24293019.50049 127660678.17249     13614.02349        49.000  
  22504702.91449 118263010.90649      2753.43049        49.000  
  22163776.75849 116471431.68049      9705.08249        49.000  
 16 04 02 14 11 14.5000000  0  3G07G09G16                                       
  24292760.46949 127659316.93449     13610.88349        49.000  
  22504650.57849 118262735.87149      2747.09849        49.000  
  22163592.10949 116470461.40249      9700.53949        49.000  
 16 04 02 14 11 14.6000000  0  3G07G09G16                                       
  24292501.50049 127657956.06249     13607.18849        49.000  
  22504598.37549 118262461.51249      2740.20749        49.000  
  22163407.56249 116469491.60949      9695.62549        49.000  
 16 04 02 14 11 14.7000000  0  3G07G09G16                                       
  24292242.61749 127656595.55149     13603.46949        49.000  
  22504546.29749 118262187.82049      2733.51249        49.000  
  22163223.10949 116468522.32049      9690.44149        49.000  
 16 04 02 14 11 14.8000000  0  3G07G09G16                                       
  24291983.78149 127655235.38349     13600.10249        49.000  
  22504494.33649 118261914.78549      2727.16449        49.000  
  22163038.74249 116467553.48449      9686.03549        49.000  
 16 04 02 14 11 14.9000000  0  3G07G09G16                                       
  24291725.00849 127653875.53949     13596.78549        49.000  
  22504442.50849 118261642.39549      2720.58649        49.000  
  22162854.44549 116466585.11349      9681.30149        49.000  
 16 04 02 14 11 15.0000000  0  3G07G09G16                                       
  24291466.31249 127652516.07849     13593.09849        49.000  
  22504390.80549 118261370.68449      2713.83249        49.000  
  22162670.26649 116465617.23849      9676.44149        49.000  
 16 04 02 14 11 15.1000000  0  3G07G09G16                                       
  24291207.66449 127651156.86349     13590.48049        49.000  
  22504339.21149 118261099.54749      2708.02349        49.000  
  22162486.16449 116464649.75449      9672.39149        49.000  
 16 04 02 14 11 15.2000000  0  3G07G09G16                                       
  24290949.08649 127649798.01649     13587.09049        49.000  
  22504287.74249 118260829.07449      2701.63349        49.000  
  22162302.14849 116463682.74649      9667.94949        49.000  
 16 04 02 14 11 15.3000000  0  3G07G09G16                                       
  24290690.55549 127648439.53949     13583.03949        49.000  
  22504236.40649 118260559.28549      2694.41849        49.000  
  22162118.22749 116462716.25049      9662.52049        49.000  
 16 04 02 14 11 15.4000000  0  3G07G09G16                                       
  24290432.10949 127647081.39849     13579.64149        49.000  
  22504185.18849 118260290.14849      2687.97749        49.000  
  22161934.39149 116461750.21549      9657.83649        49.000  
 16 04 02 14 11 15.5000000  0  3G07G09G16                                       
  24290173.74249 127645723.60549     13576.21949        49.000  
  22504134.10249 118260021.67249      2681.37149        49.000  
  22161750.64849 116460784.65249      9653.14549        49.000  
 16 04 02 14 11 15.6000000  0  3G07G09G16                                       
  24289915.43849 127644366.22349     13572.25849        49.000  
  22504083.14849 118259753.91449      2674.27749        49.000  
  22161567.00849 116459819.64549      9647.85949        49.000  
 16 04 02 14 11 15.7000000  0  3G07G09G16                                       
  24289657.15649 127643009.05949     13570.05949        49.000  
  22504032.29749 118259486.68849      2669.00449        49.000  
  22161383.43849 116458854.96549      9644.54749        49.000  
 16 04 02 14 11 15.8000000  0  3G07G09G16                                       
  24289398.96149 127641652.25049     13566.55549        49.000  
  22503981.57049 118259220.10949      2662.51649        49.000  
  22161199.96149 116457890.77349      9639.60549        49.000  
 16 04 02 14 11 15.9000000  0  3G07G09G16                                       
  24289140.86749 127640295.84049     13562.55149        49.000  
  22503930.97749 118258954.27049      2655.13349        49.000  
  22161016.60949 116456927.11749      9634.28549        49.000  
 16 04 02 14 11 16.0000000  0  3G07G09G16                                       
  24288882.81249 127638939.76649     13559.14549        49.000  
  22503880.50849 118258689.04749      2648.80949        49.000  
  22160833.31249 116455963.91049      9629.75449        49.000  
 16 04 02 14 11 16.1000000  0  3G07G09G16                                       
  24288624.78149 127637583.98449     13556.24649        49.000  
  22503830.14849 118258424.45349      2642.77049        49.000  
  22160650.10949 116455001.12949      9625.44549        49.000  
 16 04 02 14 11 16.2000000  0  3G07G09G16                                       
  24288366.84449 127636228.51649     13553.23849        49.000  
  22503779.91449 118258160.46949      2636.65249        49.000  
  22160466.97749 116454038.78149      9621.25449        49.000  
 16 04 02 14 11 16.3000000  0  3G07G09G16                                       
  24288108.91449 127634873.33249     13550.43449        49.000  
  22503729.80549 118257897.09049      2630.60549        49.000  
  22160283.93049 116453076.86349      9616.96549        49.000  
 16 04 02 14 11 16.4000000  0  3G07G09G16                                       
  24287851.10249 127633518.51249     13546.66449        49.000  
  22503679.81249 118257634.36749      2623.87149        49.000  
  22160100.96949 116452115.42249      9612.04749        49.000  
 16 04 02 14 11 16.5000000  0  3G07G09G16                                       
  24287593.35949 127632164.05149     13542.91449        49.000  
  22503629.96149 118257372.32849      2616.96149        49.000  
  22159918.10949 116451154.46149      9607.17649        49.000  
 16 04 02 14 11 16.6000000  0  3G07G09G16                                       
  24287335.68049 127630809.96149     13539.23449        49.000  
  22503580.22749 118257110.97749      2610.08649        49.000  
  22159735.34449 116450194.01649      9601.99249        49.000  
 16 04 02 14 11 16.7000000  0  3G07G09G16                                       
  24287078.07049 127629456.17649     13536.24649        49.000  
  22503530.60249 118256850.23049      2604.09049        49.000  
  22159552.66449 116449234.00049      9597.76249        49.000  
 16 04 02 14 11 16.8000000  0  3G07G09G16                                       
  24286820.53149 127628102.80149     13532.16049        49.000  
  22503481.11749 118256590.20349      2596.89849        49.000  
  22159370.07849 116448274.50849      9592.55149        49.000  
 16 04 02 14 11 16.9000000  0  3G07G09G16                                       
  24286563.05549 127626749.73449     13529.02749        49.000  
  22503431.76649 118256330.79749      2590.78949        49.000  
  22159187.58649 116447315.46149      9588.12949        49.000  
 16 04 02 14 11 17.0000000  0  3G07G09G16                                       
  24286305.63349 127625396.98849     13525.92649        49.000  
  22503382.51649 118256072.01649      2584.48049        49.000  
  22159005.16449 116446356.85549      9583.79349        49.000  
 16 04 02 14 11 17.1000000  0  3G07G09G16                                       
  24286048.26649 127624044.55149     13522.71949        49.000  
  22503333.39149 118255813.86349      2578.14849        49.000  
  22158822.80549 116445398.68449      9579.37549        49.000  
 16 04 02 14 11 17.2000000  0  3G07G09G16                                       
  24285790.96949 127622692.44949     13519.33249        49.000  
  22503284.39149 118255556.36749      2571.47349        49.000  
  22158640.56249 116444440.99249      9574.58249        49.000  
 16 04 02 14 11 17.3000000  0  3G07G09G16                                       
  24285533.72749 127621340.73849     13515.48449        49.000  
  22503235.51649 118255299.54749      2564.78549        49.000  
  22158458.40649 116443483.81249      9569.56649        49.000  
 16 04 02 14 11 17.4000000  0  3G07G09G16                                       
  24285276.56249 127619989.34849     13512.33249        49.000  
  22503186.76649 118255043.36749      2558.62549        49.000  
  22158276.34449 116442527.08249      9564.96149        49.000  
 16 04 02 14 11 17.5000000  0  3G07G09G16                                       
  24285019.46149 127618638.28149     13509.02749        49.000  
  22503138.13349 118254787.83649      2551.95349        49.000  
  22158094.38349 116441570.78949      9560.51649        49.000  
 16 04 02 14 11 17.6000000  0  3G07G09G16                                       
  24284762.42249 127617287.56249     13505.49649        49.000  
  22503089.63349 118254532.94149      2545.37149        49.000  
  22157912.50049 116440614.98449      9555.70749        49.000  
 16 04 02 14 11 17.7000000  0  3G07G09G16                                       
  24284505.47749 127615937.22749     13501.85949        49.000  
  22503041.25849 118254278.75049      2538.71149        49.000  
  22157730.71149 116439659.69149      9550.60249        49.000  
 16 04 02 14 11 17.8000000  0  3G07G09G16                                       
  24284248.57049 127614587.16049     13498.97349        49.000  
  22502993.00049 118254025.14549      2532.65249        49.000  
  22157548.99249 116438704.77749      9546.71549        49.000  
 16 04 02 14 11 17.9000000  0  3G07G09G16                                       
  24283991.71949 127613237.49649     13495.11749        49.000  
  22502944.87549 118253772.23849      2525.75049        49.000  
  22157367.38349 116437750.42249      9541.31649        49.000  
 16 04 02 14 11 18.0000000  0  3G07G09G16                                       
  24283734.94549 127611888.16049     13491.61749        49.000  
  22502896.86749 118253519.97749      2519.04349        49.000  
  22157185.85949 116436796.49649      9536.73849        49.000  
 16 04 02 14 11 18.1000000  0  3G07G09G16                                       
  24283478.22749 127610539.19549     13488.10949        49.000  
  22502849.00049 118253268.39849      2512.56249        49.000  
  22157004.41449 116435843.07849      9531.89849        49.000  
 16 04 02 14 11 18.2000000  0  3G07G09G16                                       
  24283221.60249 127609190.60249     13484.12949        49.000  
  22502801.25849 118253017.48849      2505.56649        49.000  
  22156823.07849 116434890.14849      9526.76649        49.000  
 16 04 02 14 11 18.3000000  0  3G07G09G16                                       
  24282965.00049 127607842.31649     13481.23049        49.000  
  22502753.63349 118252767.22749      2499.26649        49.000  
  22156641.82849 116433937.68049      9522.23849        49.000  
 16 04 02 14 11 18.4000000  0  3G07G09G16                                       
  24282708.50049 127606494.38349     13477.75849        49.000  
  22502706.13349 118252517.59449      2492.86749        49.000  
  22156460.66449 116432985.66449      9517.78149        49.000  
 16 04 02 14 11 18.5000000  0  3G07G09G16                                       
  24282452.04749 127605146.78949     13474.29749        49.000  
  22502658.75849 118252268.62549      2486.42249        49.000  
  22156279.57849 116432034.12949      9512.90649        49.000  
 16 04 02 14 11 18.6000000  0  3G07G09G16                                       
  24282195.67249 127603799.53949     13471.03549        49.000  
  22502611.50849 118252020.31249      2479.96149        49.000  
  22156098.59449 116431083.05549      9508.50849        49.000  
 16 04 02 14 11 18.7000000  0  3G07G09G16                                       
  24281939.36749 127602452.55549     13468.37549        49.000  
  22502564.36749 118251772.57449      2473.92249        49.000  
  22155917.68049 116430132.37149      9504.63349        49.000  
 16 04 02 14 11 18.8000000  0  3G07G09G16                                       
  24281683.11749 127601105.93449     13464.67249        49.000  
  22502517.35249 118251525.49649      2467.47349        49.000  
  22155736.86749 116429182.19149      9499.59849        49.000  
 16 04 02 14 11 18.9000000  0  3G07G09G16                                       
  24281426.91449 127599759.68449     13460.91849        49.000  
  22502470.46149 118251279.11749      2460.44549        49.000  
  22155556.16449 116428232.50449      9494.47749        49.000  
 16 04 02 14 11 19.0000000  0  3G07G09G16                                       
  24281170.79749 127598413.77749     13457.50849        49.000  
  22502423.70349 118251033.38749      2453.89549        49.000  
  22155375.53149 116427283.28549      9489.85249        49.000  
 16 04 02 14 11 19.1000000  0  3G07G09G16                                       
  24280914.71149 127597068.11749     13455.14849        49.000  
  22502377.04749 118250788.21949      2448.44949        49.000  
  22155194.96949 116426334.45349      9486.04349        49.000  
 16 04 02 14 11 19.2000000  0  3G07G09G16                                       
  24280658.71149 127595722.82049     13451.59049        49.000  
  22502330.51649 118250543.70749      2441.89549        49.000  
  22155014.50049 116425386.08649      9481.49249        49.000  
 16 04 02 14 11 19.3000000  0  3G07G09G16                                       
  24280402.76649 127594377.82449     13448.45349        49.000  
  22502284.10249 118250299.82049      2435.56649        49.000  
  22154834.10949 116424438.16849      9476.89149        49.000  
 16 04 02 14 11 19.4000000  0  3G07G09G16                                       
  24280146.89849 127593033.26249     13444.09449        49.000  
  22502237.82849 118250056.66849      2428.37549        49.000  
  22154653.82849 116423490.80149      9471.34449        49.000  
 16 04 02 14 11 19.5000000  0  3G07G09G16                                       
  24279891.10949 127591688.99649     13440.98049        49.000  
  22502191.68049 118249814.12949      2421.84849        49.000  
  22154473.64849 116422543.85249      9466.90249        49.000  
 16 04 02 14 11 19.6000000  0  3G07G09G16                                       
  24279635.36749 127590345.07849     13437.63349        49.000  
  22502145.64849 118249572.23449      2415.61349        49.000  
  22154293.53949 116421597.38749      9462.46549        49.000  
 16 04 02 14 11 19.7000000  0  4G07G09G26G16                                    
  24279379.68049 127589001.46549     13434.67649        49.000  
  22502099.74249 118249330.96149      2409.58249        49.000  
  24196969.68849 127155932.85559     16103.61749        50.000  
  22154113.51649 116420651.34849      9458.18449        49.000  
 16 04 02 14 11 19.8000000  0  4G07G09G26G16                                    
  24279124.06249 127587658.19149     13431.16049        49.000  
  22502053.95349 118249090.34449      2402.89849        49.000  
  24196663.28149 127154322.68049     16100.37149        50.000  
  22153933.58649 116419705.77749      9453.37149        49.000  
 16 04 02 14 11 19.9000000  0  4G07G09G26G16                                    
  24278868.47749 127586315.24649     13427.82849        49.000  
  22502008.28149 118248850.36349      2396.51649        49.000  
  24196356.95349 127152712.79749     16097.33249        50.000  
  22153753.72749 116418760.66849      9448.76649        49.000  
 16 04 02 14 11 20.0000000  0  4G07G09G26G16                                    
  24278613.00049 127584972.69549     13423.79349        49.000  
  22501962.75049 118248611.07449      2389.33249        49.000  
  24196050.67249 127151103.28549     16093.53149        50.000  
  22153573.97749 116417816.06249      9443.46949        49.000  
 16 04 02 14 11 20.1000000  0  4G07G09G26G16                                    
  24278357.59449 127583630.50049     13420.37549        49.000  
  22501917.34449 118248372.46149      2382.86749        49.000  
  24195744.44549 127149494.09049     16090.56649        50.000  
  22153394.32849 116416871.95349      9438.90249        49.000  
 16 04 02 14 11 20.2000000  0  4G07G09G26G16                                    
  24278102.23449 127582288.53949     13417.99649        49.000  
  22501872.03949 118248134.39849      2377.42249        49.000  
  24195438.26649 127147885.11349     16088.37949        50.000  
  22153214.74249 116415928.20349      9435.33649        49.000  
 16 04 02 14 11 20.3000000  0  4G07G09G26G16                                    
  24277846.93849 127580946.97749     13414.09849        49.000  
  22501826.86749 118247897.02749      2370.41849        49.000  
  24195132.17249 127146276.48849     16084.87149        50.000  
  22153035.25049 116414984.97749      9430.00449        49.000  
 16 04 02 14 11 20.4000000  0  4G07G09G26G16                                    
  24277591.71149 127579605.76249     13410.50049        49.000  
  22501781.82849 118247660.33649      2363.52349        49.000  
  24194826.12549 127144668.20749     16081.34849        50.000  
  22152855.85249 116414042.24249      9424.91849        49.000  
 16 04 02 14 11 20.5000000  0  4G07G09G26G16                                    
  24277336.54749 127578264.89849     13407.17649        49.000  
  22501736.89849 118247424.27349      2357.37949        49.000  
  24194520.11749 127143060.21149     16078.53549        50.000  
  22152676.53149 116413099.95349      9420.59449        49.000  
 16 04 02 14 11 20.6000000  0  4G07G09G26G16                                    
  24277081.43849 127576924.28949     13404.57849        49.000  
  22501692.08649 118247188.79749      2351.53549        49.000  
  24194214.17249 127141452.46149     16076.22749        50.000  
  22152497.29749 116412158.05949      9416.68449        49.000  
 16 04 02 14 11 20.7000000  0  4G07G09G26G16                                    
  24276826.41449 127575584.07449     13400.66849        49.000  
  22501647.40649 118246954.01649      2344.69149        49.000  
  24193908.28949 127139845.07049     16072.59449        50.000  
  22152318.17249 116411216.69149      9411.52349        49.000  
 16 04 02 14 11 20.8000000  0  4G07G09G26G16                                    
  24276571.45349 127574244.22349     13396.91849        49.000  
  22501602.85949 118246719.91849      2337.71149        49.000  
  24193602.47749 127138238.01649     16069.07049        50.000  
  22152139.12549 116410275.81249      9406.38749        49.000  
 16 04 02 14 11 20.9000000  0  4G07G09G26G16                                    
  24276316.53149 127572904.63349     13394.39149        49.000  
  22501558.42249 118246486.39149      2332.02349        49.000  
  24193296.69549 127136631.20349     16066.71949        50.000  
  22151960.15649 116409335.33649      9402.34849        49.000  
 16 04 02 14 11 21.0000000  0  4G07G09G26G16                                    
  24276061.69549 127571565.46949     13390.16849        49.000  
  22501514.11749 118246253.57449      2324.89549        49.000  
  24192991.00049 127135024.75849     16062.99649        50.000  
  22151781.28149 116408395.36349      9397.22749        49.000  
 16 04 02 14 11 21.1000000  0  4G07G09G26G16                                    
  24275806.92249 127570226.60249     13387.04749        49.000  
  22501469.93849 118246021.39149      2318.52749        49.000  
  24192685.33649 127133418.60549     16060.04749        50.000  
  22151602.50049 116407455.84849      9392.94949        49.000  
 16 04 02 14 11 21.2000000  0  4G07G09G26G16                                    
  24275552.20349 127568888.07849     13383.74249        49.000  
  22501425.87549 118245789.85249      2312.14149        49.000  
  24192379.75049 127131812.75849     16057.08649        50.000  
  22151423.80549 116406516.81649      9388.19149        49.000  
 16 04 02 14 11 21.3000000  0  4G07G09G26G16                                    
  24275297.53949 127567549.85549     13380.64549        49.000  
  22501381.92249 118245558.91449      2306.19149        49.000  
  24192074.21149 127130207.16449     16054.58649        50.000  
  22151245.17249 116405578.17649      9384.11749        49.000  
 16 04 02 14 11 21.4000000  0  4G07G09G26G16                                    
  24275042.94549 127566211.94949     13377.53549        49.000  
  22501338.10249 118245328.60949      2299.84049        49.000  
  24191768.73449 127128601.87949     16051.53949        50.000  
  22151066.64849 116404639.99649      9379.62549        49.000  
 16 04 02 14 11 21.5000000  0  4G07G09G26G16                                    
  24274788.42249 127564874.40649     13373.73449        49.000  
  22501294.40649 118245098.97749      2292.95749        49.000  
  24191463.32049 127126996.91849     16048.06649        50.000  
  22150888.21949 116403702.31649      9374.38749        49.000  
 16 04 02 14 11 21.6000000  0  4G07G09G26G16                                    
  24274533.96149 127563537.20349     13370.35949        49.000  
  22501250.83649 118244870.00449      2286.33649        49.000  
  24191157.96949 127125392.27749     16044.85949        50.000  
  22150709.87549 116402765.10549      9369.71149        49.000  
 16 04 02 14 11 21.7000000  0  4G07G09G26G16                                    
  24274279.56249 127562200.35549     13366.85249        49.000  
  22501207.38349 118244641.68449      2279.89849        49.000  
  24190852.68049 127123787.95349     16041.69549        50.000  
  22150531.60249 116401828.36349      9364.98449        49.000  
 16 04 02 14 11 21.8000000  0  4G07G09G26G16                                    
  24274025.22749 127560863.80549     13363.98049        49.000  
  22501164.05549 118244413.97749      2273.84449        49.000  
  24190547.43849 127122183.89849     16039.12549        50.000  
  22150353.43049 116400892.05149      9360.85249        49.000  
 16 04 02 14 11 21.9000000  0  4G07G09G26G16                                    
  24273770.94549 127559527.59449     13360.53149        49.000  
  22501120.84449 118244186.90249      2267.41849        49.000  
  24190242.26649 127120580.14549     16036.01649        50.000  
  22150175.33649 116399956.19549      9356.16049        49.000  
 16 04 02 14 11 22.0000000  0  4G07G09G26G16                                    
  24273516.75049 127558191.77749     13356.63749        49.000  
  22501077.77349 118243960.54349      2260.37149        49.000  
  24189937.14849 127118976.75449     16032.50449        50.000  
  22149997.34449 116399020.85549      9351.08249        49.000  
 16 04 02 14 12 37.0000000  0  1G09                                             
  22424311.41449 117840551.07459     -2566.87549        50.000  
 16 04 02 14 12 37.1000000  0  1G09                                             
  22424360.32849 117840808.09449     -2573.35949        50.000  
 16 04 02 14 12 37.2000000  0  1G09                                             
  22424409.35949 117841065.75049     -2579.72349        50.000  
 16 04 02 14 12 37.3000000  0  1G09                                             
  22424458.50849 117841324.00449     -2585.76649        50.000  
 16 04 02 14 12 37.4000000  0  1G09                                             
  22424507.80549 117841582.88349     -2591.90649        50.000  
 16 04 02 14 12 37.5000000  0  1G09                                             
  22424557.18049 117841842.38749     -2598.32449        50.000  
 16 04 02 14 12 37.6000000  0  1G09                                             
  22424606.68049 117842102.60249     -2605.43849        50.000  
 16 04 02 14 12 37.7000000  0  1G09                                             
  22424656.31249 117842363.43849     -2611.75849        50.000  
 16 04 02 14 12 37.8000000  0  1G09                                             
  22424706.08649 117842624.93849     -2618.20749        50.000  
 16 04 02 14 12 37.9000000  0  1G09                                             
  22424755.96949 117842887.06249     -2624.52349        49.000  
 16 04 02 14 12 38.0000000  0  1G09                                             
  22424805.97749 117843149.89849     -2631.58249        50.000  
 16 04 02 14 12 38.1000000  0  1G09                                             
  22424856.10949 117843413.34049     -2637.85549        50.000  
 16 04 02 14 12 38.2000000  0  1G09                                             
  22424906.35249 117843677.46949     -2644.60249        50.000  
 16 04 02 14 12 38.3000000  0  1G09                                             
  22424956.73449 117843942.21549     -2650.86749        50.000  
 16 04 02 14 12 38.4000000  0  1G09                                             
  22425007.23449 117844207.61749     -2657.43449        50.000  
 16 04 02 14 12 38.5000000  0  1G09                                             
  22425057.86749 117844473.72349     -2664.64149        49.000  
 16 04 02 14 12 38.6000000  0  1G09                                             
  22425108.62549 117844740.42249     -2670.17249        49.000  
 16 04 02 14 12 38.7000000  0  1G09                                             
  22425159.49249 117845007.76249     -2676.68849        49.000  
 16 04 02 14 12 38.8000000  0  1G09                                             
  22425210.50049 117845275.76649     -2683.27749        49.000  
 16 04 02 14 12 38.9000000  0  1G09                                             
  22425261.61749 117845544.40649     -2689.65649        49.000  
 16 04 02 14 12 39.0000000  0  1G09                                             
  22425312.88349 117845813.71149     -2696.39149        49.000  
 16 04 02 14 12 39.1000000  0  1G09                                             
  22425364.24249 117846083.60549     -2702.22749        49.000  
 16 04 02 14 12 39.2000000  0  1G09                                             
  22425415.75049 117846354.15249     -2708.66849        50.000  
 16 04 02 14 12 39.3000000  0  1G09                                             
  22425467.35249 117846625.35549     -2715.30149        50.000  
 16 04 02 14 12 39.4000000  0  1G09                                             
  22425519.08649 117846897.18449     -2721.45349        50.000  
 16 04 02 14 12 39.5000000  0  1G09                                             
  22425570.93049 117847169.65649     -2728.00449        50.000  
 16 04 02 14 12 39.6000000  0  1G09                                             
  22425622.88349 117847442.77349     -2734.46549        50.000  
 16 04 02 14 12 39.7000000  0  1G09                                             
  22425674.98449 117847716.58649     -2741.50449        50.000  
 16 04 02 14 12 39.8000000  0  1G09                                             
  22425727.18849 117847990.98849     -2747.33649        49.000  
 16 04 02 14 12 39.9000000  0  1G09                                             
  22425779.53949 117848266.08249     -2754.28549        49.000  
 16 04 02 14 12 40.0000000  0  1G09                                             
  22425832.00849 117848541.78949     -2760.32849        49.000  
 16 04 02 14 12 40.1000000  0  1G09                                             
  22425884.58649 117848818.12549     -2766.59449        49.000  
 16 04 02 14 12 40.2000000  0  1G09                                             
  22425937.28149 117849095.14149     -2773.49649        49.000  
 16 04 02 14 12 40.3000000  0  1G09                                             
  22425990.10949 117849372.74649     -2779.33649        49.000  
 16 04 02 14 12 40.4000000  0  1G09                                             
  22426043.05549 117849650.99249     -2785.57049        49.000  
 16 04 02 14 12 40.5000000  0  1G09                                             
  22426096.13349 117849929.92649     -2792.55949        49.000  
 16 04 02 14 12 40.6000000  0  1G09                                             
  22426149.33649 117850209.50449     -2799.00449        49.000  
 16 04 02 14 12 40.7000000  0  1G09                                             
  22426202.65649 117850489.72349     -2805.60249        49.000  
 16 04 02 14 12 40.8000000  0  1G09                                             
  22426256.10249 117850770.59449     -2811.84849        49.000  
 16 04 02 14 12 40.9000000  0  1G09                                             
  22426309.67249 117851052.09449     -2818.14849        49.000  
 16 04 02 14 12 41.0000000  0  1G09                                             
  22426363.35949 117851334.27349     -2825.21149        49.000  
 16 04 02 14 12 41.1000000  0  1G09                                             
  22426417.18049 117851617.08249     -2831.18449        49.000  
 16 04 02 14 12 41.2000000  0  1G09                                             
  22426471.08649 117851900.47349     -2837.18849        49.000  
 16 04 02 14 12 41.3000000  0  1G09                                             
  22426525.14149 117852184.53549     -2843.66849        49.000  
 16 04 02 14 12 41.4000000  0  1G09                                             
  22426579.31249 117852469.21549     -2850.08649        49.000  
 16 04 02 14 12 41.5000000  0  1G09                                             
  22426633.62549 117852754.60949     -2857.14849        49.000  
 16 04 02 14 12 41.6000000  0  1G09                                             
  22426688.04749 117853040.61349     -2863.47749        49.000  
 16 04 02 14 12 41.7000000  0  1G09                                             
  22426742.59449 117853327.27349     -2869.76249        49.000  
 16 04 02 14 12 41.8000000  0  1G09                                             
  22426797.29749 117853614.56249     -2876.05149        49.000  
 16 04 02 14 12 41.9000000  0  1G09                                             
  22426852.07049 117853902.42649     -2881.73449        49.000  
 16 04 02 14 12 42.0000000  0  1G09                                             
  22426906.96149 117854190.87549     -2887.49649        49.000  
 16 04 02 14 12 42.1000000  0  1G09                                             
  22426961.96949 117854479.94549     -2893.75049        49.000  
 16 04 02 14 12 42.2000000  0  1G09                                             
  22427017.08649 117854769.71149     -2900.98849        49.000  
 16 04 02 14 12 42.3000000  0  1G09                                             
  22427072.36749 117855060.21549     -2908.43049        49.000  
 16 04 02 14 12 42.4000000  0  1G09                                             
  22427127.74249 117855351.30149     -2914.36749        49.000  
 16 04 02 14 12 42.5000000  0  1G09                                             
  22427183.27349 117855643.11749     -2921.41849        49.000  
 16 04 02 14 12 42.6000000  0  1G09                                             
  22427238.89149 117855935.46549     -2926.82449        49.000  
 16 04 02 14 12 42.7000000  0  1G09                                             
  22427294.64849 117856228.50049     -2933.63349        50.000  
 16 04 02 14 12 42.8000000  0  1G09                                             
  22427350.52349 117856522.21149     -2940.24649        49.000  
 16 04 02 14 12 42.9000000  0  1G09                                             
  22427406.52349 117856816.50049     -2946.00449        49.000  
 16 04 02 14 12 43.0000000  0  1G09                                             
  22427462.65649 117857111.46949     -2952.80149        49.000  
 16 04 02 14 12 43.1000000  0  1G09                                             
  22427518.90649 117857407.04349     -2959.07449        49.000  
 16 04 02 14 12 43.2000000  0  1G09                                             
  22427575.25049 117857703.27049     -2965.35949        49.000  
 16 04 02 14 12 43.3000000  0  1G09                                             
  22427631.73449 117858000.11749     -2971.73849        49.000  
 16 04 02 14 12 43.4000000  0  1G09                                             
  22427688.35949 117858297.61349     -2978.30949        49.000  
 16 04 02 14 12 43.5000000  0  1G09                                             
  22427745.10249 117858595.77749     -2984.92649        49.000  
 16 04 02 14 12 43.6000000  0  1G09                                             
  22427801.94549 117858894.52349     -2990.82849        49.000  
 16 04 02 14 12 43.7000000  0  1G09                                             
  22427858.93049 117859193.98849     -2997.86349        49.000  
 16 04 02 14 12 43.8000000  0  2G16G09                                          
  21954991.49249 115374258.74259      5547.33649        49.000  
  22427916.03149 117859494.08649     -3004.40249        49.000  
 16 04 02 14 12 43.9000000  0  2G16G09                                          
  21954885.96949 115373704.21949      5542.86749        49.000  
  22427973.25849 117859794.81649     -3010.68049        49.000  
 16 04 02 14 12 44.0000000  0  2G16G09                                          
  21954780.55549 115373150.13749      5538.58249        49.000  
  22428030.59449 117860096.17249     -3016.71149        49.000  
 16 04 02 14 12 44.1000000  0  2G16G09                                          
  21954675.21949 115372596.59049      5533.14849        49.000  
  22428088.07049 117860398.21549     -3023.71949        49.000  
 16 04 02 14 12 44.2000000  0  2G16G09                                          
  21954569.99249 115372043.52049      5528.14849        49.000  
  22428145.68849 117860700.92649     -3030.52749        49.000  
 16 04 02 14 12 44.3000000  0  2G16G09                                          
  21954464.85249 115371491.00849      5522.85549        49.000  
  22428203.43049 117861004.35949     -3037.62549        49.000  
 16 04 02 14 12 44.4000000  0  2G16G09                                          
  21954359.79749 115370938.90249      5518.53549        49.000  
  22428261.25849 117861308.37149     -3043.55149        49.000  
 16 04 02 14 12 44.5000000  0  2G16G09                                          
  21954254.83649 115370387.32449      5513.51649        49.000  
  22428319.25049 117861613.09049     -3050.32449        49.000  
 16 04 02 14 12 44.6000000  0  2G16G09                                          
  21954149.93049 115369836.10249      5509.86349        49.000  
  22428377.34449 117861918.33249     -3055.72349        49.000  
 16 04 02 14 12 44.7000000  0  2G16G09                                          
  21954045.13349 115369285.39849      5504.87949        49.000  
  22428435.56249 117862224.27049     -3062.41049        49.000  
 16 04 02 14 12 44.8000000  0  2G16G09                                          
  21953940.42249 115368735.09449      5500.86749        49.000  
  22428493.87549 117862530.78549     -3068.28549        49.000  
 16 04 02 14 12 44.9000000  0  2G16G09                                          
  21953835.80549 115368185.32049      5495.57449        49.000  
  22428552.32849 117862837.99249     -3075.22349        49.000  
 16 04 02 14 12 45.0000000  0  2G16G09                                          
  21953731.25849 115367635.94549      5491.36349        49.000  
  22428610.89149 117863145.78149     -3081.25449        49.000  
 16 04 02 14 12 45.1000000  0  2G16G09                                          
  21953626.81249 115367087.10949      5485.90649        49.000  
  22428669.59449 117863454.27049     -3088.26649        49.000  
 16 04 02 14 12 45.2000000  0  2G16G09                                          
  21953522.46149 115366538.66849      5482.15649        49.000  
  22428728.40649 117863763.34849     -3094.01649        49.000  
 16 04 02 14 12 45.3000000  0  2G16G09                                          
  21953418.18849 115365990.71949      5477.25049        49.000  
  22428787.34449 117864073.06649     -3100.44549        49.000  
 16 04 02 14 12 45.4000000  0  2G16G09                                          
  21953314.02349 115365443.32049      5471.59049        49.000  
  22428846.41449 117864383.52349     -3107.97749        49.000  
 16 04 02 14 12 45.5000000  0  2G16G09                                          
  21953209.94549 115364896.35549      5467.28149        49.000  
  22428905.60949 117864694.59049     -3113.94149        49.000  
 16 04 02 14 12 45.6000000  0  2G16G09                                          
  21953105.93049 115364349.80549      5463.17249        49.000  
  22428964.91449 117865006.24249     -3119.84049        49.000  
 16 04 02 14 12 45.7000000  0  2G16G09                                          
  21953002.02349 115363803.77349      5458.09849        49.000  
  22429024.35249 117865318.57449     -3126.51649        49.000  
 16 04 02 14 12 45.8000000  0  2G16G09                                          
  21952898.21949 115363258.19949      5453.41449        49.000  
  22429083.90649 117865631.54749     -3132.93449        49.000  
 16 04 02 14 12 45.9000000  0  2G16G09                                          
  21952794.47749 115362713.05549      5449.08649        49.000  
  22429143.57849 117865945.11349     -3138.94549        49.000  
 16 04 02 14 12 46.0000000  0  2G16G09                                          
  21952690.85249 115362168.39849      5444.31249        49.000  
  22429203.38349 117866259.35549     -3145.69949        49.000  
 16 04 02 14 12 46.1000000  0  2G16G09                                          
  21952587.28949 115361624.20749      5439.53149        49.000  
  22429263.29749 117866574.21949     -3152.03949        49.000  
 16 04 02 14 12 46.2000000  0  2G16G09                                          
  21952483.80549 115361080.47349      5435.02749        49.000  
  22429323.35249 117866889.73049     -3158.34049        49.000  
 16 04 02 14 12 46.3000000  0  2G16G09                                          
  21952380.43849 115360537.25849      5430.03549        49.000  
  22429383.51649 117867205.92249     -3164.95349        49.000  
 16 04 02 14 12 46.4000000  0  2G16G09                                          
  21952277.13349 115359994.47349      5425.43049        49.000  
  22429443.78949 117867522.72749     -3171.44149        49.000  
 16 04 02 14 12 46.5000000  0  2G16G09                                          
  21952173.93849 115359452.18449      5420.65249        49.000  
  22429504.20349 117867840.18849     -3177.82049        49.000  
 16 04 02 14 12 46.6000000  0  2G16G09                                          
  21952070.82049 115358910.31249      5416.50449        49.000  
  22429564.72749 117868158.25049     -3183.91049        49.000  
 16 04 02 14 12 46.7000000  0  2G16G09                                          
  21951967.81249 115358368.99649      5410.78549        49.000  
  22429625.38349 117868477.02049     -3191.00049        49.000  
 16 04 02 14 12 46.8000000  0  2G16G09                                          
  21951864.89149 115357828.13349      5406.11349        49.000  
  22429686.18849 117868796.45349     -3197.77349        49.000  
 16 04 02 14 12 46.9000000  0  2G16G09                                          
  21951762.05549 115357287.73849      5401.71949        49.000  
  22429747.08649 117869116.49649     -3203.63749        50.000  
 16 04 02 14 12 47.0000000  0  2G16G09                                          
  21951659.28149 115356747.73449      5397.68449        49.000  
  22429808.09449 117869437.09849     -3209.19149        50.000  
 16 04 02 14 12 47.1000000  0  2G16G09                                          
  21951556.61749 115356208.24649      5392.55149        49.000  
  22429869.24249 117869758.41849     -3216.39149        50.000  
 16 04 02 14 12 47.2000000  0  2G16G09                                          
  21951454.04749 115355669.27049      5387.18449        49.000  
  22429930.50849 117870080.40249     -3223.37549        50.000  
 16 04 02 14 12 47.3000000  0  2G16G09                                          
  21951351.57049 115355130.75849      5382.82449        49.000  
  22429991.90649 117870403.03949     -3229.75849        50.000  
 16 04 02 14 12 47.4000000  0  2G16G09                                          
  21951249.18049 115354592.71549      5378.23849        49.000  
  22430053.42249 117870726.29749     -3235.78949        50.000  
 16 04 02 14 12 47.5000000  0  2G16G09                                          
  21951146.87549 115354055.09449      5374.12149        49.000  
  22430115.04749 117871050.16849     -3241.71549        50.000  
 16 04 02 14 12 47.6000000  0  2G16G09                                          
  21951044.65649 115353517.93849      5369.39149        49.000  
  22430176.79749 117871374.66849     -3248.10949        49.000  
 16 04 02 14 12 47.7000000  0  2G16G09                                          
  21950942.52349 115352981.23449      5364.80549        49.000  
  22430238.66449 117871699.78549     -3254.35249        49.000  
 16 04 02 14 12 47.8000000  0  2G16G09                                          
  21950840.49249 115352444.97749      5360.28949        49.000  
  22430300.64849 117872025.52749     -3260.68049        49.000  
 16 04 02 14 12 47.9000000  0  2G16G09                                          
  21950738.52349 115351909.15249      5355.85249        49.000  
  22430362.75849 117872351.89549     -3267.04749        49.000  
 16 04 02 14 12 48.0000000  0  2G16G09                                          
  21950636.68049 115351373.86749      5350.63349        49.000  
  22430425.00049 117872678.94949     -3273.72749        49.000  
 16 04 02 14 12 48.1000000  0  2G16G09                                          
  21950534.90649 115350839.06649      5345.49249        49.000  
  22430487.35949 117873006.66449     -3280.71149        50.000  
