     2.10           OBSERVATION DATA    G (GPS)             RINEX VERSION / TYPE
Convert v1.8.0                          09-Jun-2016 15:02   PGM / RUN BY / DATE 
Signal Strength values S1,S2 are in dBHz                    COMMENT             
                                                            MARKER NAME         
                                                            MARKER NUMBER       
                                                            OBSERVER / AGENCY   
                    NovAtel GPSCard                         REC # / TYPE / VERS 
                                                            ANT # / TYPE        
0.0000        0.0000        0.0000                          APPROX POSITION XYZ 
        0.0000        0.0000        0.0000                  ANTENNA: DELTA H/E/N
     1     0                                                WAVELENGTH FACT L1/2
     1     0     2   G02   G05                              WAVELENGTH FACT L1/2
                                                            COMMENT             
                                                            COMMENT             
                                                            COMMENT             
                                                            COMMENT             
                                                            COMMENT             
                                                            COMMENT             
     4    C1    L1    D1    S1                              # / TYPES OF OBSERV 
     0.100                                                  INTERVAL            
  2016    04    02    13    01     7.1000000    GPS         TIME OF FIRST OBS   
  2016    04    02    13    03    24.0000000    GPS         TIME OF LAST OBS    
Leap Seconds Unknown                                        COMMENT             
                                                            END OF HEADER       
 16 04 02 13 01  7.1000000  0  1G05                                             
  19538863.96949 102677421.68459      1163.66849        49.000  
 16 04 02 13 01  7.2000000  0  1G05                                             
  19538841.88349 102677305.64549      1156.71949        49.000  
 16 04 02 13 01  7.3000000  0  1G05                                             
  19538819.93849 102677190.30949      1150.02049        49.000  
 16 04 02 13 01  7.4000000  0  1G05                                             
  19538798.11749 102677075.62149      1143.43849        49.000  
 16 04 02 13 01  7.5000000  0  2G05G02                                          
  19538776.43049 102676961.59849      1136.77049        49.000  
  19420817.70349 102057084.38359     -9888.99249        49.000  
 16 04 02 13 01  7.6000000  0  2G05G02                                          
  19538754.85949 102676848.27049      1129.68449        49.000  
  19421005.93849 102058073.57049     -9894.46549        49.000  
 16 04 02 13 01  7.7000000  0  2G05G02                                          
  19538733.43049 102676735.65249      1122.61349        49.000  
  19421194.25849 102059063.27749     -9899.76649        49.000  
 16 04 02 13 01  7.8000000  0  2G05G02                                          
  19538712.13349 102676623.73049      1115.62149        49.000  
  19421382.68849 102060053.48049     -9904.72349        49.000  
 16 04 02 13 01  7.9000000  0  2G05G02                                          
  19538690.95349 102676512.46149      1109.36349        49.000  
  19421571.22749 102061044.17249     -9909.24649        49.000  
 16 04 02 13 01  8.0000000  0  2G05G02                                          
  19538669.90649 102676401.87149      1102.34449        49.000  
  19421759.84449 102062035.35249     -9914.44149        49.000  
 16 04 02 13 01  8.1000000  0  2G05G02                                          
  19538649.01649 102676292.01649      1095.10549        49.000  
  19421948.56249 102063027.09049     -9919.93849        49.000  
 16 04 02 13 01  8.2000000  0  2G05G02                                          
  19538628.24249 102676182.84849      1088.05549        49.000  
  19422137.37549 102064019.32049     -9924.94549        49.000  
 16 04 02 13 01  8.3000000  0  2G05G02                                          
  19538607.58649 102676074.28149      1082.10249        49.000  
  19422326.27349 102065011.99649     -9929.22349        49.000  
 16 04 02 13 01  8.4000000  0  2G05G02                                          
  19538587.06249 102675966.43049      1075.15649        49.000  
  19422515.28149 102066005.21549     -9934.62149        49.000  
 16 04 02 13 01  8.5000000  0  2G05G02                                          
  19538566.68049 102675859.25849      1068.25449        49.000  
  19422704.37549 102066998.89149     -9939.30549        49.000  
 16 04 02 13 01  8.6000000  0  2G05G02                                          
  19538546.42249 102675752.80549      1060.85249        49.000  
  19422893.57849 102067993.12949     -9945.10949        49.000  
 16 04 02 13 01  8.7000000  0  2G05G02                                          
  19538526.30549 102675647.05549      1054.09449        49.000  
  19423082.88349 102068987.87949     -9949.94149        49.000  
 16 04 02 13 01  8.8000000  0  2G05G02                                          
  19538506.29749 102675541.91049      1048.06649        49.000  
  19423272.25849 102069983.06249     -9954.14149        49.000  
 16 04 02 13 01  8.9000000  0  2G05G02                                          
  19538486.41449 102675437.44549      1041.17249        49.000  
  19423461.74249 102070978.73049     -9959.26249        49.000  
 16 04 02 13 01  9.0000000  0  2G05G02                                          
  19538466.66449 102675333.66849      1034.31249        49.000  
  19423651.30549 102071974.91449     -9964.28149        49.000  
 16 04 02 13 01  9.1000000  0  2G05G02                                          
  19538447.03949 102675230.55149      1027.88349        49.000  
  19423840.96149 102072971.57849     -9969.05149        49.000  
 16 04 02 13 01  9.2000000  0  2G05G02                                          
  19538427.55549 102675128.14849      1020.39549        49.000  
  19424030.71949 102073968.76649     -9974.41849        49.000  
 16 04 02 13 01  9.3000000  0  2G05G02                                          
  19538408.21949 102675026.46549      1013.25449        49.000  
  19424220.57049 102074966.49649     -9980.00849        49.000  
 16 04 02 13 01  9.4000000  0  2G05G02                                          
  19538388.98449 102674925.40249      1007.08249        49.000  
  19424410.51649 102075964.66049     -9984.15649        49.000  
 16 04 02 13 01  9.5000000  0  2G05G02                                          
  19538369.89149 102674825.02049      1000.34049        49.000  
  19424600.57849 102076963.32849     -9989.21549        49.000  
 16 04 02 13 01  9.6000000  0  2G05G02                                          
  19538350.93049 102674725.36349       993.01649        49.000  
  19424790.71949 102077962.52749     -9994.69949        49.000  
 16 04 02 13 01  9.7000000  0  2G05G02                                          
  19538332.09449 102674626.39849       985.97349        49.000  
  19424980.95349 102078962.25049     -9999.92249        49.000  
 16 04 02 13 01  9.8000000  0  2G05G02                                          
  19538313.39149 102674528.10249       979.44149        49.000  
  19425171.28149 102079962.45349    -10004.50049        49.000  
 16 04 02 13 01  9.9000000  0  2G05G02                                          
  19538294.81249 102674430.45749       972.99249        49.000  
  19425361.73449 102080963.13749    -10009.39549        49.000  
 16 04 02 13 01 10.0000000  0  2G05G02                                          
  19538276.36749 102674333.54349       965.69149        49.000  
  19425552.25849 102081964.34449    -10014.60549        49.000  
 16 04 02 13 01 10.1000000  0  2G05G02                                          
  19538258.04749 102674237.27749       959.18449        49.000  
  19425742.87549 102082966.05549    -10019.69149        49.000  
 16 04 02 13 01 10.2000000  0  2G05G02                                          
  19538239.85949 102674141.67249       952.74249        49.000  
  19425933.57849 102083968.21149    -10023.98449        49.000  
 16 04 02 13 01 10.3000000  0  2G05G02                                          
  19538221.78949 102674046.78949       945.41049        49.000  
  19426124.36749 102084970.90649    -10029.41049        49.000  
 16 04 02 13 01 10.4000000  0  2G05G02                                          
  19538203.85949 102673952.55549       938.84049        49.000  
  19426315.26649 102085974.08649    -10034.33249        49.000  
 16 04 02 13 01 10.5000000  0  2G05G02                                          
  19538186.04749 102673859.00449       932.01249        49.000  
  19426506.25849 102086977.76249    -10039.33649        49.000  
 16 04 02 13 01 10.6000000  0  2G05G02                                          
  19538168.37549 102673766.12549       925.22749        49.000  
  19426697.34449 102087981.91849    -10044.13349        49.000  
 16 04 02 13 01 10.7000000  0  2G05G02                                          
  19538150.83649 102673673.94149       918.31649        49.000  
  19426888.52349 102088986.59449    -10049.37149        49.000  
 16 04 02 13 01 10.8000000  0  2G05G02                                          
  19538133.43049 102673582.46149       911.13349        49.000  
  19427079.80549 102089991.78549    -10054.62549        49.000  
 16 04 02 13 01 10.9000000  0  2G05G02                                          
  19538116.14149 102673491.63349       904.80949        49.000  
  19427271.16449 102090997.45349    -10059.03149        49.000  
 16 04 02 13 01 11.0000000  0  2G05G02                                          
  19538098.98449 102673401.45749       898.19949        49.000  
  19427462.62549 102092003.59049    -10063.91849        49.000  
 16 04 02 13 01 11.1000000  0  2G05G02                                          
  19538081.96949 102673312.02049       891.00449        49.000  
  19427654.18849 102093010.28549    -10069.39149        49.000  
 16 04 02 13 01 11.2000000  0  2G05G02                                          
  19538065.07049 102673223.21949       884.54749        49.000  
  19427845.83649 102094017.41849    -10073.75849        49.000  
 16 04 02 13 01 11.3000000  0  2G05G02                                          
  19538048.29749 102673135.09449       877.72749        49.000  
  19428037.59449 102095025.06249    -10078.89849        49.000  
 16 04 02 13 01 11.4000000  0  2G05G02                                          
  19538031.65649 102673047.65249       870.91049        49.000  
  19428229.43849 102096033.20749    -10083.98049        49.000  
 16 04 02 13 01 11.5000000  0  2G05G02                                          
  19538015.15649 102672960.94949       863.55149        49.000  
  19428421.39149 102097041.88749    -10089.38349        49.000  
 16 04 02 13 01 11.6000000  0  2G05G02                                          
  19537998.78149 102672874.92249       856.81249        49.000  
  19428613.43849 102098051.07849    -10094.42249        49.000  
 16 04 02 13 01 11.7000000  0  2G05G02                                          
  19537982.53149 102672789.49649       850.78149        49.000  
  19428805.55549 102099060.68849    -10098.55549        49.000  
 16 04 02 13 01 11.8000000  0  2G05G02                                          
  19537966.40649 102672704.78549       843.68049        49.000  
  19428997.78149 102100070.82449    -10103.82849        49.000  
 16 04 02 13 01 11.9000000  0  2G05G02                                          
  19537950.41449 102672620.73849       837.03549        49.000  
  19429190.10249 102101081.45349    -10108.82849        49.000  
 16 04 02 13 01 12.0000000  0  2G05G02                                          
  19537934.56249 102672537.40649       829.96549        49.000  
  19429382.50849 102102092.59449    -10113.88749        49.000  
 16 04 02 13 01 12.1000000  0  2G05G02                                          
  19537918.82049 102672454.69149       823.73049        49.000  
  19429575.00849 102103104.18449    -10118.40649        49.000  
 16 04 02 13 01 12.2000000  0  2G05G02                                          
  19537903.21949 102672372.69149       816.55949        49.000  
  19429767.60249 102104116.29349    -10123.69549        49.000  
 16 04 02 13 01 12.3000000  0  2G05G02                                          
  19537887.74249 102672291.37149       809.69149        49.000  
  19429960.28949 102105128.90649    -10128.65649        49.000  
 16 04 02 13 01 12.4000000  0  2G05G02                                          
  19537872.39149 102672210.72349       803.03949        49.000  
  19430153.07049 102106141.99649    -10133.39549        49.000  
 16 04 02 13 01 12.5000000  0  2G05G02                                          
  19537857.17249 102672130.75049       796.21149        49.000  
  19430345.96949 102107155.59849    -10138.56649        49.000  
 16 04 02 13 01 12.6000000  0  2G05G02                                          
  19537842.08649 102672051.48049       789.18049        49.000  
  19430538.94549 102108169.71549    -10143.73849        49.000  
 16 04 02 13 01 12.7000000  0  2G05G02                                          
  19537827.14149 102671972.91449       782.27349        49.000  
  19430732.00049 102109184.34449    -10148.77749        49.000  
 16 04 02 13 01 12.8000000  0  2G05G02                                          
  19537812.32049 102671895.03549       775.38349        49.000  
  19430925.17249 102110199.47349    -10153.78149        49.000  
 16 04 02 13 01 12.9000000  0  2G05G02                                          
  19537797.62549 102671817.77349       769.11749        49.000  
  19431118.43049 102111215.04749    -10158.29749        49.000  
 16 04 02 13 01 13.0000000  0  2G05G02                                          
  19537783.04749 102671741.18449       762.33649        49.000  
  19431311.78149 102112231.11349    -10163.12949        49.000  
 16 04 02 13 01 13.1000000  0  2G05G02                                          
  19537768.62549 102671665.36349       754.70749        49.000  
  19431505.25049 102113247.76249    -10169.03949        49.000  
 16 04 02 13 01 13.2000000  0  2G05G02                                          
  19537754.31249 102671590.17649       748.49249        49.000  
  19431698.79749 102114264.85949    -10173.49649        49.000  
 16 04 02 13 01 13.3000000  0  2G05G02                                          
  19537740.13349 102671515.65249       741.58649        49.000  
  19431892.42249 102115282.43049    -10178.46949        49.000  
 16 04 02 13 01 13.4000000  0  2G05G02                                          
  19537726.08649 102671441.84049       734.68049        49.000  
  19432086.16449 102116300.52749    -10183.45749        49.000  
 16 04 02 13 01 13.5000000  0  2G05G02                                          
  19537712.17249 102671368.68049       728.15649        49.000  
  19432280.00849 102117319.10549    -10188.16849        49.000  
 16 04 02 13 01 13.6000000  0  2G05G02                                          
  19537698.37549 102671296.15249       721.83249        49.000  
  19432473.92249 102118338.12549    -10192.72349        49.000  
 16 04 02 13 01 13.7000000  0  2G05G02                                          
  19537684.71949 102671224.34049       714.63349        49.000  
  19432667.96149 102119357.68049    -10198.02749        49.000  
 16 04 02 13 01 13.8000000  0  2G05G02                                          
  19537671.18049 102671153.19549       707.83649        49.000  
  19432862.07049 102120377.71149    -10202.94549        49.000  
 16 04 02 13 01 13.9000000  0  2G05G02                                          
  19537657.77349 102671082.75849       700.95349        49.000  
  19433056.26649 102121398.28149    -10208.06649        49.000  
 16 04 02 13 01 14.0000000  0  2G05G02                                          
  19537644.49249 102671012.99249       694.19949        49.000  
  19433250.56249 102122419.32449    -10212.98849        49.000  
 16 04 02 13 01 14.1000000  0  2G05G02                                          
  19537631.35249 102670943.91449       687.20349        49.000  
  19433444.96949 102123440.87149    -10218.11749        49.000  
 16 04 02 13 01 14.2000000  0  2G05G02                                          
  19537618.33649 102670875.50449       680.65249        49.000  
  19433639.45349 102124462.91049    -10222.93049        49.000  
 16 04 02 13 01 14.3000000  0  2G05G02                                          
  19537605.45349 102670807.78949       673.60549        49.000  
  19433834.04749 102125485.46149    -10228.08249        49.000  
 16 04 02 13 01 14.4000000  0  2G05G02                                          
  19537592.70349 102670740.78949       666.39549        49.000  
  19434028.72749 102126508.53549    -10233.47349        49.000  
 16 04 02 13 01 14.5000000  0  2G05G02                                          
  19537580.07849 102670674.46149       659.71149        49.000  
  19434223.49249 102127532.10249    -10238.21549        49.000  
 16 04 02 13 01 14.6000000  0  2G05G02                                          
  19537567.57849 102670608.79349       653.19949        49.000  
  19434418.36749 102128556.14149    -10243.02749        49.000  
 16 04 02 13 01 14.7000000  0  2G05G02                                          
  19537555.21949 102670543.84449       645.81649        49.000  
  19434613.32849 102129580.72349    -10248.54349        49.000  
 16 04 02 13 01 14.8000000  0  2G05G02                                          
  19537542.99249 102670479.59049       639.03549        49.000  
  19434808.39849 102130605.80949    -10253.52349        49.000  
 16 04 02 13 01 14.9000000  0  2G05G02                                          
  19537530.89149 102670416.02049       632.34449        49.000  
  19435003.54749 102131631.39549    -10258.34049        49.000  
 16 04 02 13 01 15.0000000  0  2G05G02                                          
  19537518.91449 102670353.07449       626.04749        49.000  
  19435198.78949 102132657.42249    -10262.67249        49.000  
 16 04 02 13 01 15.1000000  0  2G05G02                                          
  19537507.06249 102670290.78949       619.49649        49.000  
  19435394.11749 102133683.93449    -10267.38749        49.000  
 16 04 02 13 01 15.2000000  0  2G05G02                                          
  19537495.34449 102670229.19949       612.46549        49.000  
  19435589.54749 102134710.94549    -10272.62149        49.000  
 16 04 02 13 01 15.3000000  0  2G05G02                                          
  19537483.74249 102670168.23849       606.22349        49.000  
  19435785.07849 102135738.40649    -10277.01649        49.000  
 16 04 02 13 01 15.4000000  0  2G05G02                                          
  19537472.28149 102670107.97349       599.16049        49.000  
  19435980.69549 102136766.37149    -10282.13749        49.000  
 16 04 02 13 01 15.5000000  0  2G05G02                                          
  19537460.93849 102670048.37549       592.59049        49.000  
  19436176.39849 102137794.83649    -10287.00849        49.000  
 16 04 02 13 01 15.6000000  0  2G05G02                                          
  19537449.72749 102669989.46549       585.44149        49.000  
  19436372.20349 102138823.78949    -10292.23449        49.000  
 16 04 02 13 01 15.7000000  0  2G05G02                                          
  19537438.65649 102669931.29749       578.19149        49.000  
  19436568.10949 102139853.30949    -10297.66449        49.000  
 16 04 02 13 01 15.8000000  0  2G05G02                                          
  19537427.71949 102669873.78549       571.47749        49.000  
  19436764.10949 102140883.30149    -10302.53949        49.000  
 16 04 02 13 01 15.9000000  0  2G05G02                                          
  19537416.90649 102669816.96549       564.69949        49.000  
  19436960.21149 102141913.78549    -10307.48449        49.000  
 16 04 02 13 01 16.0000000  0  2G05G02                                          
  19537406.22749 102669760.81649       558.06249        49.000  
  19437156.40649 102142944.77749    -10312.35949        49.000  
 16 04 02 13 01 16.1000000  0  2G05G02                                          
  19537395.65649 102669705.28949       551.73849        49.000  
  19437352.68849 102143976.19549    -10316.68849        49.000  
 16 04 02 13 01 16.2000000  0  2G05G02                                          
  19537385.21949 102669650.44949       545.06649        49.000  
  19437549.05549 102145008.11749    -10321.55549        49.000  
 16 04 02 13 01 16.3000000  0  2G05G02                                          
  19537374.91449 102669596.28549       538.07849        49.000  
  19437745.52349 102146040.53149    -10326.68049        49.000  
 16 04 02 13 01 16.4000000  0  2G05G02                                          
  19537364.74249 102669542.81249       531.14549        49.000  
  19437942.08649 102147073.45749    -10331.93049        49.000  
 16 04 02 13 01 16.5000000  0  2G05G02                                          
  19537354.68049 102669490.00449       524.60249        49.000  
  19438138.72749 102148106.84849    -10336.45349        49.000  
 16 04 02 13 01 16.6000000  0  2G05G02                                          
  19537344.75849 102669437.85249       517.97749        49.000  
  19438335.46949 102149140.72749    -10341.34049        49.000  
 16 04 02 13 01 16.7000000  0  2G05G02                                          
  19537334.96949 102669386.43849       510.68449        49.000  
  19438532.31249 102150175.14549    -10346.71549        49.000  
 16 04 02 13 01 16.8000000  0  2G05G02                                          
  19537325.31249 102669335.68849       503.98049        49.000  
  19438729.25849 102151210.06249    -10351.73049        49.000  
 16 04 02 13 01 16.9000000  0  2G05G02                                          
  19537315.78949 102669285.62949       497.07849        49.000  
  19438926.29749 102152245.46549    -10356.58249        49.000  
 16 04 02 13 01 17.0000000  0  2G05G02                                          
  19537306.39149 102669236.23049       490.59049        49.000  
  19439123.42249 102153281.35249    -10361.33249        49.000  
 16 04 02 13 01 17.1000000  0  2G05G02                                          
  19537297.12549 102669187.52049       483.58649        49.000  
  19439320.64149 102154317.74249    -10366.45749        49.000  
 16 04 02 13 01 17.2000000  0  2G05G02                                          
  19537287.98449 102669139.49249       476.80949        49.000  
  19439517.95349 102155354.62549    -10371.37949        49.000  
 16 04 02 13 01 17.3000000  0  2G05G02                                          
  19537278.96949 102669092.11349       470.51249        49.000  
  19439715.35949 102156391.98449    -10375.94949        49.000  
 16 04 02 13 01 17.4000000  0  2G05G02                                          
  19537270.07049 102669045.36749       464.02749        49.000  
  19439912.84449 102157429.78149    -10380.46949        49.000  
 16 04 02 13 01 17.5000000  0  2G05G02                                          
  19537261.31249 102668999.34849       456.76649        49.000  
  19440110.43049 102158468.12149    -10385.83249        49.000  
 16 04 02 13 01 17.6000000  0  2G05G02                                          
  19537252.68049 102668953.95349       450.64549        49.000  
  19440308.10249 102159506.90649    -10390.20349        49.000  
 16 04 02 13 01 17.7000000  0  2G05G02                                          
  19537244.15649 102668909.20749       444.02749        49.000  
  19440505.85949 102160546.14549    -10394.81249        49.000  
 16 04 02 13 01 17.8000000  0  2G05G02                                          
  19537235.77349 102668865.12949       437.48849        49.000  
  19440703.71149 102161585.87549    -10399.57849        49.000  
 16 04 02 13 01 17.9000000  0  2G05G02                                          
  19537227.51649 102668821.75849       430.47349        49.000  
  19440901.64849 102162626.12949    -10404.91449        49.000  
 16 04 02 13 01 18.0000000  0  2G05G02                                          
  19537219.39149 102668779.03949       423.67649        49.000  
  19441099.68849 102163666.83649    -10409.63349        49.000  
 16 04 02 13 01 18.1000000  0  2G05G02                                          
  19537211.39849 102668737.05949       416.30949        49.000  
  19441297.84449 102164708.10949    -10415.25849        49.000  
 16 04 02 13 01 18.2000000  0  2G05G02                                          
  19537203.52349 102668695.69549       410.22749        49.000  
  19441496.07849 102165749.81249    -10419.43049        49.000  
 16 04 02 13 01 18.3000000  0  2G05G02                                          
  19537195.78949 102668655.03549       403.21549        49.000  
  19441694.40649 102166792.03149    -10424.64549        49.000  
 16 04 02 13 01 18.4000000  0  2G05G02                                          
  19537188.18049 102668615.04749       396.43049        49.000  
  19441892.82849 102167834.73049    -10429.43849        49.000  
 16 04 02 13 01 18.5000000  0  2G05G02                                          
  19537180.69549 102668575.73449       389.64549        49.000  
  19442091.33649 102168877.93049    -10434.45749        49.000  
 16 04 02 13 01 18.6000000  0  2G05G02                                          
  19537173.34449 102668537.09449       382.98849        49.000  
  19442289.94549 102169921.60949    -10439.22349        49.000  
 16 04 02 13 01 18.7000000  0  2G05G02                                          
  19537166.10949 102668499.12949       376.30149        49.000  
  19442488.65649 102170965.78949    -10444.18849        49.000  
 16 04 02 13 01 18.8000000  0  2G05G02                                          
  19537159.02349 102668461.86749       369.09049        49.000  
  19442687.45349 102172010.47749    -10449.51649        49.000  
 16 04 02 13 01 18.9000000  0  2G05G02                                          
  19537152.07049 102668425.32049       361.96549        49.000  
  19442886.35249 102173055.70349    -10454.80149        49.000  
 16 04 02 13 01 19.0000000  0  2G05G02                                          
  19537145.23449 102668389.41849       355.59449        49.000  
  19443085.33649 102174101.38349    -10459.29749        49.000  
 16 04 02 13 01 19.1000000  0  2G05G02                                          
  19537138.52349 102668354.17249       349.00049        49.000  
  19443284.43049 102175147.52749    -10463.96149        49.000  
 16 04 02 13 01 19.2000000  0  2G05G02                                          
  19537131.95349 102668319.61749       342.02349        49.000  
  19443483.60249 102176194.18849    -10469.22749        49.000  
 16 04 02 13 01 19.3000000  0  2G05G02                                          
  19537125.52349 102668285.78549       334.93449        49.000  
  19443682.86749 102177241.37149    -10474.18849        49.000  
 16 04 02 13 01 19.4000000  0  2G05G02                                          
  19537119.19549 102668252.52049       329.05949        49.000  
  19443882.21949 102178288.94949    -10478.36749        49.000  
 16 04 02 13 01 19.5000000  0  2G05G02                                          
  19537113.00849 102668220.00049       321.76249        49.000  
  19444081.68049 102179337.08249    -10483.73449        49.000  
 16 04 02 13 01 19.6000000  0  2G05G02                                          
  19537106.94549 102668188.14149       315.04749        49.000  
  19444281.22749 102180385.69149    -10488.68049        49.000  
 16 04 02 13 01 19.7000000  0  2G05G02                                          
  19537101.02349 102668156.96949       308.35949        49.000  
  19444480.87549 102181434.80949    -10493.55549        49.000  
 16 04 02 13 01 19.8000000  0  2G05G02                                          
  19537095.21949 102668126.44549       301.82849        49.000  
  19444680.60249 102182484.37549    -10498.18049        49.000  
 16 04 02 13 01 19.9000000  0  2G05G02                                          
  19537089.53149 102668096.56649       295.44149        49.000  
  19444880.41449 102183534.40249    -10502.69949        49.000  
 16 04 02 13 01 20.0000000  0  2G05G02                                          
  19537083.98449 102668067.43049       287.94149        49.000  
  19445080.33649 102184585.00049    -10508.42649        49.000  
 16 04 02 13 01 20.1000000  0  2G05G02                                          
  19537078.55549 102668038.93449       281.32049        49.000  
  19445280.35249 102185636.04349    -10513.12149        49.000  
 16 04 02 13 01 20.2000000  0  2G05G02                                          
  19537073.28949 102668011.24249       273.50849        49.000  
  19445480.47749 102186687.70749    -10519.12549        49.000  
 16 04 02 13 01 20.3000000  0  2G05G02                                          
  19537068.11749 102667984.11749       267.85249        49.000  
  19445680.68049 102187739.75049    -10522.91049        49.000  
 16 04 02 13 01 20.4000000  0  2G05G02                                          
  19537063.08649 102667957.69549       260.73049        49.000  
  19445880.97749 102188792.30149    -10528.06249        49.000  
 16 04 02 13 01 20.5000000  0  2G05G02                                          
  19537058.20349 102667931.99249       253.48449        49.000  
  19446081.37549 102189845.39849    -10533.50849        49.000  
 16 04 02 13 01 20.6000000  0  2G05G02                                          
  19537053.43049 102667906.92649       247.11749        49.000  
  19446281.85249 102190898.94149    -10538.09449        49.000  
 16 04 02 13 01 20.7000000  0  2G05G02                                          
  19537048.78149 102667882.51249       240.65249        49.000  
  19446482.41449 102191952.94549    -10542.48049        49.000  
 16 04 02 13 01 20.8000000  0  2G05G02                                          
  19537044.27349 102667858.80549       233.54749        49.000  
  19446683.08649 102193007.47749    -10547.82449        49.000  
 16 04 02 13 01 20.9000000  0  2G05G02                                          
  19537039.88349 102667835.75449       227.15249        49.000  
  19446883.83649 102194062.48449    -10552.41449        49.000  
 16 04 02 13 01 21.0000000  0  2G05G02                                          
  19537035.62549 102667813.37549       220.39149        49.000  
  19447084.68849 102195117.96949    -10557.27049        49.000  
 16 04 02 13 01 21.1000000  0  2G05G02                                          
  19537031.47749 102667791.66449       213.76649        49.000  
  19447285.63349 102196173.93049    -10562.01249        49.000  
 16 04 02 13 01 21.2000000  0  2G05G02                                          
  19537027.46949 102667770.61349       207.06249        49.000  
  19447486.67249 102197230.37149    -10566.85949        49.000  
 16 04 02 13 01 21.3000000  0  2G05G02                                          
  19537023.58649 102667750.19949       200.66049        49.000  
  19447687.78149 102198287.27049    -10571.40649        49.000  
 16 04 02 13 01 21.4000000  0  2G05G02                                          
  19537019.83649 102667730.51249       193.46549        49.000  
  19447889.00049 102199344.70349    -10576.86749        49.000  
 16 04 02 13 01 21.5000000  0  2G05G02                                          
  19537016.21149 102667711.45349       187.16049        49.000  
  19448090.30549 102200402.58249    -10581.33649        49.000  
 16 04 02 13 01 21.6000000  0  2G05G02                                          
  19537012.71949 102667693.07849       180.51649        49.000  
  19448291.70349 102201460.94549    -10586.02349        49.000  
 16 04 02 13 01 21.7000000  0  2G05G02                                          
  19537009.35249 102667675.39849       173.21549        49.000  
  19448493.19549 102202519.82449    -10591.30149        49.000  
 16 04 02 13 01 21.8000000  0  2G05G02                                          
  19537006.12549 102667658.45349       165.81649        49.000  
  19448694.79749 102203579.26649    -10597.14149        49.000  
 16 04 02 13 01 21.9000000  0  2G05G02                                          
  19537003.03949 102667642.19949       158.95349        49.000  
  19448896.50049 102204639.19149    -10601.86749        49.000  
 16 04 02 13 01 22.0000000  0  2G05G02                                          
  19537000.07049 102667626.62949       151.98049        49.000  
  19449098.29749 102205699.62149    -10607.04349        49.000  
 16 04 02 13 01 22.1000000  0  2G05G02                                          
  19536997.23449 102667611.67649       146.22349        49.000  
  19449300.15649 102206760.48449    -10610.94949        49.000  
 16 04 02 13 01 22.2000000  0  2G05G02                                          
  19536994.50849 102667597.37149       139.74649        49.000  
  19449502.12549 102207821.81649    -10615.64549        49.000  
 16 04 02 13 01 22.3000000  0  2G05G02                                          
  19536991.92249 102667583.73049       133.07449        49.000  
  19449704.17249 102208883.59849    -10620.30149        49.000  
 16 04 02 13 01 22.4000000  0  2G05G02                                          
  19536989.46149 102667570.80949       125.76649        49.000  
  19449906.32849 102209945.94149    -10625.80549        49.000  
 16 04 02 13 01 22.5000000  0  2G05G02                                          
  19536987.12549 102667558.55549       118.91049        49.000  
  19450108.57049 102211008.75049    -10630.74649        49.000  
 16 04 02 13 01 22.6000000  0  2G05G02                                          
  19536984.91449 102667546.96549       112.08649        49.000  
  19450310.90649 102212072.04749    -10635.60949        49.000  
 16 04 02 13 01 22.7000000  0  2G05G02                                          
  19536982.85249 102667536.09049       105.28149        49.000  
  19450513.35249 102213135.86349    -10640.68849        49.000  
 16 04 02 13 01 22.8000000  0  2G05G02                                          
  19536980.90649 102667525.86749        98.73849        49.000  
  19450715.87549 102214200.15649    -10645.42249        49.000  
 16 04 02 13 01 22.9000000  0  2G05G02                                          
  19536979.09449 102667516.34049        91.84449        49.000  
  19450918.50049 102215264.94149    -10650.36749        49.000  
 16 04 02 13 01 23.0000000  0  2G05G02                                          
  19536977.40649 102667507.46949        85.29749        49.000  
  19451121.21949 102216330.21149    -10655.16449        49.000  
 16 04 02 13 01 23.1000000  0  2G05G02                                          
  19536975.85249 102667499.27749        78.37549        49.000  
  19451324.03149 102217395.96949    -10660.16849        49.000  
 16 04 02 13 01 23.2000000  0  2G05G02                                          
  19536974.43049 102667491.80149        71.24649        49.000  
  19451526.93849 102218462.25049    -10665.38749        49.000  
 16 04 02 13 01 23.3000000  0  2G05G02                                          
  19536973.13349 102667485.01249        64.28549        49.000  
  19451729.93049 102219529.03149    -10670.45749        49.000  
 16 04 02 13 01 23.4000000  0  2G05G02                                          
  19536971.96949 102667478.85549        58.25449        49.000  
  19451933.02349 102220596.27049    -10674.74649        49.000  
 16 04 02 13 01 23.5000000  0  2G05G02                                          
  19536970.93849 102667473.41449        51.03149        49.000  
  19452136.20349 102221664.02349    -10680.06249        49.000  
 16 04 02 13 01 23.6000000  0  2G05G02                                          
  19536970.03149 102667468.65249        44.16049        49.000  
  19452339.48449 102222732.27049    -10684.96549        49.000  
 16 04 02 13 01 23.7000000  0  2G05G02                                          
  19536969.25049 102667464.56249        37.21549        49.000  
  19452542.85949 102223801.01249    -10690.10249        49.000  
 16 04 02 13 01 23.8000000  0  2G05G02                                          
  19536968.60249 102667461.14549        30.71949        49.000  
  19452746.32049 102224870.21949    -10694.57449        49.000  
 16 04 02 13 01 23.9000000  0  2G05G02                                          
  19536968.07849 102667458.37149        24.25849        49.000  
  19452949.86749 102225939.90249    -10699.32849        49.000  
 16 04 02 13 01 24.0000000  0  2G05G02                                          
  19536967.68849 102667456.32449        16.87949        49.000  
  19453153.52349 102227010.11749    -10704.73849        49.000  
 16 04 02 13 01 24.1000000  0  2G05G02                                          
  19536967.43049 102667454.96149        10.19149        49.000  
  19453357.26649 102228080.83249    -10709.61749        49.000  
 16 04 02 13 01 24.2000000  0  2G05G02                                          
  19536967.28949 102667454.23049         3.85249        49.000  
  19453561.10249 102229151.99649    -10714.12549        49.000  
 16 04 02 13 01 24.3000000  0  2G05G02                                          
  19536967.28149 102667454.21549        -3.34449        49.000  
  19453765.03949 102230223.67649    -10719.26649        49.000  
 16 04 02 13 01 24.4000000  0  2G05G02                                          
  19536967.40649 102667454.89549       -10.33249        49.000  
  19453969.07049 102231295.87949    -10724.56649        49.000  
 16 04 02 13 01 24.5000000  0  2G05G02                                          
  19536967.67249 102667456.27349       -17.48849        49.000  
  19454173.18849 102232368.58249    -10729.95349        49.000  
 16 04 02 13 01 24.6000000  0  2G05G02                                          
  19536968.06249 102667458.30549       -23.79749        49.000  
  19454377.40649 102233441.74249    -10734.06649        49.000  
 16 04 02 13 01 24.7000000  0  2G05G02                                          
  19536968.57049 102667460.97349       -30.04349        49.000  
  19454581.72749 102234515.36749    -10738.51249        49.000  
 16 04 02 13 01 24.8000000  0  2G05G02                                          
  19536969.20349 102667464.28149       -36.41049        49.000  
  19454786.11749 102235589.44949    -10743.16849        49.000  
 16 04 02 13 01 24.9000000  0  2G05G02                                          
  19536969.97749 102667468.33249       -44.14549        49.000  
  19454990.61749 102236664.07049    -10748.90249        49.000  
 16 04 02 13 01 25.0000000  0  2G05G02                                          
  19536970.88349 102667473.06649       -50.68849        49.000  
  19455195.20349 102237739.20349    -10753.75449        49.000  
 16 04 02 13 01 25.1000000  0  2G05G02                                          
  19536971.90649 102667478.43049       -57.23849        49.000  
  19455399.87549 102238814.76249    -10758.25049        49.000  
 16 04 02 13 01 25.2000000  0  2G05G02                                          
  19536973.06249 102667484.51649       -64.20349        49.000  
  19455604.64849 102239890.86349    -10763.49249        49.000  
 16 04 02 13 01 25.3000000  0  2G05G02                                          
  19536974.34449 102667491.25449       -70.83649        49.000  
  19455809.51649 102240967.43049    -10768.17649        49.000  
 16 04 02 13 01 25.4000000  0  2G05G02                                          
  19536975.76649 102667498.72349       -78.09049        49.000  
  19456014.48449 102242044.53549    -10773.53549        49.000  
 16 04 02 13 01 25.5000000  0  2G05G02                                          
  19536977.29749 102667506.80149       -84.35949        49.000  
  19456219.54749 102243122.07049    -10777.95749        49.000  
 16 04 02 13 01 25.6000000  0  2G05G02                                          
  19536978.96949 102667515.61349       -91.53949        49.000  
  19456424.69549 102244200.14149    -10783.14149        49.000  
 16 04 02 13 01 25.7000000  0  2G05G02                                          
  19536980.75849 102667525.04749       -97.95349        49.000  
  19456629.92249 102245278.64549    -10787.64849        49.000  
 16 04 02 13 01 25.8000000  0  2G05G02                                          
  19536982.69549 102667535.22349      -105.21949        49.000  
  19456835.26649 102246357.71549    -10793.19949        49.000  
 16 04 02 13 01 25.9000000  0  2G05G02                                          
  19536984.75049 102667546.04349      -111.54749        49.000  
  19457040.68849 102247437.23849    -10797.66049        49.000  
 16 04 02 13 01 26.0000000  0  2G05G02                                          
  19536986.93049 102667557.48849      -117.88749        49.000  
  19457246.19549 102248517.19149    -10801.93049        49.000  
 16 04 02 13 01 26.1000000  0  2G05G02                                          
  19536989.24249 102667569.60949      -124.73049        49.000  
  19457451.79749 102249597.64149    -10806.92649        49.000  
 16 04 02 13 01 26.2000000  0  2G05G02                                          
  19536991.68049 102667582.44949      -131.74249        49.000  
  19457657.50049 102250678.61749    -10812.18049        49.000  
 16 04 02 13 01 26.3000000  0  2G05G02                                          
  19536994.24249 102667595.92249      -138.07049        49.000  
  19457863.28149 102251760.03549    -10816.53549        49.000  
 16 04 02 13 01 26.4000000  0  2G05G02                                          
  19536996.93049 102667610.03149      -144.49249        49.000  
  19458069.15649 102252841.90249    -10821.06649        49.000  
 16 04 02 13 01 26.5000000  0  2G05G02                                          
  19536999.74249 102667624.82849      -151.42249        49.000  
  19458275.12549 102253924.27749    -10826.16049        49.000  
 16 04 02 13 01 26.6000000  0  2G05G02                                          
  19537002.70349 102667640.37149      -158.91449        49.000  
  19458481.20349 102255007.20749    -10831.80549        49.000  
 16 04 02 13 01 26.7000000  0  2G05G02                                          
  19537005.78949 102667656.63749      -166.26249        49.000  
  19458687.37549 102256090.66449    -10837.20749        49.000  
 16 04 02 13 01 26.8000000  0  2G05G02                                          
  19537009.00849 102667673.55949      -172.89849        49.000  
  19458893.64149 102257174.60249    -10842.12149        49.000  
 16 04 02 13 01 26.9000000  0  2G05G02                                          
  19537012.35249 102667691.13749      -179.43849        49.000  
  19459099.99249 102258258.99249    -10846.60249        49.000  
 16 04 02 13 01 27.0000000  0  2G05G02                                          
  19537015.84449 102667709.47749      -186.92649        49.000  
  19459306.45349 102259343.98049    -10852.34449        49.000  
 16 04 02 13 01 27.1000000  0  2G05G02                                          
  19537019.43849 102667728.43449      -192.97749        49.000  
  19459513.00049 102260429.37949    -10856.50849        49.000  
 16 04 02 13 01 27.2000000  0  2G05G02                                          
  19537023.17249 102667748.05949      -199.52749        49.000  
  19459719.63349 102261515.24649    -10861.05949        49.000  
 16 04 02 13 01 27.3000000  0  2G05G02                                          
  19537027.02349 102667768.28149      -205.56249        49.000  
  19459926.33649 102262601.53949    -10865.25449        49.000  
 16 04 02 13 01 27.4000000  0  2G05G02                                          
  19537031.00049 102667789.20349      -212.59849        49.000  
  19460133.14849 102263688.34049    -10870.47749        49.000  
 16 04 02 13 01 27.5000000  0  2G05G02                                          
  19537035.11749 102667810.83649      -219.85949        49.000  
  19460340.04749 102264775.66849    -10875.91849        49.000  
 16 04 02 13 01 27.6000000  0  2G05G02                                          
  19537039.37549 102667833.17249      -226.97349        49.000  
  19460547.05549 102265863.50049    -10880.91849        49.000  
 16 04 02 13 01 27.7000000  0  2G05G02                                          
  19537043.75849 102667856.21549      -233.85549        49.000  
  19460754.15649 102266951.86349    -10886.14149        49.000  
 16 04 02 13 01 27.8000000  0  2G05G02                                          
  19537048.27349 102667879.93049      -240.83249        49.000  
  19460961.35249 102268040.69549    -10890.97349        49.000  
 16 04 02 13 01 27.9000000  0  2G05G02                                          
  19537052.91449 102667904.33249      -247.48849        49.000  
  19461168.64849 102269130.03949    -10895.91849        49.000  
 16 04 02 13 01 28.0000000  0  2G05G02                                          
  19537057.68849 102667929.41049      -254.11349        49.000  
  19461376.03149 102270219.85949    -10900.60549        49.000  
 16 04 02 13 01 28.1000000  0  2G05G02                                          
  19537062.57849 102667955.15649      -260.94149        49.000  
  19461583.51649 102271310.16849    -10905.48849        49.000  
 16 04 02 13 01 28.2000000  0  2G05G02                                          
  19537067.60249 102667981.53149      -267.26249        49.000  
  19461791.07849 102272400.90649    -10909.97349        49.000  
 16 04 02 13 01 28.3000000  0  2G05G02                                          
  19537072.74249 102668008.56649      -273.71549        49.000  
  19461998.73449 102273492.12949    -10914.60549        49.000  
 16 04 02 13 01 28.4000000  0  2G05G02                                          
  19537078.02349 102668036.30949      -280.78149        49.000  
  19462206.48449 102274583.86349    -10919.61749        49.000  
 16 04 02 13 01 28.5000000  0  2G05G02                                          
  19537083.41449 102668064.69549      -287.24649        49.000  
  19462414.32049 102275676.05949    -10924.30549        49.000  
 16 04 02 13 01 28.6000000  0  2G05G02                                          
  19537088.94549 102668093.75849      -294.41849        49.000  
  19462622.25049 102276768.73849    -10929.62949        49.000  
 16 04 02 13 01 28.7000000  0  2G05G02                                          
  19537094.60949 102668123.53149      -301.09849        49.000  
  19462830.27349 102277861.93049    -10934.37149        49.000  
 16 04 02 13 01 28.8000000  0  2G05G02                                          
  19537100.40649 102668153.98849      -308.16849        49.000  
  19463038.40649 102278955.63749    -10939.61349        49.000  
 16 04 02 13 01 28.9000000  0  2G05G02                                          
  19537106.30549 102668185.03149      -313.81249        49.000  
  19463246.60949 102280049.73449    -10943.41849        49.000  
 16 04 02 13 01 29.0000000  0  2G05G02                                          
  19537112.34449 102668216.73849      -320.29749        49.000  
  19463454.89849 102281144.29749    -10947.96149        49.000  
 16 04 02 13 01 29.1000000  0  2G05G02                                          
  19537118.50049 102668249.13749      -327.38349        49.000  
  19463663.27349 102282239.35949    -10952.89849        49.000  
 16 04 02 13 01 29.2000000  0  2G05G02                                          
  19537124.78949 102668282.16849      -333.91449        49.000  
  19463871.74249 102283334.87549    -10957.76249        49.000  
 16 04 02 13 01 29.3000000  0  2G05G02                                          
  19537131.21949 102668315.98049      -341.44549        49.000  
  19464080.32849 102284430.99649    -10963.53149        49.000  
 16 04 02 13 01 29.4000000  0  2G05G02                                          
  19537137.77349 102668350.41049      -347.85549        49.000  
  19464288.98449 102285527.51649    -10967.72749        49.000  
 16 04 02 13 01 29.5000000  0  2G05G02                                          
  19537144.43849 102668385.45749      -353.83249        49.000  
  19464497.72749 102286624.48449    -10972.12149        49.000  
 16 04 02 13 01 29.6000000  0  2G05G02                                          
  19537151.25049 102668421.24649      -361.34849        49.000  
  19464706.57849 102287722.00449    -10977.69149        49.000  
 16 04 02 13 01 29.7000000  0  2G05G02                                          
  19537158.19549 102668457.73049      -368.57449        49.000  
  19464915.52349 102288820.02349    -10982.95349        49.000  
 16 04 02 13 01 29.8000000  0  2G05G02                                          
  19537165.27349 102668494.91849      -375.69949        49.000  
  19465124.57049 102289918.55949    -10988.35949        49.000  
 16 04 02 13 01 29.9000000  0  2G05G02                                          
  19537172.48449 102668532.81249      -382.49649        49.000  
  19465333.71949 102291017.61349    -10993.14549        49.000  
 16 04 02 13 01 30.0000000  0  2G05G02                                          
  19537179.82049 102668571.37949      -389.13749        49.000  
  19465542.95349 102292117.15249    -10997.96949        49.000  
 16 04 02 13 01 30.1000000  0  2G05G02                                          
  19537187.30549 102668610.68449      -396.66449        49.000  
  19465752.29749 102293217.22749    -11003.40649        49.000  
 16 04 02 13 01 30.2000000  0  2G05G02                                          
  19537194.89849 102668650.59849      -402.51249        49.000  
  19465961.71149 102294317.73049    -11007.37549        49.000  
 16 04 02 13 01 30.3000000  0  2G05G02                                          
  19537202.60949 102668691.14549      -408.85949        49.000  
  19466171.21949 102295418.68449    -11011.82449        49.000  
 16 04 02 13 01 30.4000000  0  2G05G02                                          
  19537210.45349 102668732.37149      -415.52749        49.000  
  19466380.81249 102296520.12149    -11016.64149        49.000  
 16 04 02 13 01 30.5000000  0  2G05G02                                          
  19537218.43049 102668774.27049      -422.60249        49.000  
  19466590.50849 102297622.05949    -11021.93449        49.000  
 16 04 02 13 01 30.6000000  0  2G05G02                                          
  19537226.53949 102668816.87949      -429.45349        49.000  
  19466800.28949 102298724.48849    -11026.77749        49.000  
 16 04 02 13 01 30.7000000  0  2G05G02                                          
  19537234.76649 102668860.13749      -436.23049        49.000  
  19467010.16449 102299827.39149    -11031.65649        49.000  
 16 04 02 13 01 30.8000000  0  2G05G02                                          
  19537243.13349 102668904.12149      -443.41049        49.000  
  19467220.14149 102300930.82849    -11036.88749        49.000  
 16 04 02 13 01 30.9000000  0  2G05G02                                          
  19537251.63349 102668948.79349      -450.18849        49.000  
  19467430.21149 102302034.76649    -11041.82049        49.000  
 16 04 02 13 01 31.0000000  0  2G05G02                                          
  19537260.25049 102668994.07449      -456.38349        49.000  
  19467640.36749 102303139.12949    -11046.12949        49.000  
 16 04 02 13 01 31.1000000  0  2G05G02                                          
  19537269.00849 102669040.11349      -463.83649        49.000  
  19467850.61749 102304244.05949    -11051.76249        49.000  
 16 04 02 13 01 31.2000000  0  2G05G02                                          
  19537277.89149 102669086.82449      -470.62149        49.000  
  19468060.97749 102305349.47349    -11056.73049        49.000  
 16 04 02 13 01 31.3000000  0  2G05G02                                          
  19537286.90649 102669134.16049      -476.78949        49.000  
  19468271.39849 102306455.28949    -11060.78949        49.000  
 16 04 02 13 01 31.4000000  0  2G05G02                                          
  19537296.05549 102669182.23449      -484.35249        49.000  
  19468481.93849 102307561.69149    -11066.41449        49.000  
 16 04 02 13 01 31.5000000  0  2G05G02                                          
  19537305.32849 102669230.95749      -490.79349        49.000  
  19468692.57049 102308668.54749    -11071.13749        49.000  
 16 04 02 13 01 31.6000000  0  2G05G02                                          
  19537314.73449 102669280.38749      -497.87549        49.000  
  19468903.29749 102309775.91449    -11076.20749        49.000  
 16 04 02 13 01 31.7000000  0  2G05G02                                          
  19537324.26649 102669330.50449      -504.73049        49.000  
  19469114.11749 102310883.77349    -11081.20749        49.000  
 16 04 02 13 01 31.8000000  0  2G05G02                                          
  19537333.93849 102669381.32849      -511.88349        49.000  
  19469325.03149 102311992.15249    -11086.30149        49.000  
 16 04 02 13 01 31.9000000  0  2G05G02                                          
  19537343.73449 102669432.83249      -518.73849        49.000  
  19469536.05549 102313101.03149    -11091.41449        49.000  
 16 04 02 13 01 32.0000000  0  2G05G02                                          
  19537353.67249 102669485.02749      -525.55149        49.000  
  19469747.16449 102314210.41449    -11096.39549        49.000  
 16 04 02 13 01 32.1000000  0  2G05G02                                          
  19537363.71149 102669537.79749      -530.98049        49.000  
  19469958.33649 102315320.17249    -11099.90249        49.000  
 16 04 02 13 01 32.2000000  0  2G05G02                                          
  19537373.88349 102669591.26649      -537.91049        49.000  
  19470169.61749 102316430.43449    -11104.90649        49.000  
 16 04 02 13 01 32.3000000  0  2G05G02                                          
  19537384.18849 102669645.39149      -544.72749        49.000  
  19470380.97749 102317541.15649    -11109.78949        49.000  
 16 04 02 13 01 32.4000000  0  2G05G02                                          
  19537394.63349 102669700.27349      -552.32449        49.000  
  19470592.45349 102318652.48049    -11115.67249        49.000  
 16 04 02 13 01 32.5000000  0  2G05G02                                          
  19537405.19549 102669755.79349      -558.67249        49.000  
  19470804.00849 102319764.21949    -11119.96949        49.000  
 16 04 02 13 01 32.6000000  0  2G05G02                                          
  19537415.89149 102669811.99649      -565.59449        49.000  
  19471015.65649 102320876.45749    -11124.85549        49.000  
 16 04 02 13 01 32.7000000  0  2G05G02                                          
  19537426.71149 102669868.87949      -572.36349        49.000  
  19471227.40649 102321989.20349    -11129.95349        49.000  
 16 04 02 13 01 32.8000000  0  2G05G02                                          
  19537437.68049 102669926.50449      -579.74649        49.000  
  19471439.25049 102323102.47749    -11135.31649        49.000  
 16 04 02 13 01 32.9000000  0  2G05G02                                          
  19537448.75849 102669984.72349      -585.54349        49.000  
  19471651.17249 102324216.16849    -11139.29749        49.000  
 16 04 02 13 01 33.0000000  0  2G05G02                                          
  19537459.96149 102670043.57849      -591.90649        49.000  
  19471863.18849 102325330.30149    -11143.67249        49.000  
 16 04 02 13 01 33.1000000  0  2G05G02                                          
  19537471.29749 102670103.12149      -598.71949        49.000  
  19472075.28949 102326444.92649    -11148.61349        49.000  
 16 04 02 13 01 33.2000000  0  2G05G02                                          
  19537482.75849 102670163.33249      -605.39149        49.000  
  19472287.48449 102327560.02349    -11153.23849        49.000  
 16 04 02 13 01 33.3000000  0  2G05G02                                          
  19537494.32849 102670224.15249      -611.77049        49.000  
  19472499.76649 102328675.56649    -11157.91849        49.000  
 16 04 02 13 01 33.4000000  0  2G05G02                                          
  19537506.03949 102670285.68449      -618.52749        49.000  
  19472712.14149 102329791.60949    -11162.74649        49.000  
 16 04 02 13 01 33.5000000  0  2G05G02                                          
  19537517.87549 102670347.87949      -625.50849        49.000  
  19472924.60949 102330908.14549    -11167.97749        49.000  
 16 04 02 13 01 33.6000000  0  2G05G02                                          
  19537529.83649 102670410.76249      -632.37549        49.000  
  19473137.17249 102332025.15649    -11172.64149        49.000  
 16 04 02 13 01 33.7000000  0  2G05G02                                          
  19537541.93049 102670474.31649      -639.03149        49.000  
  19473349.82849 102333142.65249    -11177.40649        49.000  
 16 04 02 13 01 33.8000000  0  2G05G02                                          
  19537554.14849 102670538.52049      -645.45349        49.000  
  19473562.57049 102334260.62149    -11182.07849        49.000  
 16 04 02 13 01 33.9000000  0  2G05G02                                          
  19537566.50049 102670603.42249      -652.59849        49.000  
  19473775.40649 102335379.08249    -11187.22749        49.000  
 16 04 02 13 01 34.0000000  0  2G05G02                                          
  19537578.98449 102670669.03949      -659.59849        49.000  
  19473988.34449 102336498.07449    -11192.29349        49.000  
 16 04 02 13 01 34.1000000  0  2G05G02                                          
  19537591.58649 102670735.24249      -665.52349        49.000  
  19474201.34449 102337617.45749    -11196.36749        49.000  
 16 04 02 13 01 34.2000000  0  2G05G02                                          
  19537604.32849 102670802.18449      -672.90249        49.000  
  19474414.46149 102338737.38749    -11201.75049        49.000  
 16 04 02 13 01 34.3000000  0  2G05G02                                          
