     2.10           OBSERVATION DATA    G (GPS)             RINEX VERSION / TYPE
Convert v1.8.0                          09-Jun-2016 15:03   PGM / RUN BY / DATE 
Signal Strength values S1,S2 are in dBHz                    COMMENT             
                                                            MARKER NAME         
                                                            MARKER NUMBER       
                                                            OBSERVER / AGENCY   
                    NovAtel GPSCard                         REC # / TYPE / VERS 
                                                            ANT # / TYPE        
0.0000        0.0000        0.0000                          APPROX POSITION XYZ 
        0.0000        0.0000        0.0000                  ANTENNA: DELTA H/E/N
     1     0                                                WAVELENGTH FACT L1/2
     1     0     4   G04   G05   G20   G21                  WAVELENGTH FACT L1/2
                                                            COMMENT             
                                                            COMMENT             
                                                            COMMENT             
                                                            COMMENT             
                                                            COMMENT             
                                                            COMMENT             
     4    C1    L1    D1    S1                              # / TYPES OF OBSERV 
     0.100                                                  INTERVAL            
  2016    04    02    14    31     6.9000000    GPS         TIME OF FIRST OBS   
  2016    04    02    14    33    23.7000000    GPS         TIME OF LAST OBS    
Leap Seconds Unknown                                        COMMENT             
                                                            END OF HEADER       
 16 04 02 14 31  6.9000000  0  2G05G21                                          
  22627386.84449 118907719.73059     -6766.87149        50.000  
  23181972.57049 121822087.34059     -3212.07449        50.000  
 16 04 02 14 31  7.0000000  0  2G05G21                                          
  22627515.64849 118908396.61349     -6771.89149        50.000  
  23182033.71149 121822408.65249     -3215.08249        50.000  
 16 04 02 14 31  7.1000000  0  2G05G21                                          
  22627644.56249 118909074.09449     -6777.85249        50.000  
  23182094.93049 121822730.35549     -3219.11749        50.000  
 16 04 02 14 31  7.2000000  0  2G05G21                                          
  22627773.60249 118909752.17249     -6783.65649        50.000  
  23182156.22749 121823052.46549     -3222.88749        50.000  
 16 04 02 14 31  7.3000000  0  2G05G21                                          
  22627902.73449 118910430.77349     -6788.94549        50.000  
  23182217.57849 121823374.88749     -3226.29749        50.000  
 16 04 02 14 31  7.4000000  0  2G05G21                                          
  22628031.99249 118911110.01249     -6795.33249        50.000  
  23182279.03149 121823697.74249     -3230.50449        50.000  
 16 04 02 14 31  7.5000000  0  2G05G21                                          
  22628161.35949 118911789.82049     -6801.17649        50.000  
  23182340.53949 121824020.96949     -3234.39849        50.000  
 16 04 02 14 31  7.6000000  0  2G05G21                                          
  22628290.82849 118912470.19949     -6806.93849        50.000  
  23182402.11749 121824344.57049     -3238.17649        50.000  
 16 04 02 14 31  7.7000000  0  2G05G21                                          
  22628420.43049 118913151.24249     -6813.48449        50.000  
  23182463.78149 121824668.62549     -3242.63349        50.000  
 16 04 02 14 31  7.8000000  0  2G05G21                                          
  22628550.13349 118913832.80549     -6818.68049        50.000  
  23182525.50849 121824993.00849     -3245.82049        50.000  
 16 04 02 14 31  7.9000000  0  3G05G21G04                                       
  22628679.93849 118914514.94949     -6824.42649        50.000  
  23182587.30549 121825317.75849     -3249.47349        50.000  
  24369218.85249 128061108.93459    -11765.43049        49.000  
 16 04 02 14 31  8.0000000  0  3G05G21G04                                       
  22628809.85249 118915197.65649     -6830.02349        50.000  
  23182649.18049 121825642.87149     -3253.05949        50.000  
  24369442.75849 128062285.57449    -11767.33249        49.000  
 16 04 02 14 31  8.1000000  0  3G05G21G04                                       
  22628939.88349 118915880.93849     -6835.60949        50.000  
  23182711.11749 121825968.37549     -3256.84849        50.000  
  24369666.70349 128063462.45349    -11769.66849        49.000  
 16 04 02 14 31  8.2000000  0  3G05G21G04                                       
  22629070.01649 118916564.79349     -6841.59849        50.000  
  23182773.12549 121826294.23449     -3260.73049        50.000  
  24369890.69549 128064639.52749    -11771.79749        49.000  
 16 04 02 14 31  8.3000000  0  3G05G21G04                                       
  22629200.26649 118917249.29349     -6848.02049        50.000  
  23182835.21949 121826620.53549     -3265.09449        50.000  
  24370114.74249 128065816.89149    -11774.77049        49.000  
 16 04 02 14 31  8.4000000  0  3G05G21G04                                       
  22629330.64149 118917934.39149     -6853.91049        50.000  
  23182897.39149 121826947.23849     -3269.03549        50.000  
  24370338.83649 128066994.49249    -11777.00849        49.000  
 16 04 02 14 31  8.5000000  0  3G05G21G04                                       
  22629461.10949 118918620.03949     -6859.56249        50.000  
  23182959.64149 121827274.29749     -3272.67649        50.000  
  24370562.97749 128068172.29349    -11779.11749        49.000  
 16 04 02 14 31  8.6000000  0  3G05G21G04                                       
  22629591.68849 118919306.27049     -6865.32849        50.000  
  23183021.94549 121827601.72749     -3276.46549        50.000  
  24370787.14849 128069350.31249    -11781.28949        49.000  
 16 04 02 14 31  8.7000000  0  3G05G21G04                                       
  22629722.38349 118919993.03549     -6870.46949        50.000  
  23183084.32049 121827929.49249     -3279.50449        50.000  
  24371011.35249 128070528.51249    -11782.87149        49.000  
 16 04 02 14 31  8.8000000  0  3G05G21G04                                       
  22629853.18049 118920680.39549     -6876.50449        50.000  
  23183146.76649 121828257.65249     -3283.57049        50.000  
  24371235.60249 128071706.94149    -11785.23849        49.000  
 16 04 02 14 31  8.9000000  0  3G05G21G04                                       
  22629984.08649 118921368.34849     -6882.73049        50.000  
  23183209.28949 121828586.20749     -3287.71549        50.000  
  24371459.91449 128072885.60949    -11787.84849        49.000  
 16 04 02 14 31  9.0000000  0  3G05G21G04                                       
  22630115.12549 118922056.93049     -6888.75449        50.000  
  23183271.89849 121828915.18449     -3291.82849        50.000  
  24371684.25849 128074064.55149    -11790.50449        49.000  
 16 04 02 14 31  9.1000000  0  3G05G21G04                                       
  22630246.25849 118922746.00849     -6893.81249        50.000  
  23183334.55549 121829244.44949     -3294.68049        50.000  
  24371908.62549 128075243.61349    -11791.70349        49.000  
 16 04 02 14 31  9.2000000  0  3G05G21G04                                       
  22630377.50049 118923435.70749     -6900.01249        50.000  
  23183397.29749 121829574.14849     -3298.98049        50.000  
  24372133.04749 128076422.96149    -11794.45749        49.000  
 16 04 02 14 31  9.3000000  0  3G05G21G04                                       
  22630508.86749 118924126.02749     -6906.22749        50.000  
  23183460.11749 121829904.27049     -3303.25049        50.000  
  24372357.51649 128077602.56649    -11797.19549        49.000  
 16 04 02 14 31  9.4000000  0  3G05G21G04                                       
  22630640.33649 118924816.91849     -6911.98449        50.000  
  23183523.00049 121830234.75449     -3307.00049        50.000  
  24372582.02349 128078782.36749    -11799.21549        49.000  
 16 04 02 14 31  9.5000000  0  3G05G21G04                                       
  22630771.91449 118925508.39549     -6917.78549        50.000  
  23183585.96149 121830565.61349     -3310.64849        50.000  
  24372806.58649 128079962.41049    -11801.44949        49.000  
 16 04 02 14 31  9.6000000  0  3G05G21G04                                       
  22630903.60949 118926200.44949     -6923.46149        50.000  
  23183649.00049 121830896.86749     -3314.41049        50.000  
  24373031.18049 128081142.66849    -11803.47749        49.000  
 16 04 02 14 31  9.7000000  0  3G05G21G04                                       
  22631035.41449 118926893.04749     -6928.88349        50.000  
  23183712.09449 121831228.44949     -3317.82049        50.000  
  24373255.83649 128082323.11349    -11805.40649        49.000  
 16 04 02 14 31  9.8000000  0  3G05G21G04                                       
  22631167.32849 118927586.25449     -6935.02049        50.000  
  23183775.27349 121831560.44949     -3322.00849        50.000  
  24373480.51649 128083503.81649    -11808.11749        49.000  
 16 04 02 14 31  9.9000000  0  3G05G21G04                                       
  22631299.33649 118928280.00849     -6940.45749        50.000  
  23183838.51649 121831892.78549     -3325.32849        50.000  
  24373705.25849 128084684.69149    -11809.75849        49.000  
 16 04 02 14 31 10.0000000  0  3G05G21G04                                       
  22631431.46149 118928974.33649     -6946.19149        50.000  
  23183901.82049 121832225.51249     -3329.15649        50.000  
  24373930.01649 128085865.79749    -11812.01649        49.000  
 16 04 02 14 31 10.1000000  0  3G05G21G04                                       
  22631563.70349 118929669.28549     -6952.61349        50.000  
  23183965.21949 121832558.64149     -3333.41849        50.000  
  24374154.84449 128087047.16049    -11814.78149        49.000  
 16 04 02 14 31 10.2000000  0  3G05G21G04                                       
  22631696.05549 118930364.80549     -6958.26249        50.000  
  23184028.68049 121832892.14849     -3337.21149        50.000  
  24374379.69549 128088228.73049    -11816.88349        49.000  
 16 04 02 14 31 10.3000000  0  3G05G21G04                                       
  22631828.51649 118931060.89549     -6964.01249        50.000  
  23184092.21949 121833226.02349     -3340.97349        50.000  
  24374604.58649 128089410.51249    -11818.98849        49.000  
 16 04 02 14 31 10.4000000  0  3G05G21G04                                       
  22631961.10949 118931757.66449     -6970.87549        50.000  
  23184155.83649 121833560.37149     -3345.72749        50.000  
  24374829.53149 128090592.62549    -11822.34449        49.000  
 16 04 02 14 31 10.5000000  0  3G05G21G04                                       
  22632093.78149 118932454.89549     -6975.08249        50.000  
  23184219.51649 121833894.99649     -3347.96549        50.000  
  24375054.48449 128091774.83649    -11823.05149        49.000  
 16 04 02 14 31 10.6000000  0  3G05G21G04                                       
  22632226.57849 118933152.71149     -6981.30549        50.000  
  23184283.25849 121834229.98449     -3352.16849        50.000  
  24375279.50049 128092957.26249    -11825.47749        49.000  
 16 04 02 14 31 10.7000000  0  3G05G21G04                                       
  22632359.49249 118933851.17249     -6987.65249        50.000  
  23184347.08649 121834565.43449     -3356.50849        50.000  
  24375504.57049 128094139.98849    -11828.30549        49.000  
 16 04 02 14 31 10.8000000  0  3G05G21G04                                       
  22632492.50049 118934550.14149     -6992.74249        50.000  
  23184410.98449 121834901.18049     -3359.64549        50.000  
  24375729.66449 128095322.86349    -11829.89849        49.000  
 16 04 02 14 31 10.9000000  0  3G05G21G04                                       
  22632625.61749 118935249.71949     -6998.65249        50.000  
  23184474.94549 121835237.33249     -3363.41049        50.000  
  24375954.80549 128096505.98049    -11832.13349        49.000  
 16 04 02 14 31 11.0000000  0  3G05G21G04                                       
  22632758.85949 118935949.89849     -7004.76249        50.000  
  23184538.99249 121835573.90249     -3367.64549        50.000  
  24376179.99249 128097689.34849    -11834.63349        49.000  
 16 04 02 14 31 11.1000000  0  3G05G21G04                                       
  22632892.20349 118936650.62149     -7010.16049        50.000  
  23184603.10949 121835910.80149     -3370.98049        50.000  
  24376405.20349 128098872.90249    -11836.52349        49.000  
 16 04 02 14 31 11.2000000  0  3G05G21G04                                       
  22633025.65649 118937351.89849     -7015.65649        50.000  
  23184667.28949 121836248.06249     -3374.55549        50.000  
  24376630.46149 128100056.64849    -11838.44149        49.000  
 16 04 02 14 31 11.3000000  0  3G05G21G04                                       
  22633159.21149 118938053.74649     -7021.55949        49.000  
  23184731.53949 121836585.68049     -3378.32849        50.000  
  24376855.73449 128101240.60549    -11840.65249        49.000  
 16 04 02 14 31 11.4000000  0  3G05G21G04                                       
  22633292.89149 118938756.23049     -7027.85249        49.000  
  23184795.86749 121836923.74649     -3382.61349        50.000  
  24377081.08649 128102424.84049    -11843.34849        49.000  
 16 04 02 14 31 11.5000000  0  3G05G21G04                                       
  22633426.67249 118939459.21549     -7032.74649        49.000  
  23184860.25049 121837262.11349     -3385.53549        50.000  
  24377306.46149 128103609.22749    -11844.84449        49.000  
 16 04 02 14 31 11.6000000  0  3G05G21G04                                       
  22633560.56249 118940162.82049     -7039.17249        49.000  
  23184924.71949 121837600.89549     -3389.95749        50.000  
  24377531.89149 128104793.86749    -11847.50049        49.000  
 16 04 02 14 31 11.7000000  0  3G05G21G04                                       
  22633694.56249 118940867.02049     -7044.94549        49.000  
  23184989.26649 121837940.07049     -3393.81249        50.000  
  24377757.37549 128105978.74649    -11849.90249        49.000  
 16 04 02 14 31 11.8000000  0  3G05G21G04                                       
  22633828.68049 118941571.80949     -7050.96549        49.000  
  23185053.88349 121838279.63349     -3397.75849        50.000  
  24377982.89849 128107163.84849    -11852.18449        49.000  
 16 04 02 14 31 11.9000000  0  3G05G21G04                                       
  22633962.91449 118942277.16849     -7056.54349        49.000  
  23185118.57049 121838619.57449     -3401.38349        50.000  
  24378208.45349 128108349.17649    -11854.28149        49.000  
 16 04 02 14 31 12.0000000  0  3G05G21G04                                       
  22634097.25049 118942983.12149     -7062.68449        49.000  
  23185183.33649 121838959.89549     -3405.42649        50.000  
  24378434.05549 128109534.73049    -11856.69149        49.000  
 16 04 02 14 31 12.1000000  0  3G05G21G04                                       
  22634231.69549 118943689.64549     -7068.09849        49.000  
  23185248.16449 121839300.59449     -3408.89849        50.000  
  24378659.69549 128110720.49249    -11858.59849        49.000  
 16 04 02 14 31 12.2000000  0  3G05G21G04                                       
  22634366.24249 118944396.70749     -7073.57449        50.000  
  23185313.06249 121839641.63349     -3412.35949        50.000  
  24378885.37549 128111906.44149    -11860.46549        49.000  
 16 04 02 14 31 12.3000000  0  3G05G21G04                                       
  22634500.91449 118945104.40249     -7080.02349        49.000  
  23185378.03949 121839983.10549     -3416.80949        50.000  
  24379111.10949 128113092.66449    -11863.34049        49.000  
 16 04 02 14 31 12.4000000  0  3G05G21G04                                       
  22634635.69549 118945812.66449     -7085.63349        50.000  
  23185443.08649 121840324.93849     -3420.40249        50.000  
  24379336.88349 128114279.09449    -11865.41849        49.000  
 16 04 02 14 31 12.5000000  0  3G05G21G04                                       
  22634770.57049 118946521.46149     -7090.95349        49.000  
  23185508.20349 121840667.11349     -3423.74649        50.000  
  24379562.69549 128115465.70349    -11867.05149        49.000  
 16 04 02 14 31 12.6000000  0  3G05G21G04                                       
  22634905.57049 118947230.88749     -7097.13349        49.000  
  23185573.39849 121841009.71549     -3427.97749        50.000  
  24379788.55549 128116652.58649    -11869.78549        49.000  
 16 04 02 14 31 12.7000000  0  3G05G21G04                                       
  22635040.67249 118947940.87949     -7103.07449        49.000  
  23185638.66449 121841352.67649     -3431.86349        50.000  
  24380014.44549 128117839.67249    -11872.03149        49.000  
 16 04 02 14 31 12.8000000  0  3G05G21G04                                       
  22635175.89149 118948651.47349     -7108.92649        49.000  
  23185704.00849 121841696.04349     -3435.64849        50.000  
  24380240.38349 128119027.00049    -11874.32049        49.000  
 16 04 02 14 31 12.9000000  0  3G05G21G04                                       
  22635311.23449 118949362.69549     -7115.34449        49.000  
  23185769.43049 121842039.84849     -3440.15249        50.000  
  24380466.37549 128120214.60249    -11877.18849        49.000  
 16 04 02 14 31 13.0000000  0  3G05G21G04                                       
  22635446.68049 118950074.48849     -7121.03149        49.000  
  23185834.92249 121842384.00449     -3443.77749        50.000  
  24380692.41449 128121402.41849    -11879.30949        49.000  
 16 04 02 14 31 13.1000000  0  3G05G21G04                                       
  22635582.23449 118950786.82049     -7126.34049        49.000  
  23185900.49249 121842728.52349     -3447.16449        50.000  
  24380918.47749 128122590.41049    -11880.99649        49.000  
 16 04 02 14 31 13.2000000  0  3G05G21G04                                       
  22635717.89849 118951499.73449     -7132.01649        49.000  
  23185966.11749 121843073.39849     -3450.79349        50.000  
  24381144.58649 128123778.62149    -11883.09449        49.000  
 16 04 02 14 31 13.3000000  0  3G05G21G04                                       
  22635853.68049 118952213.22349     -7137.84849        49.000  
  23186031.82049 121843418.67249     -3454.78149        50.000  
  24381370.74249 128124967.05949    -11885.35949        49.000  
 16 04 02 14 31 13.4000000  0  3G05G21G04                                       
  22635989.57849 118952927.35549     -7144.35549        49.000  
  23186097.60949 121843764.37549     -3459.02049        50.000  
  24381596.95349 128126155.77349    -11888.15649        49.000  
 16 04 02 14 31 13.5000000  0  3G05G21G04                                       
  22636125.57049 118953642.01249     -7149.45749        50.000  
  23186163.45349 121844110.40649     -3462.31249        50.000  
  24381823.19549 128127344.65649    -11889.77349        49.000  
 16 04 02 14 31 13.6000000  0  3G05G21G04                                       
  22636261.68049 118954357.26249     -7155.42249        49.000  
  23186229.38349 121844456.83249     -3466.12949        50.000  
  24382049.47749 128128533.78149    -11892.15249        49.000  
 16 04 02 14 31 13.7000000  0  3G05G21G04                                       
  22636397.88349 118955073.05149     -7160.89549        50.000  
  23186295.36749 121844803.59449     -3469.70349        50.000  
  24382275.79749 128129723.07849    -11894.07849        49.000  
 16 04 02 14 31 13.8000000  0  3G05G21G04                                       
  22636534.21149 118955789.43849     -7166.92249        50.000  
  23186361.43049 121845150.75449     -3473.71149        50.000  
  24382502.16449 128130912.62549    -11896.51249        49.000  
 16 04 02 14 31 13.9000000  0  3G05G21G04                                       
  22636670.64849 118956506.43449     -7172.97749        50.000  
  23186427.56249 121845498.32049     -3477.67649        50.000  
  24382728.58649 128132102.41449    -11898.97749        49.000  
 16 04 02 14 31 14.0000000  0  3G05G21G04                                       
  22636807.19549 118957223.99249     -7178.52349        50.000  
  23186493.78149 121845846.27049     -3481.41449        50.000  
  24382955.03149 128133292.40649    -11900.93049        49.000  
 16 04 02 14 31 14.1000000  0  3G05G21G04                                       
  22636943.83649 118957942.06649     -7183.63749        50.000  
  23186560.04749 121846194.51249     -3484.38749        50.000  
  24383181.50049 128134482.56249    -11902.48049        49.000  
 16 04 02 14 31 14.2000000  0  3G05G21G04                                       
  22637080.60249 118958660.78149     -7190.18449        49.000  
  23186626.39849 121846543.20349     -3488.98849        50.000  
  24383408.03949 128135673.00049    -11905.46949        49.000  
 16 04 02 14 31 14.3000000  0  3G05G21G04                                       
  22637217.47749 118959380.08649     -7195.95349        49.000  
  23186692.83649 121846892.28949     -3492.85249        50.000  
  24383634.61749 128136863.66449    -11907.71549        49.000  
 16 04 02 14 31 14.4000000  0  3G05G21G04                                       
  22637354.45349 118960099.91449     -7201.25849        50.000  
  23186759.32049 121847241.69949     -3496.16049        50.000  
  24383861.22749 128138054.50049    -11909.37149        49.000  
 16 04 02 14 31 14.5000000  0  3G05G21G04                                       
  22637491.55549 118960820.37549     -7207.46949        50.000  
  23186825.89149 121847591.53149     -3500.28149        50.000  
  24384087.86749 128139245.60549    -11912.01249        49.000  
 16 04 02 14 31 14.6000000  0  3G05G21G04                                       
  22637628.75849 118961541.39149     -7213.21549        49.000  
  23186892.53149 121847941.73049     -3504.09449        50.000  
  24384314.56249 128140436.90249    -11914.05949        49.000  
 16 04 02 14 31 14.7000000  0  3G05G21G04                                       
  22637766.09449 118962263.05949     -7219.60549        50.000  
  23186959.25849 121848292.37549     -3508.43849        50.000  
  24384541.32049 128141628.50849    -11917.05149        49.000  
 16 04 02 14 31 14.8000000  0  3G05G21G04                                       
  22637903.52349 118962985.23849     -7224.71949        50.000  
  23187026.04749 121848643.32849     -3511.50449        50.000  
  24384768.10249 128142820.25849    -11918.62549        49.000  
 16 04 02 14 31 14.9000000  0  3G05G21G04                                       
  22638041.04749 118963707.94549     -7229.99649        50.000  
  23187092.89149 121848994.61749     -3514.86749        50.000  
  24384994.91449 128144012.17649    -11920.21949        49.000  
 16 04 02 14 31 15.0000000  0  3G05G21G04                                       
  22638178.69549 118964431.28549     -7236.33649        50.000  
  23187159.82049 121849346.33649     -3519.11349        50.000  
  24385221.77349 128145204.36349    -11922.84849        49.000  
 16 04 02 14 31 15.1000000  0  3G05G21G04                                       
  22638316.45349 118965155.18449     -7242.03949        50.000  
  23187226.81249 121849698.41849     -3522.82049        50.000  
  24385448.69549 128146396.77049    -11925.11749        49.000  
 16 04 02 14 31 15.2000000  0  3G05G21G04                                       
  22638454.31249 118965879.66449     -7247.80949        50.000  
  23187293.88349 121850050.87949     -3526.69549        50.000  
  24385675.64849 128147589.38349    -11927.25849        49.000  
 16 04 02 14 31 15.3000000  0  3G05G21G04                                       
  22638592.28149 118966604.68049     -7253.18849        49.000  
  23187361.02349 121850403.67649     -3530.02749        50.000  
  24385902.63349 128148782.17649    -11929.00449        49.000  
 16 04 02 14 31 15.4000000  0  3G05G21G04                                       
  22638730.38349 118967330.38349     -7260.18849        50.000  
  23187428.25049 121850756.96549     -3535.05149        50.000  
  24386129.68049 128149975.30549    -11932.39849        49.000  
 16 04 02 14 31 15.5000000  0  3G05G21G04                                       
  22638868.57049 118968056.61749     -7265.31649        50.000  
  23187495.53949 121851110.57849     -3538.14849        50.000  
  24386356.75049 128151168.59849    -11933.98049        49.000  
 16 04 02 14 31 15.6000000  0  3G05G21G04                                       
  22639006.87549 118968783.38349     -7270.69949        50.000  
  23187562.88349 121851464.52749     -3541.47749        50.000  
  24386583.85949 128152362.07049    -11935.70349        49.000  
 16 04 02 14 31 15.7000000  0  3G05G21G04                                       
  22639145.29749 118969510.77749     -7277.03949        50.000  
  23187630.31249 121851818.91049     -3545.98049        50.000  
  24386811.02349 128153555.81649    -11938.54749        49.000  
 16 04 02 14 31 15.8000000  0  3G05G21G04                                       
  22639283.83649 118970238.80949     -7283.03549        50.000  
  23187697.82849 121852173.73049     -3549.94549        50.000  
  24387038.23449 128154749.84049    -11941.13349        49.000  
 16 04 02 14 31 15.9000000  0  3G05G21G04                                       
  22639422.46949 118970967.31249     -7288.25849        50.000  
  23187765.39849 121852528.81649     -3552.99249        50.000  
  24387265.46949 128155943.96549    -11942.41449        49.000  
 16 04 02 14 31 16.0000000  0  3G05G21G04                                       
  22639561.21949 118971696.45749     -7294.44949        50.000  
  23187833.06249 121852884.35249     -3557.29349        50.000  
  24387492.75849 128157138.39149    -11945.17249        49.000  
 16 04 02 14 31 16.1000000  0  3G05G21G04                                       
  22639700.08649 118972426.18449     -7300.33249        50.000  
  23187900.78949 121853240.27749     -3561.35249        50.000  
  24387720.10249 128158333.03949    -11947.65249        49.000  
 16 04 02 14 31 16.2000000  0  3G05G21G04                                       
  22639839.04749 118973156.44149     -7305.50449        50.000  
  23187968.57849 121853596.51249     -3564.41049        50.000  
  24387947.46949 128159527.85249    -11949.14849        49.000  
 16 04 02 14 31 16.3000000  0  3G05G21G04                                       
  22639978.10949 118973887.23049     -7310.83249        50.000  
  23188036.43849 121853953.09449     -3567.69149        50.000  
  24388174.87549 128160722.84049    -11950.87949        49.000  
 16 04 02 14 31 16.4000000  0  3G05G21G04                                       
  22640117.29749 118974618.65249     -7317.09849        50.000  
  23188104.37549 121854310.10949     -3572.16049        50.000  
  24388402.32849 128161918.09449    -11953.48449        49.000  
 16 04 02 14 31 16.5000000  0  3G05G21G04                                       
  22640256.59449 118975350.62149     -7322.80149        50.000  
  23188172.38349 121854667.46149     -3575.61749        50.000  
  24388629.81249 128163113.55149    -11955.63749        49.000  
 16 04 02 14 31 16.6000000  0  3G05G21G04                                       
  22640395.99249 118976083.17649     -7328.39549        50.000  
  23188240.46149 121855025.23049     -3579.57449        50.000  
  24388857.34449 128164309.23449    -11957.88349        49.000  
 16 04 02 14 31 16.7000000  0  3G05G21G04                                       
  22640535.50849 118976816.33249     -7334.56249        50.000  
  23188308.61749 121855383.37149     -3583.55549        50.000  
  24389084.90649 128165505.15649    -11960.42249        49.000  
 16 04 02 14 31 16.8000000  0  3G05G21G04                                       
  22640675.11749 118977550.00849     -7339.54749        50.000  
  23188376.82849 121855741.84049     -3586.47749        50.000  
  24389312.51649 128166701.23449    -11961.73049        49.000  
 16 04 02 14 31 16.9000000  0  3G05G21G04                                       
  22640814.84449 118978284.25049     -7345.50049        50.000  
  23188445.10949 121856100.68449     -3590.35549        50.000  
  24389540.16449 128167897.52749    -11963.96549        49.000  
 16 04 02 14 31 17.0000000  0  3G05G21G04                                       
  22640954.68849 118979019.13749     -7351.94149        50.000  
  23188513.47749 121856459.96949     -3594.92249        50.000  
  24389767.86749 128169094.10549    -11966.85549        49.000  
 16 04 02 14 31 17.1000000  0  3G05G21G04                                       
  22641094.64849 118979754.60949     -7357.75449        50.000  
  23188581.92249 121856819.64149     -3598.90249        50.000  
  24389995.61749 128170290.91849    -11969.24649        49.000  
 16 04 02 14 31 17.2000000  0  3G05G21G04                                       
  22641234.71149 118980490.64849     -7363.38349        50.000  
  23188650.43049 121857179.69149     -3602.54749        50.000  
  24390223.39849 128171487.93849    -11971.30549        49.000  
 16 04 02 14 31 17.3000000  0  3G05G21G04                                       
  22641374.89149 118981227.28549     -7369.28549        50.000  
  23188719.01649 121857540.11349     -3606.27049        50.000  
  24390451.22749 128172685.18049    -11973.44949        49.000  
 16 04 02 14 31 17.4000000  0  3G05G21G04                                       
  22641515.17249 118981964.50449     -7375.24649        50.000  
  23188787.68049 121857900.94549     -3610.45349        50.000  
  24390679.10249 128173882.66849    -11976.05149        49.000  
 16 04 02 14 31 17.5000000  0  3G05G21G04                                       
  22641655.58649 118982702.32449     -7381.24249        50.000  
  23188856.41449 121858262.16449     -3614.12549        50.000  
  24390907.00849 128175080.38349    -11978.19149        49.000  
 16 04 02 14 31 17.6000000  0  3G05G21G04                                       
  22641796.08649 118983440.66049     -7386.13749        50.000  
  23188925.21149 121858623.70749     -3617.33649        50.000  
  24391134.96149 128176278.27349    -11979.89149        49.000  
 16 04 02 14 31 17.7000000  0  3G05G21G04                                       
  22641936.70349 118984179.56649     -7392.10249        50.000  
  23188994.08649 121858985.62549     -3621.21549        50.000  
  24391362.96949 128177476.35549    -11981.92649        49.000  
 16 04 02 14 31 17.8000000  0  3G05G21G04                                       
  22642077.41449 118984919.03149     -7397.44149        50.000  
  23189063.03149 121859347.90649     -3624.64149        50.000  
  24391590.99249 128178674.65249    -11983.79349        49.000  
 16 04 02 14 31 17.9000000  0  3G05G21G04                                       
  22642218.24249 118985659.10949     -7403.60949        50.000  
  23189132.04749 121859710.58649     -3628.71549        50.000  
  24391819.05549 128179873.19149    -11986.34449        49.000  
 16 04 02 14 31 18.0000000  0  3G05G21G04                                       
  22642359.18849 118986399.75849     -7409.61749        50.000  
  23189201.14149 121860073.64849     -3632.75849        50.000  
  24392047.18049 128181071.96149    -11988.78949        49.000  
 16 04 02 14 31 18.1000000  0  3G05G21G04                                       
  22642500.23449 118987140.95349     -7414.94949        50.000  
  23189270.29749 121860437.06249     -3636.23849        50.000  
  24392275.34449 128182270.91049    -11990.52349        49.000  
 16 04 02 14 31 18.2000000  0  3G05G21G04                                       
  22642641.39849 118987882.78149     -7421.21549        50.000  
  23189339.53149 121860800.89849     -3640.41849        50.000  
  24392503.54749 128183470.12949    -11993.15249        49.000  
 16 04 02 14 31 18.3000000  0  3G05G21G04                                       
  22642782.66449 118988625.15249     -7426.80549        50.000  
  23189408.82049 121861165.08649     -3644.02049        50.000  
  24392731.78949 128184669.54349    -11995.23449        49.000  
 16 04 02 14 31 18.4000000  0  3G05G21G04                                       
  22642924.04749 118989368.12149     -7432.35949        50.000  
  23189478.20349 121861529.67649     -3647.67249        50.000  
  24392960.07049 128185869.18849    -11997.22349        49.000  
 16 04 02 14 31 18.5000000  0  3G05G21G04                                       
  22643065.53149 118990111.65649     -7438.49249        50.000  
  23189547.64849 121861894.62949     -3651.70749        50.000  
  24393188.39849 128187069.04349    -11999.69149        49.000  
 16 04 02 14 31 18.6000000  0  3G05G21G04                                       
  22643207.13349 118990855.75449     -7443.93049        50.000  
  23189617.17249 121862259.95749     -3655.23449        50.000  
  24393416.76649 128188269.10949    -12001.61749        49.000  
 16 04 02 14 31 18.7000000  0  3G05G21G04                                       
  22643348.82849 118991600.40649     -7449.54349        50.000  
  23189686.75049 121862625.62149     -3658.73849        50.000  
  24393645.16449 128189469.36749    -12003.64849        49.000  
 16 04 02 14 31 18.8000000  0  3G05G21G04                                       
  22643490.64149 118992345.64149     -7455.13749        50.000  
  23189756.41449 121862991.68449     -3662.49249        50.000  
  24393873.60949 128190669.84449    -12005.66449        49.000  
 16 04 02 14 31 18.9000000  0  3G05G21G04                                       
  22643632.57049 118993091.45349     -7461.16449        50.000  
  23189826.14149 121863358.12949     -3666.45349        50.000  
  24394102.10249 128191870.55149    -12008.02749        49.000  
 16 04 02 14 31 19.0000000  0  3G05G21G04                                       
  22643774.60249 118993837.84849     -7466.87949        50.000  
  23189895.94549 121863724.94949     -3670.14549        50.000  
  24394330.63349 128193071.48449    -12010.35249        49.000  
 16 04 02 14 31 19.1000000  0  3G05G21G04                                       
  22643916.73449 118994584.77349     -7472.47349        50.000  
  23189965.81249 121864092.10949     -3673.83649        50.000  
  24394559.20349 128194272.58249    -12012.16049        49.000  
 16 04 02 14 31 19.2000000  0  3G05G21G04                                       
  22644058.99249 118995332.34449     -7478.48449        50.000  
  23190035.77349 121864459.71149     -3677.90249        50.000  
  24394787.82049 128195473.97749    -12014.86349        49.000  
 16 04 02 14 31 19.3000000  0  3G05G21G04                                       
  22644201.35249 118996080.42649     -7483.65249        50.000  
  23190105.78949 121864827.62549     -3681.16049        50.000  
  24395016.46949 128196675.50449    -12016.29749        49.000  
 16 04 02 14 31 19.4000000  0  3G05G21G04                                       
  22644343.82049 118996829.14149     -7490.27349        50.000  
  23190175.87549 121865195.96549     -3685.68849        50.000  
  24395245.16449 128197877.31649    -12019.24249        49.000  
 16 04 02 14 31 19.5000000  0  3G05G21G04                                       
  22644486.40649 118997578.41849     -7495.82849        50.000  
  23190246.04749 121865564.69549     -3689.39549        50.000  
  24395473.92249 128199079.34049    -12021.37149        49.000  
 16 04 02 14 31 19.6000000  0  3G05G21G04                                       
  22644629.10249 118998328.25449     -7501.30949        50.000  
  23190316.27349 121865933.75849     -3692.57849        50.000  
  24395702.69549 128200281.56649    -12023.23449        49.000  
 16 04 02 14 31 19.7000000  0  3G05G21G04                                       
  22644771.88349 118999078.62549     -7506.62549        50.000  
  23190386.57849 121866303.18049     -3696.19549        50.000  
  24395931.50849 128201483.96149    -12024.98049        49.000  
 16 04 02 14 31 19.8000000  0  3G05G21G04                                       
  22644914.78149 118999829.54749     -7512.14149        50.000  
  23190456.93849 121866672.94549     -3699.59449        50.000  
  24396160.35249 128202686.54749    -12026.73049        49.000  
 16 04 02 14 31 19.9000000  0  4G20G05G21G04                                    
  21732042.35949 114202652.68459     14828.03149        49.000  
  22645057.79749 119000581.11749     -7518.57049        50.000  
  23190527.39149 121867043.15649     -3704.07049        50.000  
  24396389.25849 128203889.43849    -12029.77749        49.000  
 16 04 02 14 31 20.0000000  0  4G20G05G21G04                                    
  21731760.25049 114201170.18049     14821.99649        49.000  
  22645200.93049 119001333.24649     -7524.23049        50.000  
  23190597.90649 121867413.73449     -3707.75849        50.000  
  24396618.19549 128205092.51649    -12031.82449        49.000  
 16 04 02 14 31 20.1000000  0  4G20G05G21G04                                    
  21731478.21149 114199688.26249     14816.11349        49.000  
  22645344.15649 119002085.90649     -7529.63749        50.000  
  23190668.49249 121867784.65649     -3711.34049        50.000  
  24396847.17249 128206295.78149    -12033.74649        49.000  
 16 04 02 14 31 20.2000000  0  4G20G05G21G04                                    
  21731196.32849 114198206.96149     14810.11349        49.000  
  22645487.49249 119002839.15249     -7535.13349        50.000  
  23190739.14849 121868155.94949     -3714.68449        50.000  
  24397076.18849 128207499.26649    -12035.73849        49.000  
 16 04 02 14 31 20.3000000  0  4G20G05G21G04                                    
  21730914.54749 114196726.25849     14803.92649        49.000  
  22645630.93049 119003592.96549     -7541.19149        50.000  
  23190809.87549 121868527.61349     -3718.85949        50.000  
  24397305.25049 128208702.94949    -12038.08249        49.000  
 16 04 02 14 31 20.4000000  0  4G20G05G21G04                                    
  21730632.90649 114195246.21949     14797.46149        49.000  
  22645774.49249 119004347.39149     -7547.09049        50.000  
  23190880.68049 121868899.69949     -3722.81249        50.000  
  24397534.35949 128209906.89849    -12040.48849        49.000  
 16 04 02 14 31 20.5000000  0  4G20G05G21G04                                    
  21730351.39149 114193766.76249     14791.60949        49.000  
  22645918.15649 119005102.34449     -7552.50849        50.000  
  23190951.54749 121869272.12149     -3726.19149        50.000  
  24397763.50049 128211111.02049    -12042.28549        49.000  
 16 04 02 14 31 20.6000000  0  4G20G05G21G04                                    
  21730069.97749 114192287.91849     14785.39849        49.000  
  22646061.93049 119005857.88749     -7558.41849        50.000  
  23191022.48449 121869644.91449     -3730.18449        50.000  
  24397992.68049 128212315.35949    -12044.42649        49.000  
 16 04 02 14 31 20.7000000  0  4G20G05G21G04                                    
  21729788.70349 114190809.74649     14778.65249        49.000  
  22646205.82049 119006614.05949     -7564.78549        50.000  
  23191093.50849 121870018.14849     -3734.40649        50.000  
  24398221.90649 128213519.98449    -12047.26649        49.000  
 16 04 02 14 31 20.8000000  0  4G20G05G21G04                                    
  21729507.53949 114189332.21949     14772.21549        49.000  
  22646349.82849 119007370.82049     -7570.77049        50.000  
  23191164.60249 121870391.77349     -3738.46549        50.000  
  24398451.18849 128214724.83249    -12049.64849        49.000  
 16 04 02 14 31 20.9000000  0  4G20G05G21G04                                    
  21729226.47749 114187855.30149     14766.19549        49.000  
  22646493.93849 119008128.16049     -7576.33249        50.000  
  23191235.77349 121870765.78549     -3742.03949        50.000  
  24398680.50849 128215929.90649    -12051.74249        49.000  
 16 04 02 14 31 21.0000000  0  4G20G05G21G04                                    
  21728945.53949 114186378.93849     14760.55949        49.000  
  22646638.14849 119008885.99649     -7581.33649        49.000  
  23191307.00049 121871140.09449     -3745.12549        50.000  
  24398909.85249 128217135.12149    -12053.20749        49.000  
 16 04 02 14 31 21.1000000  0  4G20G05G21G04                                    
  21728664.72749 114184903.18849     14754.70349        49.000  
  22646782.47749 119009644.43049     -7586.97349        50.000  
  23191378.30549 121871514.80149     -3748.74649        50.000  
  24399139.25049 128218340.57049    -12055.25849        49.000  
 16 04 02 14 31 21.2000000  0  4G20G05G21G04                                    
  21728384.01649 114183428.03149     14748.65249        49.000  
  22646926.90649 119010403.39549     -7592.54349        50.000  
  23191449.67249 121871889.83649     -3752.32049        50.000  
  24399368.67249 128219546.19549    -12057.23449        49.000  
 16 04 02 14 31 21.3000000  0  4G20G05G21G04                                    
  21728103.40649 114181953.48449     14742.43049        49.000  
  22647071.43849 119011162.92649     -7598.36349        50.000  
  23191521.10249 121872265.25049     -3756.18049        50.000  
  24399598.12549 128220752.02749    -12059.39549        49.000  
 16 04 02 14 31 21.4000000  0  4G20G05G21G04                                    
  21727822.93849 114180479.63749     14735.56649        49.000  
  22647216.10249 119011923.13349     -7604.93449        50.000  
  23191592.63349 121872641.13749     -3760.77349        50.000  
  24399827.64849 128221958.18449    -12062.46949        49.000  
 16 04 02 14 31 21.5000000  0  4G20G05G21G04                                    
  21727542.56249 114179006.37949     14729.36749        49.000  
  22647360.85949 119012683.86349     -7610.58249        50.000  
  23191664.21949 121873017.34849     -3764.46949        50.000  
  24400057.20349 128223164.49649    -12064.47749        49.000  
 16 04 02 14 31 21.6000000  0  4G20G05G21G04                                    
  21727262.34449 114177533.80949     14722.60949        49.000  
  22647505.74249 119013445.23849     -7616.74649        50.000  
  23191735.89849 121873394.02349     -3768.75049        50.000  
  24400286.81249 128224371.10249    -12067.14549        49.000  
 16 04 02 14 31 21.7000000  0  4G20G05G21G04                                    
  21726982.21149 114176061.80149     14716.98449        49.000  
  22647650.73449 119014207.16849     -7622.29349        50.000  
  23191807.64149 121873771.02349     -3772.10949        50.000  
  24400516.45349 128225577.89549    -12068.97349        49.000  
 16 04 02 14 31 21.8000000  0  4G20G05G21G04                                    
  21726702.23449 114174590.48849     14710.03149        49.000  
  22647795.84449 119014969.71549     -7628.50849        50.000  
  23191879.45349 121874148.47349     -3776.57449        50.000  
  24400746.14849 128226784.96549    -12071.79749        49.000  
 16 04 02 14 31 21.9000000  0  4G20G05G21G04                                    
  21726422.39849 114173119.76649     14704.24649        49.000  
  22647941.06249 119015732.83649     -7634.17249        50.000  
  23191951.34449 121874526.27749     -3780.03949        50.000  
  24400975.89149 128227992.22749    -12073.70749        49.000  
 16 04 02 14 31 22.0000000  0  4G20G05G21G04                                    
  21726142.64149 114171649.63749     14698.32049        49.000  
  22648086.38349 119016496.48049     -7639.44549        50.000  
  23192023.30549 121874904.43049     -3783.57849        50.000  
  24401205.65649 128229199.68049    -12075.55149        49.000  
 16 04 02 14 31 22.1000000  0  4G20G05G21G04                                    
  21725863.02349 114170180.14149     14692.05549        49.000  
  22648231.82049 119017260.73049     -7645.39149        50.000  
  23192095.34449 121875282.97349     -3787.47349        50.000  
  24401435.47749 128230407.36349    -12077.81249        49.000  
 16 04 02 14 31 22.2000000  0  4G20G05G21G04                                    
  21725583.50849 114168711.27749     14685.46549        49.000  
  22648377.35949 119018025.55949     -7651.50049        50.000  
  23192167.45349 121875661.91049     -3791.63749        50.000  
  24401665.33649 128231615.28149    -12080.38349        49.000  
 16 04 02 14 31 22.3000000  0  4G20G05G21G04                                    
  21725304.12549 114167243.07049     14679.11749        49.000  
  22648523.00849 119018791.02049     -7657.48849        50.000  
  23192239.63349 121876041.26649     -3795.56649        50.000  
  24401895.24249 128232823.45749    -12082.77049        49.000  
 16 04 02 14 31 22.4000000  0  4G20G05G21G04                                    
  21725024.84449 114165775.44149     14673.26649        49.000  
  22648668.77349 119019557.00849     -7662.86749        50.000  
  23192311.89149 121876420.96549     -3799.05549        50.000  
  24402125.18049 128234031.80949    -12084.63349        49.000  
 16 04 02 14 31 22.5000000  0  4G20G05G21G04                                    
  21724745.70349 114164308.46949     14666.68049        49.000  
  22648814.65649 119020323.59449     -7668.88349        50.000  
  23192384.21949 121876801.06649     -3803.04749        50.000  
  24402355.17249 128235240.41449    -12087.14849        49.000  
 16 04 02 14 31 22.6000000  0  4G20G05G21G04                                    
  21724466.66449 114162842.09449     14660.91849        49.000  
  22648960.64849 119021090.76249     -7674.41849        50.000  
  23192456.62549 121877181.54749     -3806.59449        50.000  
  24402585.20349 128236449.22749    -12089.03549        49.000  
 16 04 02 14 31 22.7000000  0  4G20G05G21G04                                    
  21724187.73449 114161376.29349     14655.07449        49.000  
  22649106.73449 119021858.43449     -7679.75449        50.000  
  23192529.08649 121877562.32849     -3810.00849        50.000  
  24402815.23449 128237658.18449    -12090.63349        49.000  
 16 04 02 14 31 22.8000000  0  4G20G05G21G04                                    
  21723908.93849 114159911.17649     14648.16449        49.000  
  22649252.93849 119022626.76649     -7686.20349        50.000  
  23192601.63349 121877943.58249     -3814.53149        50.000  
  24403045.35249 128238867.46549    -12093.71149        49.000  
 16 04 02 14 31 22.9000000  0  4G20G05G21G04                                    
  21723630.26649 114158446.71149     14641.63349        49.000  
  22649399.25849 119023395.68849     -7692.28149        50.000  
  23192674.25849 121878325.23049     -3818.61349        50.000  
  24403275.52349 128240076.96149    -12096.12149        49.000  
 16 04 02 14 31 23.0000000  0  4G20G05G21G04                                    
  21723351.70349 114156982.84049     14635.62949        49.000  
  22649545.68049 119024165.17249     -7697.78549        50.000  
  23192746.94549 121878707.23449     -3822.14549        50.000  
  24403505.71949 128241286.66849    -12098.21949        49.000  
 16 04 02 14 31 23.1000000  0  4G20G05G21G04                                    
  21723073.23449 114155519.55549     14629.82449        49.000  
  22649692.21149 119024935.18849     -7703.14849        50.000  
  23192819.71149 121879089.59049     -3825.50449        50.000  
  24403735.96149 128242496.55549    -12099.93449        49.000  
 16 04 02 14 31 23.2000000  0  4G20G05G21G04                                    
  21722794.89849 114154056.88749     14623.81249        49.000  
  22649838.85249 119025705.79349     -7708.75849        50.000  
  23192892.53949 121879472.32049     -3829.19549        50.000  
  24403966.23449 128243706.65249    -12101.96549        49.000  
 16 04 02 14 31 23.3000000  0  4G20G05G21G04                                    
  21722516.68049 114152594.75449     14618.46949        49.000  
  22649985.57849 119026476.88349     -7713.70749        49.000  
  23192965.42249 121879855.34449     -3832.20749        50.000  
  24404196.53149 128244916.88749    -12103.23849        49.000  
 16 04 02 14 31 23.4000000  0  4G20G05G21G04                                    
  21722238.56249 114151133.25849     14612.14149        49.000  
  22650132.42249 119027248.56649     -7719.67249        50.000  
  23193038.38349 121880238.75449     -3835.94949        50.000  
  24404426.87549 128246127.35249    -12105.44149        49.000  
 16 04 02 14 31 23.5000000  0  4G20G05G21G04                                    
  21721960.57849 114149672.41049     14605.41449        49.000  
  22650279.38349 119028020.85949     -7725.99249        49.000  
  23193111.43049 121880622.59449     -3840.41049        50.000  
  24404657.27349 128247338.08249    -12108.37549        49.000  
 16 04 02 14 31 23.6000000  0  4G20G05G21G04                                    
  21721682.71149 114148212.19949     14599.04749        49.000  
  22650426.45349 119028793.72349     -7731.65249        49.000  
  23193184.54749 121881006.80549     -3844.17249        50.000  
  24404887.71149 128248549.03149    -12110.57049        49.000  
 16 04 02 14 31 23.7000000  0  4G20G05G21G04                                    
  21721404.95349 114146752.55949     14593.19549        49.000  
  22650573.62549 119029567.12549     -7737.18449        50.000  
  23193257.71949 121881391.35549     -3847.71549        50.000  
  24405118.17249 128249760.15649    -12112.46149        49.000  
 16 04 02 14 31 23.8000000  0  4G20G05G21G04                                    
  21721127.32849 114145293.59849     14586.52049        49.000  
  22650720.92249 119030341.16849     -7743.46149        50.000  
  23193330.98449 121881776.35249     -3852.07449        50.000  
  24405348.69549 128250971.55549    -12115.09849        49.000  
 16 04 02 14 31 23.9000000  0  4G20G05G21G04                                    
  21720849.81249 114143835.32449     14579.54749        49.000  
  22650868.34449 119031115.85549     -7749.97749        50.000  
  23193404.32849 121882161.78549     -3856.60249        50.000  
  24405579.26649 128252183.23449    -12118.06649        49.000  
 16 04 02 14 31 24.0000000  0  4G20G05G21G04                                    
  21720572.43049 114142377.67249     14573.40649        49.000  
  22651015.86749 119031891.11349     -7755.61749        50.000  
  23193477.75049 121882547.61349     -3860.41849        50.000  
  24405809.89149 128253395.14149    -12120.16449        49.000  
 16 04 02 14 31 24.1000000  0  4G20G05G21G04                                    
  21720295.14849 114140920.57849     14567.94549        49.000  
  22651163.49249 119032666.89549     -7760.82449        50.000  
  23193551.22749 121882933.73849     -3863.48449        50.000  
  24406040.53149 128254607.20749    -12121.81649        49.000  
 16 04 02 14 31 24.2000000  0  4G20G05G21G04                                    
  21720018.00849 114139464.17249     14561.21549        49.000  
  22651311.24249 119033443.30549     -7766.91049        50.000  
  23193624.79749 121883320.32449     -3867.68849        50.000  
  24406271.22749 128255819.54349    -12124.29349        49.000  
 16 04 02 14 31 24.3000000  0  4G20G05G21G04                                    
  21719740.99249 114138008.44949     14554.00449        49.000  
  22651459.10949 119034220.35949     -7773.73449        50.000  
  23193698.43849 121883707.34049     -3872.51649        50.000  
  24406501.98449 128257032.17249    -12127.47749        49.000  
 16 04 02 14 31 24.4000000  0  4G20G05G21G04                                    
  21719464.08649 114136553.28149     14548.88349        49.000  
  22651607.07849 119034997.93449     -7778.50049        50.000  
  23193772.14849 121884094.68849     -3875.15249        50.000  
  24406732.76649 128258244.96149    -12128.78149        49.000  
 16 04 02 14 31 24.5000000  0  4G20G05G21G04                                    
  21719187.29749 114135098.69549     14542.99649        49.000  
  22651755.14149 119035776.02349     -7783.86349        50.000  
  23193845.93049 121884482.35549     -3878.65249        50.000  
  24406963.57849 128259457.90649    -12130.46149        49.000  
 16 04 02 14 31 24.6000000  0  4G20G05G21G04                                    
  21718910.62549 114133644.77049     14536.28949        49.000  
  22651903.32849 119036554.74649     -7790.16849        50.000  
  23193919.78149 121884870.45349     -3883.05549        50.000  
  24407194.44549 128260671.12549    -12133.11749        49.000  
 16 04 02 14 31 24.7000000  0  4G20G05G21G04                                    
  21718634.06249 114132191.41449     14530.59049        49.000  
  22652051.61749 119037334.00449     -7795.44149        50.000  
  23193993.69549 121885258.88349     -3886.15249        50.000  
  24407425.35249 128261884.52349    -12134.91449        49.000  
 16 04 02 14 31 24.8000000  0  4G20G05G21G04                                    
  21718357.60949 114130738.65649     14524.74649        49.000  
  22652200.00049 119038113.78949     -7800.67249        50.000  
  23194067.67249 121885647.66049     -3889.68449        50.000  
  24407656.28949 128263098.09049    -12136.52349        49.000  
 16 04 02 14 31 24.9000000  0  4G20G05G21G04                                    
  21718081.29749 114129286.54749     14518.09449        49.000  
  22652348.50849 119038894.19149     -7806.91849        50.000  
  23194141.73449 121886036.84849     -3893.81649        50.000  
  24407887.28949 128264311.92249    -12139.30549        49.000  
 16 04 02 14 31 25.0000000  0  4G20G05G21G04                                    
  21717805.08649 114127835.05949     14511.86349        49.000  
  22652497.12549 119039675.16849     -7812.83249        50.000  
  23194215.86749 121886426.41849     -3897.72349        50.000  
  24408118.31249 128265525.96149    -12141.43449        49.000  
 16 04 02 14 31 25.1000000  0  4G20G05G21G04                                    
  21717529.00049 114126384.16449     14506.00849        49.000  
  22652645.83649 119040456.68849     -7818.05149        50.000  
  23194290.06249 121886816.33249     -3901.01249        50.000  
  24408349.36749 128266740.19549    -12143.29749        49.000  
 16 04 02 14 31 25.2000000  0  4G20G05G21G04                                    
  21717253.00849 114124933.80549     14500.73849        49.000  
  22652794.64849 119041238.70349     -7822.89149        50.000  
  23194364.31249 121887206.54749     -3903.94149        50.000  
  24408580.45349 128267954.56249    -12144.57449        49.000  
 16 04 02 14 31 25.3000000  0  4G20G05G21G04                                    
  21716977.13349 114123484.10549     14494.17649        49.000  
  22652943.57849 119042021.33249     -7829.10949        50.000  
  23194438.65649 121887597.18849     -3908.30149        50.000  
  24408811.59449 128269169.18849    -12147.16449        49.000  
 16 04 02 14 31 25.4000000  0  4G20G05G21G04                                    
  21716701.39149 114122035.08249     14487.28149        49.000  
  22653092.62549 119042804.59449     -7835.63349        50.000  
  23194513.07849 121887988.25049     -3912.65649        50.000  
  24409042.78149 128270384.09049    -12150.03549        49.000  
 16 04 02 14 31 25.5000000  0  4G20G05G21G04                                    
  21716425.77349 114120586.67649     14480.87949        49.000  
  22653241.78149 119043588.41849     -7841.38749        50.000  
  23194587.56249 121888379.68849     -3916.67249        50.000  
  24409274.03149 128271599.19949    -12152.38349        49.000  
 16 04 02 14 31 25.6000000  0  4G20G05G21G04                                    
  21716150.27349 114119138.90249     14474.71549        49.000  
  22653391.05549 119044372.84449     -7847.30149        50.000  
  23194662.12549 121888771.52049     -3920.46949        50.000  
  24409505.30549 128272814.53949    -12154.50449        49.000  
 16 04 02 14 31 25.7000000  0  4G20G05G21G04                                    
  21715874.89849 114117691.75049     14468.50849        49.000  
  22653540.43849 119045157.82849     -7852.85249        50.000  
  23194736.75849 121889163.72749     -3924.08649        50.000  
  24409736.60949 128274030.09849    -12156.62949        49.000  
 16 04 02 14 31 25.8000000  0  4G20G05G21G04                                    
  21715599.62549 114116245.21549     14462.39849        49.000  
  22653689.92249 119045943.40249     -7858.71149        50.000  
  23194811.46149 121889556.31649     -3927.77049        50.000  
  24409967.96949 128275245.87149    -12158.72349        49.000  
 16 04 02 14 31 25.9000000  0  4G20G05G21G04                                    
  21715324.49249 114114799.30549     14456.07049        49.000  
  22653839.51649 119046729.53949     -7864.44949        50.000  
  23194886.24249 121889949.28549     -3931.73849        50.000  
  24410199.35249 128276461.86749    -12161.02749        49.000  
 16 04 02 14 31 26.0000000  0  4G20G05G21G04                                    
  21715049.45349 114113353.96949     14450.50449        49.000  
  22653989.21949 119047516.21149     -7869.53149        50.000  
  23194961.07849 121890342.58649     -3934.86749        50.000  
  24410430.78149 128277678.02749    -12162.55149        49.000  
 16 04 02 14 31 26.1000000  0  4G20G05G21G04                                    
  21714774.53949 114111909.30949     14443.62149        49.000  
  22654139.03949 119048303.52049     -7876.03949        50.000  
  23195036.00049 121890736.32049     -3939.35249        50.000  
  24410662.25849 128278894.46549    -12165.34049        49.000  
 16 04 02 14 31 26.2000000  0  4G20G05G21G04                                    
  21714499.75049 114110465.27049     14437.26649        49.000  
  22654288.96149 119049091.38749     -7881.88749        50.000  
  23195111.00049 121891130.43449     -3943.33649        50.000  
  24410893.78149 128280111.11749    -12167.64849        49.000  
 16 04 02 14 31 26.3000000  0  4G20G05G21G04                                    
  21714225.05549 114109021.85549     14431.12949        49.000  
