     2.10           OBSERVATION DATA    G (GPS)             RINEX VERSION / TYPE
Convert v1.8.0                          09-Jun-2016 15:01   PGM / RUN BY / DATE 
Signal Strength values S1,S2 are in dBHz                    COMMENT             
                                                            MARKER NAME         
                                                            MARKER NUMBER       
                                                            OBSERVER / AGENCY   
                    NovAtel GPSCard                         REC # / TYPE / VERS 
                                                            ANT # / TYPE        
0.0000        0.0000        0.0000                          APPROX POSITION XYZ 
        0.0000        0.0000        0.0000                  ANTENNA: DELTA H/E/N
     1     0                                                WAVELENGTH FACT L1/2
     1     0     4   G04   G16   G26   G31                  WAVELENGTH FACT L1/2
                                                            COMMENT             
                                                            COMMENT             
                                                            COMMENT             
                                                            COMMENT             
                                                            COMMENT             
                                                            COMMENT             
     4    C1    L1    D1    S1                              # / TYPES OF OBSERV 
     0.100                                                  INTERVAL            
  2016    04    02    12    31     7.2000000    GPS         TIME OF FIRST OBS   
  2016    04    02    12    33    23.7000000    GPS         TIME OF LAST OBS    
Leap Seconds Unknown                                        COMMENT             
                                                            END OF HEADER       
 16 04 02 12 31  7.2000000  0  1G16                                             
  22356520.81249 117484309.71959      1146.81649        49.000  
 16 04 02 12 31  7.3000000  0  1G16                                             
  22356499.01649 117484195.18449      1143.14849        49.000  
 16 04 02 12 31  7.4000000  0  1G16                                             
  22356477.29749 117484081.05949      1139.28549        49.000  
 16 04 02 12 31  7.5000000  0  1G16                                             
  22356455.66449 117483967.39549      1134.51249        49.000  
 16 04 02 12 31  7.6000000  0  1G16                                             
  22356434.11749 117483854.16049      1130.05149        49.000  
 16 04 02 12 31  7.7000000  0  1G16                                             
  22356412.66449 117483741.42649      1125.11749        49.000  
 16 04 02 12 31  7.8000000  0  1G16                                             
  22356391.26649 117483629.02349      1121.84449        49.000  
 16 04 02 12 31  7.9000000  0  1G16                                             
  22356369.97749 117483517.13349      1116.60249        49.000  
 16 04 02 12 31  8.0000000  0  1G16                                             
  22356348.76649 117483405.69549      1112.43049        49.000  
 16 04 02 12 31  8.1000000  0  1G16                                             
  22356327.62549 117483294.61749      1108.67649        49.000  
 16 04 02 12 31  8.2000000  0  1G16                                             
  22356306.59449 117483184.04749      1103.48049        49.000  
 16 04 02 12 31  8.3000000  0  1G16                                             
  22356285.64149 117483073.96149      1098.37149        49.000  
 16 04 02 12 31  8.4000000  0  1G16                                             
  22356264.78149 117482964.34449      1093.96549        49.000  
 16 04 02 12 31  8.5000000  0  1G16                                             
  22356244.00049 117482855.14849      1089.79749        49.000  
 16 04 02 12 31  8.6000000  0  1G16                                             
  22356223.29749 117482746.36349      1085.57449        49.000  
 16 04 02 12 31  8.7000000  0  1G16                                             
  22356202.69549 117482638.07849      1080.69149        49.000  
 16 04 02 12 31  8.8000000  0  1G16                                             
  22356182.17249 117482530.23049      1076.11349        49.000  
 16 04 02 12 31  8.9000000  0  1G16                                             
  22356161.74249 117482422.84449      1071.61749        49.000  
 16 04 02 12 31  9.0000000  0  1G16                                             
  22356141.38349 117482315.89549      1067.25049        49.000  
 16 04 02 12 31  9.1000000  0  1G16                                             
  22356121.11749 117482209.36749      1063.02349        49.000  
 16 04 02 12 31  9.2000000  0  1G16                                             
  22356100.93849 117482103.24249      1059.29749        49.000  
 16 04 02 12 31  9.3000000  0  1G16                                             
  22356080.82049 117481997.55949      1054.62949        49.000  
 16 04 02 12 31  9.4000000  0  1G16                                             
  22356060.80549 117481892.37149      1049.55549        49.000  
 16 04 02 12 31  9.5000000  0  1G16                                             
  22356040.88349 117481787.68049      1044.37149        49.000  
 16 04 02 12 31  9.6000000  0  1G16                                             
  22356021.04749 117481683.42249      1040.16449        49.000  
 16 04 02 12 31  9.7000000  0  1G16                                             
  22356001.29749 117481579.64549      1035.32849        49.000  
 16 04 02 12 31  9.8000000  0  1G16                                             
  22355981.63349 117481476.30549      1031.16849        49.000  
 16 04 02 12 31  9.9000000  0  1G16                                             
  22355962.04749 117481373.39149      1026.91849        49.000  
 16 04 02 12 31 10.0000000  0  1G16                                             
  22355942.55549 117481270.95749      1022.21149        49.000  
 16 04 02 12 31 10.1000000  0  1G16                                             
  22355923.13349 117481168.88749      1018.44149        49.000  
 16 04 02 12 31 10.2000000  0  1G16                                             
  22355903.80549 117481067.27049      1013.97349        49.000  
 16 04 02 12 31 10.3000000  0  1G16                                             
  22355884.54749 117480966.05549      1009.96549        49.000  
 16 04 02 12 31 10.4000000  0  1G16                                             
  22355865.36749 117480865.25849      1005.71549        49.000  
 16 04 02 12 31 10.5000000  0  1G16                                             
  22355846.28149 117480764.95349      1000.83649        49.000  
 16 04 02 12 31 10.6000000  0  1G16                                             
  22355827.28149 117480665.10249       996.23449        49.000  
 16 04 02 12 31 10.7000000  0  1G16                                             
  22355808.35949 117480565.66049       992.10549        49.000  
 16 04 02 12 31 10.8000000  0  1G16                                             
  22355789.53149 117480466.71149       987.20749        49.000  
 16 04 02 12 31 10.9000000  0  1G16                                             
  22355770.78149 117480368.18449       983.09449        49.000  
 16 04 02 12 31 11.0000000  0  1G16                                             
  22355752.12549 117480270.09849       978.69549        49.000  
 16 04 02 12 31 11.1000000  0  1G16                                             
  22355733.54749 117480172.45349       974.11349        49.000  
 16 04 02 12 31 11.2000000  0  1G16                                             
  22355715.04749 117480075.30149       969.40249        49.000  
 16 04 02 12 31 11.3000000  0  1G16                                             
  22355696.63349 117479978.50849       965.77349        49.000  
 16 04 02 12 31 11.4000000  0  1G16                                             
  22355678.31249 117479882.24649       960.07449        49.000  
 16 04 02 12 31 11.5000000  0  1G16                                             
  22355660.08649 117479786.46549       955.55549        49.000  
 16 04 02 12 31 11.6000000  0  1G16                                             
  22355641.94549 117479691.10549       951.27349        49.000  
 16 04 02 12 31 11.7000000  0  1G16                                             
  22355623.87549 117479596.14149       947.41049        49.000  
 16 04 02 12 31 11.8000000  0  1G16                                             
  22355605.88349 117479501.60549       943.34449        49.000  
 16 04 02 12 31 11.9000000  0  1G16                                             
  22355587.97749 117479407.50049       938.77749        49.000  
 16 04 02 12 31 12.0000000  0  1G16                                             
  22355570.14849 117479313.84449       934.14549        49.000  
 16 04 02 12 31 12.1000000  0  1G16                                             
  22355552.43049 117479220.72349       928.87549        49.000  
 16 04 02 12 31 12.2000000  0  1G16                                             
  22355534.78149 117479127.99249       924.94149        49.000  
 16 04 02 12 31 12.3000000  0  1G16                                             
  22355517.21949 117479035.69549       920.68849        49.000  
 16 04 02 12 31 12.4000000  0  1G16                                             
  22355499.72749 117478943.83649       916.41849        49.000  
 16 04 02 12 31 12.5000000  0  1G16                                             
  22355482.32849 117478852.39849       912.28149        49.000  
 16 04 02 12 31 12.6000000  0  1G16                                             
  22355465.02349 117478761.44949       907.19949        49.000  
 16 04 02 12 31 12.7000000  0  1G16                                             
  22355447.79749 117478670.90249       903.25049        49.000  
 16 04 02 12 31 12.8000000  0  1G16                                             
  22355430.66449 117478580.84849       898.11349        49.000  
 16 04 02 12 31 12.9000000  0  1G16                                             
  22355413.60949 117478491.21949       894.23049        49.000  
 16 04 02 12 31 13.0000000  0  1G16                                             
  22355396.64149 117478402.03549       889.58649        49.000  
 16 04 02 12 31 13.1000000  0  1G16                                             
  22355379.75849 117478313.32049       884.73049        49.000  
 16 04 02 12 31 13.2000000  0  1G16                                             
  22355362.96949 117478225.06649       880.08649        49.000  
 16 04 02 12 31 13.3000000  0  1G16                                             
  22355346.25849 117478137.25449       875.97749        49.000  
 16 04 02 12 31 13.4000000  0  1G16                                             
  22355329.63349 117478049.88749       871.35949        49.000  
 16 04 02 12 31 13.5000000  0  1G16                                             
  22355313.09449 117477962.95749       867.11749        49.000  
 16 04 02 12 31 13.6000000  0  1G16                                             
  22355296.63349 117477876.47749       862.54749        49.000  
 16 04 02 12 31 13.7000000  0  1G16                                             
  22355280.25849 117477790.43449       858.14549        49.000  
 16 04 02 12 31 13.8000000  0  1G16                                             
  22355263.96149 117477704.78949       854.23449        49.000  
 16 04 02 12 31 13.9000000  0  1G16                                             
  22355247.75849 117477619.62949       849.43849        49.000  
 16 04 02 12 31 14.0000000  0  1G16                                             
  22355231.64149 117477534.88749       845.10949        49.000  
 16 04 02 12 31 14.1000000  0  1G16                                             
  22355215.60249 117477450.57849       840.75049        49.000  
 16 04 02 12 31 14.2000000  0  1G16                                             
  22355199.63349 117477366.71549       836.46949        49.000  
 16 04 02 12 31 14.3000000  0  1G16                                             
  22355183.76649 117477283.34049       831.57049        49.000  
 16 04 02 12 31 14.4000000  0  1G16                                             
  22355167.99249 117477200.40249       827.14149        49.000  
 16 04 02 12 31 14.5000000  0  1G16                                             
  22355152.28149 117477117.84449       823.34849        49.000  
 16 04 02 12 31 14.6000000  0  1G16                                             
  22355136.67249 117477035.78149       818.27749        49.000  
 16 04 02 12 31 14.7000000  0  1G16                                             
  22355121.14849 117476954.22349       813.46549        49.000  
 16 04 02 12 31 14.8000000  0  1G16                                             
  22355105.71949 117476873.07849       809.10549        49.000  
 16 04 02 12 31 14.9000000  0  1G16                                             
  22355090.35249 117476792.34849       804.92249        49.000  
 16 04 02 12 31 15.0000000  0  1G16                                             
  22355075.09449 117476712.11749       799.99649        49.000  
 16 04 02 12 31 15.1000000  0  1G16                                             
  22355059.91449 117476632.35249       795.22749        49.000  
 16 04 02 12 31 15.2000000  0  1G16                                             
  22355044.81249 117476553.02749       790.94549        49.000  
 16 04 02 12 31 15.3000000  0  1G16                                             
  22355029.79749 117476474.10949       786.77349        49.000  
 16 04 02 12 31 15.4000000  0  1G16                                             
  22355014.89149 117476395.74249       781.52349        49.000  
 16 04 02 12 31 15.5000000  0  1G16                                             
  22355000.04749 117476317.74249       777.59049        49.000  
 16 04 02 12 31 15.6000000  0  1G16                                             
  22354985.29749 117476240.19149       773.29749        49.000  
 16 04 02 12 31 15.7000000  0  1G16                                             
  22354970.62549 117476163.12549       768.42649        49.000  
 16 04 02 12 31 15.8000000  0  1G16                                             
  22354956.04749 117476086.47349       763.98449        49.000  
 16 04 02 12 31 15.9000000  0  1G16                                             
  22354941.54749 117476010.28149       759.75449        49.000  
 16 04 02 12 31 16.0000000  0  1G16                                             
  22354927.11749 117475934.48049       755.92649        49.000  
 16 04 02 12 31 16.1000000  0  1G16                                             
  22354912.76649 117475859.09449       751.67649        49.000  
 16 04 02 12 31 16.2000000  0  1G16                                             
  22354898.51649 117475784.19149       746.92249        49.000  
 16 04 02 12 31 16.3000000  0  1G16                                             
  22354884.34449 117475709.71149       742.64149        49.000  
 16 04 02 12 31 16.4000000  0  1G16                                             
  22354870.24249 117475635.67249       738.07049        49.000  
 16 04 02 12 31 16.5000000  0  1G16                                             
  22354856.25049 117475562.13349       733.09049        49.000  
 16 04 02 12 31 16.6000000  0  1G16                                             
  22354842.34449 117475489.01249       728.74649        49.000  
 16 04 02 12 31 16.7000000  0  1G16                                             
  22354828.53149 117475416.41849       723.72349        49.000  
 16 04 02 12 31 16.8000000  0  1G16                                             
  22354814.79749 117475344.22349       719.48849        49.000  
 16 04 02 12 31 16.9000000  0  1G16                                             
  22354801.14849 117475272.50449       715.10249        49.000  
 16 04 02 12 31 17.0000000  0  1G16                                             
  22354787.57849 117475201.22749       710.50449        49.000  
 16 04 02 12 31 17.1000000  0  1G16                                             
  22354774.08649 117475130.32049       706.82449        49.000  
 16 04 02 12 31 17.2000000  0  1G16                                             
  22354760.70349 117475059.93849       701.67249        49.000  
 16 04 02 12 31 17.3000000  0  1G16                                             
  22354747.38349 117474989.94949       697.56249        49.000  
 16 04 02 12 31 17.4000000  0  1G16                                             
  22354734.15649 117474920.49249       692.33249        49.000  
 16 04 02 12 31 17.5000000  0  1G16                                             
  22354721.00849 117474851.41449       688.54749        49.000  
 16 04 02 12 31 17.6000000  0  1G16                                             
  22354707.93849 117474782.77349       684.20749        49.000  
 16 04 02 12 31 17.7000000  0  1G16                                             
  22354694.96149 117474714.55949       680.14549        49.000  
 16 04 02 12 31 17.8000000  0  1G16                                             
  22354682.05549 117474646.75849       675.73849        49.000  
 16 04 02 12 31 17.9000000  0  1G16                                             
  22354669.25049 117474579.47349       670.57849        49.000  
 16 04 02 12 31 18.0000000  0  1G16                                             
  22354656.53149 117474512.60949       666.23049        49.000  
 16 04 02 12 31 18.1000000  0  1G16                                             
  22354643.89149 117474446.19149       661.73049        49.000  
 16 04 02 12 31 18.2000000  0  1G16                                             
  22354631.33649 117474380.24649       657.18449        49.000  
 16 04 02 12 31 18.3000000  0  1G16                                             
  22354618.87549 117474314.73449       652.88349        49.000  
 16 04 02 12 31 18.4000000  0  1G16                                             
  22354606.48449 117474249.64849       648.85949        49.000  
 16 04 02 12 31 18.5000000  0  1G16                                             
  22354594.18049 117474184.98049       644.28949        49.000  
 16 04 02 12 31 18.6000000  0  1G16                                             
  22354581.96949 117474120.78949       639.66849        49.000  
 16 04 02 12 31 18.7000000  0  1G16                                             
  22354569.83649 117474057.05549       635.15249        49.000  
 16 04 02 12 31 18.8000000  0  1G16                                             
  22354557.79749 117473993.76649       630.61749        49.000  
 16 04 02 12 31 18.9000000  0  1G16                                             
  22354545.82849 117473930.88349       626.67249        49.000  
 16 04 02 12 31 19.0000000  0  1G16                                             
  22354533.95349 117473868.46149       621.98849        49.000  
 16 04 02 12 31 19.1000000  0  1G16                                             
  22354522.15649 117473806.46549       617.73849        49.000  
 16 04 02 12 31 19.2000000  0  1G16                                             
  22354510.44549 117473744.91049       613.07849        49.000  
 16 04 02 12 31 19.3000000  0  1G16                                             
  22354498.82049 117473683.81249       608.84449        49.000  
 16 04 02 12 31 19.4000000  0  1G16                                             
  22354487.26649 117473623.12149       604.84049        49.000  
 16 04 02 12 31 19.5000000  0  1G16                                             
  22354475.80549 117473562.87949       599.94549        49.000  
 16 04 02 12 31 19.6000000  0  1G16                                             
  22354464.43049 117473503.10549       595.43049        49.000  
 16 04 02 12 31 19.7000000  0  1G16                                             
  22354453.14149 117473443.78149       590.96949        49.000  
 16 04 02 12 31 19.8000000  0  1G16                                             
  22354441.94549 117473384.91049       586.52349        49.000  
 16 04 02 12 31 19.9000000  0  1G16                                             
  22354430.81249 117473326.43049       582.61349        49.000  
 16 04 02 12 31 20.0000000  0  1G16                                             
  22354419.78149 117473268.44149       577.53949        49.000  
 16 04 02 12 31 20.1000000  0  1G16                                             
  22354408.82049 117473210.85249       573.46949        49.000  
 16 04 02 12 31 20.2000000  0  1G16                                             
  22354397.96149 117473153.75449       568.75849        49.000  
 16 04 02 12 31 20.3000000  0  1G16                                             
  22354387.18049 117473097.09849       564.21549        49.000  
 16 04 02 12 31 20.4000000  0  1G16                                             
  22354376.47749 117473040.85549       560.21149        49.000  
 16 04 02 12 31 20.5000000  0  1G16                                             
  22354365.85949 117472985.06649       555.67249        49.000  
 16 04 02 12 31 20.6000000  0  1G16                                             
  22354355.32849 117472929.73049       551.07049        49.000  
 16 04 02 12 31 20.7000000  0  1G16                                             
  22354344.87549 117472874.79349       547.34049        49.000  
 16 04 02 12 31 20.8000000  0  1G16                                             
  22354334.48449 117472820.21949       543.59049        49.000  
 16 04 02 12 31 20.9000000  0  1G16                                             
  22354324.18849 117472766.11349       538.77049        49.000  
 16 04 02 12 31 21.0000000  0  1G16                                             
  22354313.99249 117472712.54749       533.28149        49.000  
 16 04 02 12 31 21.1000000  0  1G16                                             
  22354303.88349 117472659.39549       529.04349        49.000  
 16 04 02 12 31 21.2000000  0  1G16                                             
  22354293.85249 117472606.70749       524.49649        49.000  
 16 04 02 12 31 21.3000000  0  1G16                                             
  22354283.91449 117472554.48049       519.80549        49.000  
 16 04 02 12 31 21.4000000  0  1G16                                             
  22354274.05549 117472502.69949       515.62949        49.000  
 16 04 02 12 31 21.5000000  0  1G16                                             
  22354264.26649 117472451.25449       512.41049        49.000  
 16 04 02 12 31 21.6000000  0  1G16                                             
  22354254.56249 117472400.22749       508.25449        49.000  
 16 04 02 12 31 21.7000000  0  1G16                                             
  22354244.93049 117472349.64149       503.67649        49.000  
 16 04 02 12 31 21.8000000  0  1G16                                             
  22354235.39849 117472299.52349       499.01649        49.000  
 16 04 02 12 31 21.9000000  0  1G16                                             
  22354225.95349 117472249.86349       494.09449        49.000  
 16 04 02 12 31 22.0000000  0  1G16                                             
  22354216.57049 117472200.61749       490.25849        49.000  
 16 04 02 12 31 22.1000000  0  1G16                                             
  22354207.28149 117472151.81249       485.68449        49.000  
 16 04 02 12 31 22.2000000  0  1G16                                             
  22354198.09449 117472103.52049       480.62949        49.000  
 16 04 02 12 31 22.3000000  0  1G16                                             
  22354188.97749 117472055.62549       476.64149        49.000  
 16 04 02 12 31 22.4000000  0  1G16                                             
  22354179.95349 117472008.19149       472.18049        49.000  
 16 04 02 12 31 22.5000000  0  1G16                                             
  22354171.00849 117471961.17249       468.12949        49.000  
 16 04 02 12 31 22.6000000  0  1G16                                             
  22354162.14149 117471914.55549       463.94149        49.000  
 16 04 02 12 31 22.7000000  0  1G16                                             
  22354153.36749 117471868.43449       458.97749        49.000  
 16 04 02 12 31 22.8000000  0  1G16                                             
  22354144.67249 117471822.72349       454.77049        49.000  
 16 04 02 12 31 22.9000000  0  1G16                                             
  22354136.04749 117471777.41049       451.13349        49.000  
 16 04 02 12 31 23.0000000  0  1G16                                             
  22354127.51649 117471732.57049       446.48449        49.000  
 16 04 02 12 31 23.1000000  0  1G16                                             
  22354119.05549 117471688.13349       442.07049        49.000  
 16 04 02 12 31 23.2000000  0  1G16                                             
  22354110.68049 117471644.13349       437.58649        49.000  
 16 04 02 12 31 23.3000000  0  1G16                                             
  22354102.40649 117471600.64849       432.53149        49.000  
 16 04 02 12 31 23.4000000  0  1G16                                             
  22354094.21949 117471557.59449       428.35949        49.000  
 16 04 02 12 31 23.5000000  0  1G16                                             
  22354086.10249 117471514.92649       424.34049        49.000  
 16 04 02 12 31 23.6000000  0  1G16                                             
  22354078.07849 117471472.77349       419.35249        49.000  
 16 04 02 12 31 23.7000000  0  1G16                                             
  22354070.13349 117471430.99249       415.50049        49.000  
 16 04 02 12 31 23.8000000  0  1G16                                             
  22354062.28149 117471389.73449       410.36749        49.000  
 16 04 02 12 31 23.9000000  0  1G16                                             
  22354054.50049 117471348.84849       406.58649        49.000  
 16 04 02 12 31 24.0000000  0  1G16                                             
  22354046.82049 117471308.47349       401.58249        49.000  
 16 04 02 12 31 24.1000000  0  1G16                                             
  22354039.21949 117471268.53149       397.10949        49.000  
 16 04 02 12 31 24.2000000  0  1G16                                             
  22354031.68849 117471228.97349       393.38749        49.000  
 16 04 02 12 31 24.3000000  0  1G16                                             
  22354024.24249 117471189.83249       389.38749        49.000  
 16 04 02 12 31 24.4000000  0  1G16                                             
  22354016.87549 117471151.16849       384.49649        49.000  
 16 04 02 12 31 24.5000000  0  1G16                                             
  22354009.60949 117471112.99649       379.28549        49.000  
 16 04 02 12 31 24.6000000  0  1G16                                             
  22354002.43849 117471075.26649       374.91049        49.000  
 16 04 02 12 31 24.7000000  0  1G16                                             
  22353995.32849 117471037.93449       371.20349        49.000  
 16 04 02 12 31 24.8000000  0  1G16                                             
  22353988.32049 117471001.05549       366.61749        49.000  
 16 04 02 12 31 24.9000000  0  1G16                                             
  22353981.37549 117470964.57849       362.57849        49.000  
 16 04 02 12 31 25.0000000  0  1G16                                             
  22353974.52349 117470928.57849       357.78549        49.000  
 16 04 02 12 31 25.1000000  0  1G16                                             
  22353967.75849 117470893.04349       353.03949        49.000  
 16 04 02 12 31 25.2000000  0  1G16                                             
  22353961.08649 117470857.94149       348.66849        49.000  
 16 04 02 12 31 25.3000000  0  1G16                                             
  22353954.48449 117470823.27749       344.39849        49.000  
 16 04 02 12 31 25.4000000  0  1G16                                             
  22353947.97749 117470789.07849       339.75849        49.000  
 16 04 02 12 31 25.5000000  0  1G16                                             
  22353941.55549 117470755.32449       335.30949        49.000  
 16 04 02 12 31 25.6000000  0  1G16                                             
  22353935.20349 117470721.97349       331.15249        49.000  
 16 04 02 12 31 25.7000000  0  2G26G16                                          
  21883966.09449 115001016.99659     13957.99249        49.000  
  22353928.94549 117470689.09049       326.56249        49.000  
 16 04 02 12 31 25.8000000  0  3G26G31G16                                       
  21883700.53149 114999621.43849     13953.25049        49.000  
  22469244.58649 118076676.65259     13151.47749        50.000  
  22353922.77349 117470656.63749       322.25849        49.000  
 16 04 02 12 31 25.9000000  0  3G26G31G16                                       
  21883435.07049 114998226.33249     13948.84849        49.000  
  22468994.36749 118075361.75049     13146.40649        50.000  
  22353916.68049 117470624.63349       317.91049        49.000  
 16 04 02 12 31 26.0000000  0  3G26G31G16                                       
  21883169.68049 114996831.66849     13944.40649        49.000  
  22468744.28149 118074047.33649     13141.51249        50.000  
  22353910.67249 117470593.02349       313.93449        49.000  
 16 04 02 12 31 26.1000000  0  3G26G31G16                                       
  21882904.37549 114995437.48049     13939.62949        49.000  
  22468494.25849 118072733.46149     13136.14149        50.000  
  22353904.74249 117470561.87149       309.37949        49.000  
 16 04 02 12 31 26.2000000  0  3G26G31G16                                       
  21882639.16449 114994043.77749     13934.66849        49.000  
  22468244.35249 118071420.11749     13130.62149        50.000  
  22353898.89849 117470531.17249       304.68449        49.000  
 16 04 02 12 31 26.3000000  0  3G26G31G16                                       
  21882374.03149 114992650.59849     13929.39149        49.000  
  22467994.54749 118070107.35949     13124.85949        50.000  
  22353893.14849 117470500.96949       299.70749        49.000  
 16 04 02 12 31 26.4000000  0  3G26G31G16                                       
  21882109.00849 114991257.89149     13924.77349        49.000  
  22467744.82849 118068795.12949     13119.60249        50.000  
  22353887.49249 117470471.21549       295.29749        49.000  
 16 04 02 12 31 26.5000000  0  3G26G31G16                                       
  21881844.07049 114989865.62549     13920.43049        49.000  
  22467495.21149 118067483.39849     13114.69949        50.000  
  22353881.90649 117470441.86749       291.31649        49.000  
 16 04 02 12 31 26.6000000  0  3G26G31G16                                       
  21881579.20349 114988473.77049     13916.38349        49.000  
  22467245.68849 118066172.12549     13110.18049        50.000  
  22353876.39149 117470412.89149       287.58249        49.000  
 16 04 02 12 31 26.7000000  0  3G26G31G16                                       
  21881314.41449 114987082.39549     13911.53149        49.000  
  22466996.26649 118064861.40649     13104.64849        50.000  
  22353870.96949 117470384.39149       282.80549        49.000  
 16 04 02 12 31 26.8000000  0  3G26G31G16                                       
  21881049.75049 114985691.56649     13905.89549        49.000  
  22466746.93849 118063551.27749     13098.55949        50.000  
  22353865.64149 117470356.39149       277.73449        49.000  
 16 04 02 12 31 26.9000000  0  3G26G31G16                                       
  21880785.15649 114984301.15649     13901.66049        49.000  
  22466497.72749 118062241.62949     13093.65649        50.000  
  22353860.38349 117470328.78949       273.69949        49.000  
 16 04 02 12 31 27.0000000  0  3G26G31G16                                       
  21880520.65649 114982911.19149     13897.28949        49.000  
  22466248.59449 118060932.47349     13088.77049        50.000  
  22353855.21949 117470301.60249       269.56649        49.000  
 16 04 02 12 31 27.1000000  0  3G26G31G16                                       
  21880256.25849 114981521.73849     13892.29749        49.000  
  22465999.58649 118059623.89849     13083.17649        50.000  
  22353850.13349 117470274.90249       264.88749        49.000  
 16 04 02 12 31 27.2000000  0  3G26G31G16                                       
  21879991.93849 114980132.74649     13887.41049        49.000  
  22465750.65649 118058315.82849     13077.66849        50.000  
  22353845.14149 117470248.62949       260.18849        49.000  
 16 04 02 12 31 27.3000000  0  3G26G31G16                                       
  21879727.71949 114978744.25449     13882.64849        49.000  
  22465501.84449 118057008.32449     13072.38749        50.000  
  22353840.23449 117470222.83649       255.74649        49.000  
 16 04 02 12 31 27.4000000  0  3G26G31G16                                       
  21879463.57849 114977356.19149     13878.32049        49.000  
  22465253.14849 118055701.29749     13067.56249        50.000  
  22353835.39849 117470197.43449       251.80949        49.000  
 16 04 02 12 31 27.5000000  0  3G26G31G16                                       
  21879199.51649 114975968.59449     13873.69949        49.000  
  22465004.53149 118054394.79749     13062.36349        50.000  
  22353830.64849 117470172.47749       247.44549        49.000  
 16 04 02 12 31 27.6000000  0  3G26G31G16                                       
  21878935.55549 114974581.45749     13869.05949        49.000  
  22464756.01649 118053088.81249     13057.18849        50.000  
  22353825.97749 117470147.95349       243.05549        49.000  
 16 04 02 12 31 27.7000000  0  3G26G31G16                                       
  21878671.68849 114973194.79749     13864.34449        49.000  
  22464507.59449 118051783.35549     13051.89549        50.000  
  22353821.39149 117470123.86749       238.66449        49.000  
 16 04 02 12 31 27.8000000  0  3G26G31G16                                       
  21878407.92249 114971808.68849     13858.74249        49.000  
  22464259.28949 118050478.51249     13045.74649        50.000  
  22353816.91449 117470100.30549       233.34849        49.000  
 16 04 02 12 31 27.9000000  0  3G26G31G16                                       
  21878144.25049 114970423.00849     13854.34849        49.000  
  22464011.07849 118049174.15249     13040.80549        50.000  
  22353812.50849 117470077.14849       229.30949        49.000  
 16 04 02 12 31 28.0000000  0  3G26G31G16                                       
  21877880.65649 114969037.80149     13849.86749        49.000  
  22463762.96949 118047870.32049     13035.68449        50.000  
  22353808.18849 117470054.45349       224.84849        49.000  
 16 04 02 12 31 28.1000000  0  3G26G31G16                                       
  21877617.14149 114967653.08649     13844.87549        49.000  
  22463514.96149 118046567.04349     13030.11749        50.000  
  22353803.95349 117470032.19149       220.27049        49.000  
 16 04 02 12 31 28.2000000  0  3G26G31G16                                       
  21877353.73449 114966268.87549     13839.82449        49.000  
  22463267.07849 118045264.32449     13024.51249        50.000  
  22353799.80549 117470010.42249       215.50449        49.000  
 16 04 02 12 31 28.3000000  0  3G26G31G16                                       
  21877090.42249 114964885.01649     13836.35249        49.000  
  22463019.25849 118043962.00849     13020.55149        50.000  
  22353795.72749 117469988.97349       212.38349        49.000  
 16 04 02 12 31 28.4000000  0  3G26G31G16                                       
  21876827.18049 114963501.67649     13831.05149        49.000  
  22462771.54749 118042660.26649     13014.74249        50.000  
  22353791.73449 117469968.01249       207.35549        49.000  
 16 04 02 12 31 28.5000000  0  3G26G31G16                                       
  21876564.03949 114962118.80149     13826.63349        49.000  
  22462523.93049 118041359.05149     13009.64849        50.000  
  22353787.82849 117469947.48849       203.16449        49.000  
 16 04 02 12 31 28.6000000  0  3G26G31G16                                       
  21876300.96949 114960736.37549     13821.87549        49.000  
  22462276.41449 118040058.33649     13004.39149        50.000  
  22353784.00049 117469927.38749       198.75049        49.000  
 16 04 02 12 31 28.7000000  0  3G26G31G16                                       
  21876037.98449 114959354.41449     13817.35249        49.000  
  22462029.00049 118038758.14549     12999.30949        50.000  
  22353780.25849 117469907.71549       194.49649        49.000  
 16 04 02 12 31 28.8000000  0  3G26G31G16                                       
  21875775.08649 114957972.88349     13813.09849        49.000  
  22461781.68049 118037458.44549     12994.42249        50.000  
  22353776.60249 117469888.45749       190.41449        49.000  
 16 04 02 12 31 28.9000000  0  3G26G31G16                                       
  21875512.26649 114956591.83649     13808.09049        49.000  
  22461534.45349 118036159.26649     12989.02749        50.000  
  22353773.01649 117469869.63349       185.90649        49.000  
 16 04 02 12 31 29.0000000  0  3G26G31G16                                       
  21875249.55549 114955211.28549     13803.21949        49.000  
  22461287.35949 118034860.66849     12983.37949        50.000  
  22353769.53149 117469851.29749       181.21149        49.000  
 16 04 02 12 31 29.1000000  0  3G26G31G16                                       
  21874986.95349 114953831.19149     13798.57449        49.000  
  22461040.33649 118033562.56249     12978.25849        50.000  
  22353766.11749 117469833.38749       176.85549        49.000  
 16 04 02 12 31 29.2000000  0  3G26G31G16                                       
  21874724.43049 114952451.63349     13793.14149        49.000  
  22460793.46149 118032265.06249     12972.18849        50.000  
  22353762.81249 117469815.97749       171.69149        49.000  
 16 04 02 12 31 29.3000000  0  3G26G31G16                                       
  21874462.01649 114951072.61749     13787.82849        49.000  
  22460546.66449 118030968.14849     12966.47349        50.000  
  22353759.59449 117469799.08649       166.63349        49.000  
 16 04 02 12 31 29.4000000  0  3G26G31G16                                       
  21874199.66449 114949693.93849     13784.41849        49.000  
  22460299.95349 118029671.63349     12962.33649        50.000  
  22353756.43849 117469782.49649       163.47349        49.000  
 16 04 02 12 31 29.5000000  0  3G26G31G16                                       
  21873937.42249 114948315.80949     13779.00449        49.000  
  22460053.35249 118028375.72749     12956.32849        50.000  
  22353753.38349 117469766.43049       158.45349        49.000  
 16 04 02 12 31 29.6000000  0  3G26G31G16                                       
  21873675.25049 114946938.10249     13775.00049        49.000  
  22459806.82849 118027080.28949     12951.93849        50.000  
  22353750.39149 117469750.75849       154.73449        49.000  
 16 04 02 12 31 29.7000000  0  3G26G31G16                                       
  21873413.18049 114945560.86349     13770.17649        49.000  
  22459560.41449 118025785.38749     12946.49649        50.000  
  22353747.49249 117469735.52749       150.19149        49.000  
 16 04 02 12 31 29.8000000  0  3G26G31G16                                       
  21873151.18849 114944184.07449     13765.64149        49.000  
  22459314.07849 118024490.98449     12941.43849        50.000  
  22353744.67249 117469720.71149       145.98449        49.000  
 16 04 02 12 31 29.9000000  0  3G26G31G16                                       
  21872889.26649 114942807.72349     13761.31249        49.000  
  22459067.85249 118023197.06649     12936.59049        50.000  
  22353741.93049 117469706.30149       141.94549        49.000  
 16 04 02 12 31 30.0000000  0  3G26G31G16                                       
  21872627.44549 114941431.85949     13756.36749        49.000  
  22458821.71949 118021903.71949     12930.85249        50.000  
  22353739.27349 117469692.36749       137.16849        49.000  
 16 04 02 12 31 30.1000000  0  3G26G31G16                                       
  21872365.74249 114940056.52049     13750.93849        49.000  
  22458575.70349 118020610.92249     12925.07449        50.000  
  22353736.71149 117469678.91049       132.16049        49.000  
 16 04 02 12 31 30.2000000  0  3G26G31G16                                       
  21872104.10949 114938681.63349     13746.52349        49.000  
  22458329.76649 118019318.65649     12919.93849        50.000  
  22353734.23449 117469665.88749       127.89849        49.000  
 16 04 02 12 31 30.3000000  0  3G26G31G16                                       
  21871842.58649 114937307.17649     13742.28549        49.000  
  22458083.94549 118018026.85949     12915.29749        50.000  
  22353731.83649 117469653.25849       124.09449        49.000  
 16 04 02 12 31 30.4000000  0  3G26G31G16                                       
  21871581.14149 114935933.25449     13736.97349        49.000  
  22457838.23449 118016735.66449     12909.34049        50.000  
  22353729.53149 117469641.13749       119.03149        49.000  
 16 04 02 12 31 30.5000000  0  3G26G31G16                                       
  21871319.76649 114934559.74249     13732.89149        49.000  
  22457592.61749 118015444.93049     12904.80149        50.000  
  22353727.28949 117469629.39549       115.32049        49.000  
 16 04 02 12 31 30.6000000  0  3G26G31G16                                       
  21871058.47749 114933186.65249     13728.60949        49.000  
  22457347.10249 118014154.68049     12899.79749        50.000  
  22353725.13349 117469618.05149       111.17649        49.000  
 16 04 02 12 31 30.7000000  0  3G26G31G16                                       
  21870797.28949 114931814.08249     13723.43449        49.000  
  22457101.68049 118012864.99649     12894.20349        50.000  
  22353723.07049 117469607.18849       106.45349        49.000  
 16 04 02 12 31 30.8000000  0  3G26G31G16                                       
  21870536.18049 114930441.94949     13719.02349        49.000  
  22456856.35249 118011575.81249     12889.21549        50.000  
  22353721.07849 117469596.73849       102.32049        49.000  
 16 04 02 12 31 30.9000000  0  3G26G31G16                                       
  21870275.15649 114929070.27749     13714.37949        49.000  
  22456611.12549 118010287.14549     12884.00449        50.000  
  22353719.17249 117469586.72749        97.85249        49.000  
 16 04 02 12 31 31.0000000  0  3G26G31G16                                       
  21870014.21949 114927699.06649     13709.94949        49.000  
  22456366.00849 118008999.00049     12878.96149        50.000  
  22353717.34449 117469577.14149        93.76249        49.000  
 16 04 02 12 31 31.1000000  0  3G26G31G16                                       
  21869753.39849 114926328.39549     13704.35249        49.000  
  22456120.99249 118007711.43449     12872.91849        50.000  
  22353715.61749 117469568.06249        88.50049        49.000  
 16 04 02 12 31 31.2000000  0  3G26G31G16                                       
  21869492.65649 114924958.16449     13699.96549        49.000  
  22455876.08649 118006424.39149     12867.80949        50.000  
  22353713.96949 117469559.41049        84.28549        49.000  
 16 04 02 12 31 31.3000000  0  3G26G31G16                                       
  21869232.00049 114923588.35249     13695.85949        49.000  
  22455631.25049 118005137.80149     12863.25849        50.000  
  22353712.39149 117469551.12549        80.65649        49.000  
 16 04 02 12 31 31.4000000  0  3G26G31G16                                       
  21868971.43049 114922219.03949     13690.92649        49.000  
  22455386.53149 118003851.77349     12857.70349        50.000  
  22353710.91449 117469543.32049        75.92249        49.000  
 16 04 02 12 31 31.5000000  0  3G26G31G16                                       
  21868710.92249 114920850.15249     13686.73849        49.000  
  22455141.89849 118002566.22749     12852.98449        50.000  
  22353709.50049 117469535.91449        72.00849        49.000  
 16 04 02 12 31 31.6000000  0  3G26G31G16                                       
  21868450.52349 114919481.75849     13681.52749        49.000  
  22454897.37549 118001281.22749     12847.14849        50.000  
  22353708.18049 117469528.96549        67.14849        49.000  
 16 04 02 12 31 31.7000000  0  3G26G31G16                                       
  21868190.22749 114918113.87549     13676.46949        49.000  
  22454652.95349 117999996.80149     12841.52749        50.000  
  22353706.94549 117469522.50849        62.34449        49.000  
 16 04 02 12 31 31.8000000  0  3G26G31G16                                       
  21867930.01649 114916746.45749     13671.86749        49.000  
  22454408.65649 117998712.88749     12836.37149        50.000  
  22353705.80549 117469516.47349        58.05149        49.000  
 16 04 02 12 31 31.9000000  0  3G26G31G16                                       
  21867669.89149 114915379.50049     13667.14149        49.000  
  22454164.43849 117997429.49649     12831.10549        50.000  
  22353704.74249 117469510.87549        53.57849        49.000  
 16 04 02 12 31 32.0000000  0  3G26G31G16                                       
  21867409.86749 114914013.08249     13661.76249        49.000  
  22453920.35249 117996146.70349     12825.09849        50.000  
  22353703.77349 117469505.79349        48.49249        49.000  
 16 04 02 12 31 32.1000000  0  3G26G31G16                                       
  21867149.93049 114912647.09049     13657.57049        49.000  
  22453676.32849 117994864.38349     12820.53949        50.000  
  22353702.88349 117469501.09849        44.71149        49.000  
 16 04 02 12 31 32.2000000  0  3G26G31G16                                       
  21866890.07849 114911281.56249     13652.91449        49.000  
  22453432.42249 117993582.59849     12815.01249        50.000  
  22353702.07049 117469496.84449        40.27749        49.000  
 16 04 02 12 31 32.3000000  0  3G26G31G16                                       
  21866630.32049 114909916.53949     13647.91449        49.000  
  22453188.60949 117992301.34849     12809.82849        50.000  
  22353701.35249 117469493.05549        35.65649        49.000  
 16 04 02 12 31 32.4000000  0  3G26G31G16                                       
  21866370.64149 114908551.93049     13643.77349        49.000  
  22452944.87549 117991020.59049     12804.85549        50.000  
  22353700.71149 117469489.65649        31.71549        49.000  
 16 04 02 12 31 32.5000000  0  3G26G31G16                                       
  21866111.06249 114907187.85949     13638.62149        49.000  
  22452701.26649 117989740.42249     12799.26649        50.000  
  22353700.15649 117469486.77349        26.73049        49.000  
 16 04 02 12 31 32.6000000  0  3G26G31G16                                       
  21865851.57049 114905824.20349     13634.15649        49.000  
  22452457.74249 117988460.71949     12794.22349        50.000  
  22353699.67249 117469484.27049        22.66049        49.000  
 16 04 02 12 31 32.7000000  0  3G26G31G16                                       
  21865592.18849 114904461.07449     13628.92649        49.000  
  22452214.33649 117987181.59849     12788.46149        50.000  
  22353699.28949 117469482.25049        17.90249        49.000  
 16 04 02 12 31 32.8000000  0  3G26G31G16                                       
  21865332.86749 114903098.32849     13625.19949        49.000  
  22451971.01649 117985902.93049     12784.10249        50.000  
  22353698.97749 117469480.60549        14.34449        49.000  
 16 04 02 12 31 32.9000000  0  3G26G31G16                                       
  21865073.64149 114901736.11749     13619.88349        49.000  
  22451727.80549 117984624.84449     12778.19549        50.000  
  22353698.75849 117469479.44949         9.41449        49.000  
 16 04 02 12 31 33.0000000  0  3G26G31G16                                       
  21864814.51649 114900374.38349     13615.12549        49.000  
  22451484.69549 117983347.28549     12773.00049        50.000  
  22353698.62549 117469478.75449         4.89149        49.000  
 16 04 02 12 31 33.1000000  0  3G26G31G16                                       
  21864555.46949 114899013.04749     13610.94949        49.000  
  22451241.67249 117982070.18449     12768.23049        50.000  
  22353698.55549 117469478.41449         1.06249        49.000  
 16 04 02 12 31 33.2000000  0  3G26G31G16                                       
  21864296.50849 114897652.17249     13606.35249        49.000  
  22450998.73449 117980793.59449     12763.09049        50.000  
  22353698.57849 117469478.50849        -3.27049        49.000  
 16 04 02 12 31 33.3000000  0  3G26G31G16                                       
  21864037.62549 114896291.85549     13600.99249        49.000  
  22450755.93049 117979517.63349     12757.08249        50.000  
  22353698.70349 117469479.13749        -8.32049        49.000  
 16 04 02 12 31 33.4000000  0  3G26G31G16                                       
  21863778.85249 114894931.98449     13596.32449        49.000  
  22450513.21949 117978242.16849     12751.87549        50.000  
  22353698.89849 117469480.17649       -12.66449        49.000  
 16 04 02 12 31 33.5000000  0  3G26G31G16                                       
  21863520.15649 114893572.53549     13592.16849        49.000  
  22450270.59449 117976967.17249     12747.23049        50.000  
  22353699.16449 117469481.60549       -16.52749        49.000  
 16 04 02 12 31 33.6000000  0  3G26G31G16                                       
  21863261.55549 114892213.56649     13587.41849        49.000  
  22450028.07849 117975692.72749     12741.84449        50.000  
  22353699.52349 117469483.49249       -21.07049        49.000  
 16 04 02 12 31 33.7000000  0  3G26G31G16                                       
  21863003.05549 114890855.09049     13582.48849        49.000  
  22449785.66449 117974418.82449     12736.34449        50.000  
  22353699.96949 117469485.84049       -25.72349        49.000  
 16 04 02 12 31 33.8000000  0  3G26G31G16                                       
  21862744.62549 114889497.04749     13578.09449        49.000  
  22449543.35249 117973145.40649     12731.44949        50.000  
  22353700.49249 117469488.57849       -29.57449        49.000  
 16 04 02 12 31 33.9000000  0  3G26G31G16                                       
  21862486.29749 114888139.46549     13573.57849        49.000  
  22449301.12549 117971872.51249     12726.40649        50.000  
  22353701.10249 117469491.76249       -33.94149        49.000  
 16 04 02 12 31 34.0000000  0  3G26G31G16                                       
  21862228.04749 114886782.36349     13568.83249        49.000  
  22449058.99249 117970600.14549     12721.02349        50.000  
  22353701.78949 117469495.39549       -38.43849        49.000  
 16 04 02 12 31 34.1000000  0  3G26G31G16                                       
  21861969.87549 114885425.77349     13563.44549        49.000  
  22448816.97749 117969328.35549     12715.04749        50.000  
  22353702.57849 117469499.50449       -43.47349        49.000  
 16 04 02 12 31 34.2000000  0  3G26G31G16                                       
  21861711.82049 114884069.66849     13558.69949        49.000  
  22448575.06249 117968057.09049     12709.89849        50.000  
  22353703.44549 117469504.05949       -47.88749        49.000  
 16 04 02 12 31 34.3000000  0  3G26G31G16                                       
  21861453.86749 114882714.03149     13553.86349        49.000  
  22448333.25849 117966786.36749     12704.41449        50.000  
  22353704.39849 117469509.07049       -52.52049        49.000  
 16 04 02 12 31 34.4000000  0  3G26G31G16                                       
  21861195.97749 114881358.80949     13549.87949        49.000  
  22448091.52349 117965516.10249     12699.90649        50.000  
  22353705.42249 117469514.44949       -56.12149        49.000  
 16 04 02 12 31 34.5000000  0  3G26G31G16                                       
  21860938.17249 114880004.09049     13545.08249        49.000  
  22447849.91449 117964246.42249     12694.32049        50.000  
  22353706.53949 117469520.32049       -60.71149        49.000  
 16 04 02 12 31 34.6000000  0  3G26G31G16                                       
  21860680.47749 114878649.89549     13539.64549        49.000  
  22447608.40649 117962977.28949     12688.54349        50.000  
  22353707.75049 117469526.66849       -65.75849        49.000  
 16 04 02 12 31 34.7000000  0  3G26G31G16                                       
  21860422.85949 114877296.12949     13535.35949        49.000  
  22447366.99249 117961708.65649     12683.67249        50.000  
  22353709.03149 117469533.41849       -69.75049        49.000  
 16 04 02 12 31 34.8000000  0  3G26G31G16                                       
  21860165.33649 114875942.84449     13530.64149        49.000  
  22447125.66449 117960440.55949     12678.33649        50.000  
  22353710.40649 117469540.62549       -74.22349        49.000  
 16 04 02 12 31 34.9000000  0  3G26G31G16                                       
  21859907.89849 114874590.01649     13525.94549        49.000  
  22446884.45349 117959172.96949     12673.08249        50.000  
  22353711.85949 117469548.24249       -78.48849        49.000  
 16 04 02 12 31 35.0000000  0  3G26G31G16                                       
  21859650.55549 114873237.67649     13521.16049        49.000  
  22446643.35249 117957905.93049     12667.81249        50.000  
  22353713.39849 117469556.33649       -83.07449        49.000  
 16 04 02 12 31 35.1000000  0  3G26G31G16                                       
  21859393.28949 114871885.79749     13516.43049        49.000  
  22446402.33649 117956639.40249     12662.53949        50.000  
  22353715.01649 117469564.85549       -87.52049        49.000  
 16 04 02 12 31 35.2000000  0  3G26G31G16                                       
  21859136.13349 114870534.40249     13511.68049        49.000  
  22446161.42249 117955373.42649     12657.11749        50.000  
  22353716.72749 117469573.82449       -91.85949        49.000  
 16 04 02 12 31 35.3000000  0  3G26G31G16                                       
  21858879.06249 114869183.52049     13506.54349        49.000  
  22445920.61749 117954108.00049     12651.59449        50.000  
  22353718.52349 117469583.27349       -96.66049        49.000  
 16 04 02 12 31 35.4000000  0  3G26G31G16                                       
  21858622.07849 114867833.05949     13502.16049        49.000  
  22445679.89849 117952843.06249     12646.57049        50.000  
  22353720.39149 117469593.12149      -100.85549        49.000  
 16 04 02 12 31 35.5000000  0  3G26G31G16                                       
  21858365.17249 114866483.08649     13497.53149        49.000  
  22445439.29749 117951578.67249     12641.37549        50.000  
  22353722.35249 117469603.42249      -105.11349        49.000  
 16 04 02 12 31 35.6000000  0  3G26G31G16                                       
  21858108.35949 114865133.56249     13493.03949        49.000  
  22445198.78949 117950314.78549     12636.21949        50.000  
  22353724.39149 117469614.13749      -109.32049        49.000  
 16 04 02 12 31 35.7000000  0  3G26G31G16                                       
  21857851.64149 114863784.50049     13488.38349        49.000  
  22444958.37549 117949051.41449     12631.07849        50.000  
  22353726.51649 117469625.29349      -113.77049        49.000  
 16 04 02 12 31 35.8000000  0  3G26G31G16                                       
  21857595.03949 114862436.02349     13482.52349        49.000  
  22444718.08649 117947788.67649     12624.79349        50.000  
  22353728.74249 117469636.98849      -119.07849        49.000  
 16 04 02 12 31 35.9000000  0  3G26G31G16                                       
  21857338.50049 114861087.91849     13478.55949        49.000  
  22444477.88349 117946526.37949     12620.08249        50.000  
  22353731.03149 117469649.03949      -122.87549        49.000  
 16 04 02 12 31 36.0000000  0  3G26G31G16                                       
  21857082.04749 114859740.25849     13474.25049        49.000  
  22444237.78949 117945264.56649     12615.31249        50.000  
  22353733.39849 117469661.50049      -126.92649        49.000  
 16 04 02 12 31 36.1000000  0  3G26G31G16                                       
  21856825.70349 114858393.10249     13469.47349        49.000  
  22443997.78149 117944003.33249     12609.87549        50.000  
  22353735.85949 117469674.43449      -131.32449        49.000  
 16 04 02 12 31 36.2000000  0  3G26G31G16                                       
  21856569.43849 114857046.41849     13464.64849        49.000  
  22443757.85949 117942742.61349     12604.54749        50.000  
  22353738.40649 117469687.81249      -136.00849        49.000  
 16 04 02 12 31 36.3000000  0  3G26G31G16                                       
  21856313.26649 114855700.20749     13459.68849        49.000  
  22443518.04749 117941482.41849     12599.19949        50.000  
  22353741.03149 117469701.62149      -140.48049        49.000  
 16 04 02 12 31 36.4000000  0  3G26G31G16                                       
  21856057.17249 114854354.42649     13455.62949        49.000  
  22443278.33649 117940222.72349     12594.43849        50.000  
  22353743.73449 117469715.82849      -144.22349        49.000  
 16 04 02 12 31 36.5000000  0  3G26G31G16                                       
  21855801.16449 114853009.10949     13450.93449        49.000  
  22443038.71949 117938963.54349     12589.21949        50.000  
  22353746.52349 117469730.48049      -148.60549        49.000  
 16 04 02 12 31 36.6000000  0  3G26G31G16                                       
  21855545.25049 114851664.25849     13446.15649        49.000  
