     2.10           OBSERVATION DATA    G (GPS)             RINEX VERSION / TYPE
Convert v1.8.0                          09-Jun-2016 15:01   PGM / RUN BY / DATE 
Signal Strength values S1,S2 are in dBHz                    COMMENT             
                                                            MARKER NAME         
                                                            MARKER NUMBER       
                                                            OBSERVER / AGENCY   
                    NovAtel GPSCard                         REC # / TYPE / VERS 
                                                            ANT # / TYPE        
0.0000        0.0000        0.0000                          APPROX POSITION XYZ 
        0.0000        0.0000        0.0000                  ANTENNA: DELTA H/E/N
     1     0                                                WAVELENGTH FACT L1/2
     1     0     4   G04   G23   G26   G29                  WAVELENGTH FACT L1/2
                                                            COMMENT             
                                                            COMMENT             
                                                            COMMENT             
                                                            COMMENT             
                                                            COMMENT             
                                                            COMMENT             
     4    C1    L1    D1    S1                              # / TYPES OF OBSERV 
     0.100                                                  INTERVAL            
  2016    04    02    12    41     6.9000000    GPS         TIME OF FIRST OBS   
  2016    04    02    12    43    24.1000000    GPS         TIME OF LAST OBS    
Leap Seconds Unknown                                        COMMENT             
                                                            END OF HEADER       
 16 04 02 12 41  6.9000000  0  1G23                                             
  22338432.70349 117389255.60959       402.27749        50.000  
 16 04 02 12 41  7.0000000  0  1G23                                             
  22338425.10249 117389215.66449       396.42649        50.000  
 16 04 02 12 41  7.1000000  0  1G23                                             
  22338417.60249 117389176.27749       391.02049        50.000  
 16 04 02 12 41  7.2000000  0  1G23                                             
  22338410.21949 117389137.50049       384.82049        50.000  
 16 04 02 12 41  7.3000000  0  1G23                                             
  22338402.96949 117389099.33649       378.55149        50.000  
 16 04 02 12 41  7.4000000  0  1G23                                             
  22338395.82049 117389061.80149       372.29749        50.000  
 16 04 02 12 41  7.5000000  0  2G04G23                                          
  21255092.50049 111696264.14159     -9178.84449        49.000  
  22338388.78149 117389024.80549       366.79349        50.000  
 16 04 02 12 41  7.6000000  0  2G04G23                                          
  21255267.21949 111697182.29749     -9183.92249        49.000  
  22338381.86749 117388988.46149       360.34049        50.000  
 16 04 02 12 41  7.7000000  0  2G04G23                                          
  21255441.97749 111698100.95349     -9188.78549        49.000  
  22338375.04749 117388952.71549       354.41449        50.000  
 16 04 02 12 41  7.8000000  0  2G04G23                                          
  21255616.88349 111699020.09849     -9193.81649        49.000  
  22338368.35949 117388917.57049       348.39849        50.000  
 16 04 02 12 41  7.9000000  0  2G04G23                                          
  21255791.85249 111699939.61349     -9197.32049        49.000  
  22338361.76649 117388882.93049       343.52049        50.000  
 16 04 02 12 41  8.0000000  0  2G04G23                                          
  21255966.93049 111700859.64549     -9202.38749        49.000  
  22338355.28949 117388848.90249       337.44949        50.000  
 16 04 02 12 41  8.1000000  0  2G04G23                                          
  21256142.08649 111701780.17249     -9207.53549        49.000  
  22338348.93049 117388815.50449       330.97349        50.000  
 16 04 02 12 41  8.2000000  0  2G04G23                                          
  21256317.35949 111702701.21549     -9212.76649        49.000  
  22338342.69549 117388782.71549       324.74649        50.000  
 16 04 02 12 41  8.3000000  0  2G04G23                                          
  21256492.70349 111703622.70349     -9217.19149        49.000  
  22338336.55549 117388750.49649       319.14549        50.000  
 16 04 02 12 41  8.4000000  0  2G04G23                                          
  21256668.15649 111704544.69149     -9222.28949        49.000  
  22338330.53949 117388718.90249       312.82849        50.000  
 16 04 02 12 41  8.5000000  0  2G04G23                                          
  21256843.68849 111705467.16449     -9227.10549        49.000  
  22338324.63349 117388687.89549       306.85549        50.000  
 16 04 02 12 41  8.6000000  0  2G04G23                                          
  21257019.32849 111706390.18049     -9232.53949        49.000  
  22338318.85949 117388657.55549       300.26649        50.000  
 16 04 02 12 41  8.7000000  0  2G04G23                                          
  21257195.07849 111707313.66849     -9237.21949        49.000  
  22338313.19549 117388627.79749       294.51249        50.000  
 16 04 02 12 41  8.8000000  0  2G04G23                                          
  21257370.90649 111708237.63749     -9242.10949        49.000  
  22338307.64849 117388598.64549       288.33249        50.000  
 16 04 02 12 41  8.9000000  0  2G04G23                                          
  21257546.82049 111709162.10949     -9246.97749        49.000  
  22338302.21949 117388570.10249       282.39549        50.000  
 16 04 02 12 41  9.0000000  0  2G04G23                                          
  21257722.82849 111710087.02349     -9251.32849        49.000  
  22338296.89849 117388542.11749       276.95349        50.000  
 16 04 02 12 41  9.1000000  0  2G04G23                                          
  21257898.93049 111711012.41449     -9256.14149        49.000  
  22338291.68849 117388514.73449       270.84449        50.000  
 16 04 02 12 41  9.2000000  0  2G04G23                                          
  21258075.12549 111711938.32049     -9261.25849        49.000  
  22338286.60249 117388487.97749       264.60249        50.000  
 16 04 02 12 41  9.3000000  0  2G04G23                                          
  21258251.39149 111712864.64549     -9265.47349        49.000  
  22338281.60949 117388461.75849       259.21949        50.000  
 16 04 02 12 41  9.4000000  0  2G04G23                                          
  21258427.75849 111713791.48049     -9270.63749        49.000  
  22338276.73449 117388436.15249       253.00449        50.000  
 16 04 02 12 41  9.5000000  0  2G04G23                                          
  21258604.22749 111714718.80149     -9275.54749        49.000  
  22338271.98449 117388411.16049       246.81249        50.000  
 16 04 02 12 41  9.6000000  0  2G04G23                                          
  21258780.77349 111715646.54749     -9279.68449        49.000  
  22338267.32849 117388386.70349       241.60949        50.000  
 16 04 02 12 41  9.7000000  0  2G04G23                                          
  21258957.39849 111716574.78549     -9284.68849        49.000  
  22338262.78949 117388362.85549       235.36349        50.000  
 16 04 02 12 41  9.8000000  0  2G04G23                                          
  21259134.14149 111717503.60549     -9290.43449        49.000  
  22338258.38349 117388339.70749       228.46549        50.000  
 16 04 02 12 41  9.9000000  0  2G04G23                                          
  21259310.99249 111718432.84449     -9294.71949        49.000  
  22338254.08649 117388317.08649       223.09049        50.000  
 16 04 02 12 41 10.0000000  0  2G04G23                                          
  21259487.90649 111719362.55549     -9299.25049        49.000  
  22338249.89149 117388295.05949       217.34449        50.000  
 16 04 02 12 41 10.1000000  0  2G04G23                                          
  21259664.90649 111720292.74249     -9304.13749        49.000  
  22338245.81249 117388273.62949       211.32849        50.000  
 16 04 02 12 41 10.2000000  0  2G04G23                                          
  21259842.00849 111721223.39549     -9308.75049        49.000  
  22338241.84449 117388252.77049       205.57449        50.000  
 16 04 02 12 41 10.3000000  0  2G04G23                                          
  21260019.17249 111722154.52349     -9313.50849        49.000  
  22338237.98449 117388232.51249       199.63349        50.000  
 16 04 02 12 41 10.4000000  0  2G04G23                                          
  21260196.45349 111723086.13749     -9318.35549        49.000  
  22338234.25049 117388212.85549       193.48049        50.000  
 16 04 02 12 41 10.5000000  0  2G04G23                                          
  21260373.84449 111724018.30549     -9323.85249        49.000  
  22338230.62549 117388193.86349       186.94549        50.000  
 16 04 02 12 41 10.6000000  0  2G04G23                                          
  21260551.32049 111724950.96149     -9328.91049        49.000  
  22338227.12549 117388175.47749       180.72349        50.000  
 16 04 02 12 41 10.7000000  0  2G04G23                                          
  21260728.91449 111725884.09449     -9333.56249        49.000  
  22338223.74249 117388157.68049       174.97749        50.000  
 16 04 02 12 41 10.8000000  0  2G04G23                                          
  21260906.57849 111726817.70349     -9338.49249        49.000  
  22338220.46949 117388140.48049       168.83649        50.000  
 16 04 02 12 41 10.9000000  0  2G04G23                                          
  21261084.33649 111727751.82449     -9343.35949        49.000  
  22338217.31249 117388123.91049       162.83249        50.000  
 16 04 02 12 41 11.0000000  0  2G04G23                                          
  21261262.18849 111728686.43049     -9348.42649        49.000  
  22338214.27349 117388107.93849       156.59049        50.000  
 16 04 02 12 41 11.1000000  0  2G04G23                                          
  21261440.14149 111729621.55949     -9353.62149        49.000  
  22338211.35949 117388092.60949       150.14849        50.000  
 16 04 02 12 41 11.2000000  0  2G04G23                                          
  21261618.17249 111730557.10549     -9357.64549        49.000  
  22338208.53949 117388077.81249       145.13349        50.000  
 16 04 02 12 41 11.3000000  0  2G04G23                                          
  21261796.30549 111731493.21949     -9363.52349        49.000  
  22338205.84449 117388063.69549       137.94549        50.000  
 16 04 02 12 41 11.4000000  0  2G04G23                                          
  21261974.53949 111732429.81649     -9368.38749        49.000  
  22338203.27349 117388050.18049       132.00449        50.000  
 16 04 02 12 41 11.5000000  0  2G04G23                                          
  21262152.87549 111733366.86349     -9372.82449        49.000  
  22338200.82049 117388037.23049       126.40649        50.000  
 16 04 02 12 41 11.6000000  0  2G04G23                                          
  21262331.27349 111734304.34849     -9377.08649        49.000  
  22338198.46149 117388024.84449       120.80149        50.000  
 16 04 02 12 41 11.7000000  0  2G04G23                                          
  21262509.76649 111735242.36349     -9382.37149        49.000  
  22338196.21949 117388013.09449       114.43849        50.000  
 16 04 02 12 41 11.8000000  0  2G04G23                                          
  21262688.35249 111736180.85549     -9387.18849        49.000  
  22338194.10249 117388001.93049       108.57849        50.000  
 16 04 02 12 41 11.9000000  0  2G04G23                                          
  21262866.98449 111737119.76249     -9391.12149        49.000  
  22338192.07049 117387991.32049       103.29349        50.000  
 16 04 02 12 41 12.0000000  0  2G04G23                                          
  21263045.74249 111738059.15249     -9396.11749        49.000  
  22338190.16449 117387981.29349        97.19149        50.000  
 16 04 02 12 41 12.1000000  0  2G04G23                                          
  21263224.63349 111738999.07049     -9401.34449        49.000  
  22338188.37549 117387971.90649        91.04349        50.000  
 16 04 02 12 41 12.2000000  0  2G04G23                                          
  21263403.57849 111739939.42649     -9405.96549        49.000  
  22338186.69549 117387963.08249        85.10249        50.000  
 16 04 02 12 41 12.3000000  0  2G04G23                                          
  21263582.58649 111740880.29349     -9410.90649        49.000  
  22338185.14149 117387954.88749        78.89849        50.000  
 16 04 02 12 41 12.4000000  0  2G04G23                                          
  21263761.73449 111741821.73049     -9416.76249        49.000  
  22338183.71149 117387947.37149        72.03149        50.000  
 16 04 02 12 41 12.5000000  0  2G04G23                                          
  21263940.96949 111742763.62149     -9421.36349        49.000  
  22338182.38349 117387940.43849        66.19949        50.000  
 16 04 02 12 41 12.6000000  0  2G04G23                                          
  21264120.28949 111743705.97749     -9425.75849        49.000  
  22338181.17249 117387934.08649        60.48049        50.000  
 16 04 02 12 41 12.7000000  0  2G04G23                                          
  21264299.70349 111744648.82449     -9430.83249        49.000  
  22338180.07049 117387928.33249        54.45749        50.000  
 16 04 02 12 41 12.8000000  0  2G04G23                                          
  21264479.21949 111745592.21149     -9436.10549        49.000  
  22338179.10249 117387923.24249        47.93049        50.000  
 16 04 02 12 41 12.9000000  0  2G04G23                                          
  21264658.85249 111746536.02349     -9440.46949        49.000  
  22338178.21949 117387918.69149        42.43849        50.000  
 16 04 02 12 41 13.0000000  0  2G04G23                                          
  21264838.54749 111747480.35549     -9445.56249        49.000  
  22338177.47749 117387914.77749        36.01649        50.000  
 16 04 02 12 41 13.1000000  0  2G04G23                                          
  21265018.35249 111748425.17249     -9450.38349        49.000  
  22338176.84449 117387911.45749        30.12149        50.000  
 16 04 02 12 41 13.2000000  0  2G04G23                                          
  21265198.22749 111749370.42249     -9454.91449        49.000  
  22338176.32049 117387908.69549        24.47349        50.000  
 16 04 02 12 41 13.3000000  0  2G04G23                                          
  21265378.18849 111750316.20749     -9460.03949        49.000  
  22338175.92249 117387906.58249        18.28549        50.000  
 16 04 02 12 41 13.4000000  0  2G04G23                                          
  21265558.25849 111751262.48049     -9465.25049        49.000  
  22338175.64149 117387905.08649        11.68849        50.000  
 16 04 02 12 41 13.5000000  0  2G04G23                                          
  21265738.43849 111752209.22349     -9469.74249        49.000  
  22338175.46949 117387904.16849         6.05549        50.000  
 16 04 02 12 41 13.6000000  0  2G04G23                                          
  21265918.68849 111753156.45349     -9474.55149        49.000  
  22338175.41449 117387903.85549         0.03549        50.000  
 16 04 02 12 41 13.7000000  0  2G04G23                                          
  21266099.03149 111754104.16449     -9479.31249        49.000  
  22338175.47749 117387904.14149        -5.93049        50.000  
 16 04 02 12 41 13.8000000  0  2G04G23                                          
  21266279.46949 111755052.36349     -9484.29749        49.000  
  22338175.64149 117387905.01649       -11.88349        50.000  
 16 04 02 12 41 13.9000000  0  2G04G23                                          
  21266460.00849 111756001.05149     -9489.23449        49.000  
  22338175.91449 117387906.51649       -18.16449        50.000  
 16 04 02 12 41 14.0000000  0  2G04G23                                          
  21266640.63349 111756950.23049     -9494.12149        49.000  
  22338176.31249 117387908.60949       -24.09449        50.000  
 16 04 02 12 41 14.1000000  0  2G04G23                                          
  21266821.39149 111757899.87549     -9498.60549        49.000  
  22338176.82849 117387911.29749       -29.74649        50.000  
 16 04 02 12 41 14.2000000  0  2G04G23                                          
  21267002.19549 111758850.00849     -9503.62549        49.000  
  22338177.45349 117387914.58249       -35.84449        50.000  
 16 04 02 12 41 14.3000000  0  2G04G23                                          
  21267183.09449 111759800.62949     -9508.49649        49.000  
  22338178.19549 117387918.49249       -42.16849        50.000  
 16 04 02 12 41 14.4000000  0  2G04G23                                          
  21267364.09449 111760751.78149     -9513.87949        49.000  
  22338179.06249 117387923.02749       -48.48449        50.000  
 16 04 02 12 41 14.5000000  0  2G04G23                                          
  21267545.18849 111761703.40249     -9518.64549        49.000  
  22338180.03949 117387928.15649       -54.46949        50.000  
 16 04 02 12 41 14.6000000  0  2G04G23                                          
  21267726.36749 111762655.50849     -9523.33249        49.000  
  22338181.12549 117387933.89149       -60.37149        50.000  
 16 04 02 12 41 14.7000000  0  2G04G23                                          
  21267907.64149 111763608.06249     -9527.72349        49.000  
  22338182.32849 117387940.19149       -65.91849        50.000  
 16 04 02 12 41 14.8000000  0  2G04G23                                          
  21268089.00849 111764561.14549     -9532.96149        49.000  
  22338183.64849 117387947.13749       -72.34449        50.000  
 16 04 02 12 41 14.9000000  0  2G04G23                                          
  21268270.46149 111765514.68449     -9537.71949        49.000  
  22338185.07849 117387954.64549       -78.15249        50.000  
 16 04 02 12 41 15.0000000  0  2G04G23                                          
  21268452.00849 111766468.74249     -9542.85249        49.000  
  22338186.63349 117387962.80549       -84.59849        50.000  
 16 04 02 12 41 15.1000000  0  2G04G23                                          
  21268633.64149 111767423.25849     -9547.37549        49.000  
  22338188.28949 117387971.53149       -90.21149        50.000  
 16 04 02 12 41 15.2000000  0  2G04G23                                          
  21268815.35949 111768378.18849     -9551.59049        49.000  
  22338190.05549 117387980.79349       -95.55949        50.000  
 16 04 02 12 41 15.3000000  0  2G04G23                                          
  21268997.18049 111769333.58249     -9556.03549        49.000  
  22338191.92249 117387990.64149      -101.30549        50.000  
 16 04 02 12 41 15.4000000  0  2G04G23                                          
  21269179.06249 111770289.37549     -9560.00449        49.000  
  22338193.89849 117388000.99649      -106.50449        50.000  
 16 04 02 12 41 15.5000000  0  2G04G23                                          
  21269361.05549 111771245.72749     -9565.69149        49.000  
  22338195.99249 117388012.03149      -113.35949        50.000  
 16 04 02 12 41 15.6000000  0  2G04G23                                          
  21269543.14849 111772202.61349     -9571.29749        49.000  
  22338198.21949 117388023.71549      -120.08649        50.000  
 16 04 02 12 41 15.7000000  0  2G04G23                                          
  21269725.32849 111773159.98849     -9576.21149        49.000  
  22338200.55549 117388036.00849      -126.19149        50.000  
 16 04 02 12 41 15.8000000  0  2G04G23                                          
  21269907.60249 111774117.87149     -9581.12549        49.000  
  22338203.00849 117388048.92649      -132.23049        50.000  
 16 04 02 12 41 15.9000000  0  2G04G23                                          
  21270089.97749 111775076.20749     -9585.66049        49.000  
  22338205.57849 117388062.41849      -138.03149        50.000  
 16 04 02 12 41 16.0000000  0  2G04G23                                          
  21270272.43049 111776035.03549     -9590.59049        49.000  
  22338208.25849 117388076.51249      -143.99249        50.000  
 16 04 02 12 41 16.1000000  0  2G04G23                                          
  21270454.96949 111776994.33249     -9595.27749        49.000  
  22338211.05549 117388091.20349      -149.94149        50.000  
 16 04 02 12 41 16.2000000  0  2G04G23                                          
  21270637.60249 111777954.05949     -9599.37149        49.000  
  22338213.96149 117388106.43849      -155.25849        50.000  
 16 04 02 12 41 16.3000000  0  2G04G23                                          
  21270820.32049 111778914.27349     -9604.30949        49.000  
  22338216.96149 117388122.26249      -161.14849        50.000  
 16 04 02 12 41 16.4000000  0  2G04G23                                          
  21271003.14849 111779875.02349     -9609.94549        49.000  
  22338220.10249 117388138.75849      -168.10549        50.000  
 16 04 02 12 41 16.5000000  0  2G04G23                                          
  21271186.07049 111780836.28149     -9614.95349        49.000  
  22338223.35949 117388155.88349      -174.34449        50.000  
 16 04 02 12 41 16.6000000  0  2G04G23                                          
  21271369.07049 111781797.96949     -9619.12149        49.000  
  22338226.71949 117388173.54749      -179.66449        50.000  
 16 04 02 12 41 16.7000000  0  2G04G23                                          
  21271552.17249 111782760.13749     -9623.89849        49.000  
  22338230.19549 117388191.80949      -185.66049        50.000  
 16 04 02 12 41 16.8000000  0  2G04G23                                          
  21271735.36749 111783722.82049     -9629.04749        49.000  
  22338233.78949 117388210.71149      -192.00849        50.000  
 16 04 02 12 41 16.9000000  0  2G04G23                                          
  21271918.65649 111784686.00849     -9634.17649        49.000  
  22338237.49249 117388230.22349      -198.23449        50.000  
 16 04 02 12 41 17.0000000  0  2G04G23                                          
  21272102.03149 111785649.66449     -9638.87549        49.000  
  22338241.32049 117388250.33649      -204.27049        50.000  
 16 04 02 12 41 17.1000000  0  2G04G23                                          
  21272285.50849 111786613.77349     -9643.28949        49.000  
  22338245.25049 117388271.00049      -209.67649        50.000  
 16 04 02 12 41 17.2000000  0  2G04G23                                          
  21272469.07049 111787578.38749     -9648.43449        49.000  
  22338249.30549 117388292.30949      -216.14149        50.000  
 16 04 02 12 41 17.3000000  0  2G04G23                                          
  21272652.71949 111788543.48049     -9653.18849        49.000  
  22338253.48449 117388314.19549      -221.91849        50.000  
 16 04 02 12 41 17.4000000  0  2G04G23                                          
  21272836.45349 111789509.00849     -9657.39849        49.000  
  22338257.75849 117388336.65649      -227.56249        50.000  
 16 04 02 12 41 17.5000000  0  2G04G23                                          
  21273020.29749 111790475.03949     -9662.60249        49.000  
  22338262.14149 117388359.71149      -233.68449        50.000  
 16 04 02 12 41 17.6000000  0  2G04G23                                          
  21273204.21149 111791441.52049     -9667.17249        49.000  
  22338266.64149 117388383.36349      -239.54749        50.000  
 16 04 02 12 41 17.7000000  0  2G04G23                                          
  21273388.21149 111792408.51649     -9672.21549        49.000  
  22338271.25849 117388407.62149      -245.61749        50.000  
 16 04 02 12 41 17.8000000  0  2G04G23                                          
  21273572.31249 111793375.98849     -9677.16849        49.000  
  22338275.99249 117388432.50049      -251.96549        50.000  
 16 04 02 12 41 17.9000000  0  2G04G23                                          
  21273756.52349 111794343.94949     -9681.78949        49.000  
  22338280.84449 117388457.96949      -257.63349        50.000  
 16 04 02 12 41 18.0000000  0  2G04G23                                          
  21273940.81249 111795312.41849     -9686.98849        49.000  
  22338285.81249 117388484.07449      -264.19549        50.000  
 16 04 02 12 41 18.1000000  0  2G04G23                                          
  21274125.19549 111796281.39149     -9691.97349        49.000  
  22338290.89849 117388510.78949      -270.18449        50.000  
 16 04 02 12 41 18.2000000  0  2G04G23                                          
  21274309.67249 111797250.81249     -9696.49249        49.000  
  22338296.09449 117388538.07849      -275.97749        50.000  
 16 04 02 12 41 18.3000000  0  2G04G23                                          
  21274494.22749 111798220.63749     -9700.32449        49.000  
  22338301.37549 117388565.88349      -280.92249        50.000  
 16 04 02 12 41 18.4000000  0  2G04G23                                          
  21274678.88349 111799191.01649     -9705.99249        49.000  
  22338306.79749 117388594.37949      -287.86349        50.000  
 16 04 02 12 41 18.5000000  0  2G04G23                                          
  21274863.62549 111800161.87549     -9710.91449        49.000  
  22338312.32849 117388623.44149      -293.80949        50.000  
 16 04 02 12 41 18.6000000  0  2G04G23                                          
  21275048.47749 111801133.25849     -9716.27349        49.000  
  22338317.98449 117388653.17249      -300.52349        50.000  
 16 04 02 12 41 18.7000000  0  2G04G23                                          
  21275233.42249 111802105.07049     -9720.39849        49.000  
  22338323.74249 117388683.44949      -305.65649        50.000  
 16 04 02 12 41 18.8000000  0  2G04G23                                          
  21275418.43049 111803077.27749     -9724.19149        49.000  
  22338329.59449 117388714.22749      -310.68049        50.000  
 16 04 02 12 41 18.9000000  0  2G04G23                                          
  21275603.52349 111804050.01649     -9729.45749        49.000  
  22338335.57849 117388745.65249      -317.08249        50.000  
 16 04 02 12 41 19.0000000  0  2G04G23                                          
  21275788.71949 111805023.24649     -9734.55149        49.000  
  22338341.68049 117388777.70349      -323.48849        50.000  
 16 04 02 12 41 19.1000000  0  2G04G23                                          
  21275974.00049 111805996.88349     -9738.62949        49.000  
  22338347.87549 117388810.27349      -328.70349        50.000  
 16 04 02 12 41 19.2000000  0  2G04G23                                          
  21276159.38349 111806971.05949     -9743.95349        49.000  
  22338354.19549 117388843.50049      -335.25049        50.000  
 16 04 02 12 41 19.3000000  0  2G04G23                                          
  21276344.87549 111807945.76649     -9749.53549        49.000  
  22338360.64149 117388877.37549      -341.98049        50.000  
 16 04 02 12 41 19.4000000  0  2G04G23                                          
  21276530.44549 111808920.96149     -9754.31649        49.000  
  22338367.20349 117388911.86349      -347.97349        50.000  
 16 04 02 12 41 19.5000000  0  2G04G23                                          
  21276716.10249 111809896.61749     -9758.85949        49.000  
  22338373.87549 117388946.92249      -353.67249        50.000  
 16 04 02 12 41 19.6000000  0  2G04G23                                          
  21276901.85949 111810872.76249     -9763.80149        49.000  
  22338380.66449 117388982.59049      -359.73449        50.000  
 16 04 02 12 41 19.7000000  0  2G04G23                                          
  21277087.68849 111811849.37549     -9768.24649        49.000  
  22338387.57049 117389018.85549      -365.56249        50.000  
 16 04 02 12 41 19.8000000  0  3G26G04G23                                       
  21330547.01649 112092779.78959    -15106.62949        49.000  
  21277273.62549 111812826.47749     -9773.18049        49.000  
  22338394.58649 117389055.71949      -371.63749        50.000  
 16 04 02 12 41 19.9000000  0  3G26G04G23                                       
  21330834.53149 112094290.68049    -15111.14549        49.000  
  21277459.64849 111813804.05949     -9778.07849        49.000  
  22338401.71949 117389093.17649      -377.65249        50.000  
 16 04 02 12 41 20.0000000  0  3G26G04G23                                       
  21331122.10949 112095802.02049    -15115.54349        49.000  
  21277645.76649 111814782.08649     -9782.49249        49.000  
  22338408.96149 117389131.21149      -383.27349        50.000  
 16 04 02 12 41 20.1000000  0  3G26G04G23                                       
  21331409.79749 112097313.81649    -15120.09449        49.000  
  21277831.96949 111815760.60949     -9787.41049        49.000  
  22338416.32049 117389169.85249      -389.43849        50.000  
 16 04 02 12 41 20.2000000  0  3G26G04G23                                       
  21331697.58649 112098826.03149    -15124.29749        49.000  
  21278018.25849 111816739.57449     -9791.84449        49.000  
  22338423.78149 117389209.04749      -394.95349        50.000  
 16 04 02 12 41 20.3000000  0  3G26G04G23                                       
  21331985.44549 112100338.72749    -15128.96549        49.000  
  21278204.64849 111817719.02049     -9796.62549        49.000  
  22338431.35249 117389248.85549      -400.97749        50.000  
 16 04 02 12 41 20.4000000  0  3G26G04G23                                       
  21332273.39849 112101851.93049    -15134.42249        49.000  
  21278391.13349 111818699.00849     -9802.34849        49.000  
  22338439.05549 117389289.32049      -407.90249        50.000  
 16 04 02 12 41 20.5000000  0  3G26G04G23                                       
  21332561.43849 112103365.56249    -15138.47749        49.000  
  21278577.69549 111819679.44549     -9806.60549        49.000  
  22338446.87549 117389330.35549      -413.34449        50.000  
 16 04 02 12 41 20.6000000  0  3G26G04G23                                       
  21332849.55549 112104879.68049    -15143.38349        49.000  
  21278764.36749 111820660.38349     -9811.76649        49.000  
  22338454.79749 117389372.00049      -419.57849        50.000  
 16 04 02 12 41 20.7000000  0  3G26G04G23                                       
  21333137.76649 112106394.23449    -15147.77749        49.000  
  21278951.11749 111821641.77749     -9816.25049        49.000  
  22338462.84449 117389414.23449      -425.43449        50.000  
 16 04 02 12 41 20.8000000  0  3G26G04G23                                       
  21333426.07049 112107909.25849    -15152.37149        49.000  
  21279137.96949 111822623.67249     -9821.18849        49.000  
  22338470.99249 117389457.07449      -431.36749        50.000  
 16 04 02 12 41 20.9000000  0  3G26G04G23                                       
  21333714.46149 112109424.74649    -15157.08249        49.000  
  21279324.89849 111823606.03549     -9825.91849        49.000  
  22338479.26649 117389500.51249      -437.38349        50.000  
 16 04 02 12 41 21.0000000  0  3G26G04G23                                       
  21334002.85949 112110940.67249    -15161.43449        49.000  
  21279511.93049 111824588.86749     -9830.55149        49.000  
  22338487.64149 117389544.53549      -443.23849        50.000  
 16 04 02 12 41 21.1000000  0  3G26G04G23                                       
  21334291.42249 112112457.08649    -15166.31249        49.000  
  21279699.06249 111825572.21149     -9835.70749        49.000  
  22338496.14849 117389589.18849      -449.52749        50.000  
 16 04 02 12 41 21.2000000  0  3G26G04G23                                       
  21334580.04749 112113973.95749    -15170.91449        49.000  
  21279886.27349 111826556.03549     -9840.52749        49.000  
  22338504.75849 117389634.43849      -455.59049        50.000  
 16 04 02 12 41 21.3000000  0  3G26G04G23                                       
  21334868.78149 112115491.25449    -15175.11749        49.000  
  21280073.57049 111827540.29349     -9844.81649        49.000  
  22338513.46949 117389680.24649      -461.02349        50.000  
 16 04 02 12 41 21.4000000  0  3G26G04G23                                       
  21335157.58649 112117009.05549    -15180.31249        49.000  
  21280260.96949 111828525.09049     -9850.31249        49.000  
  22338522.30549 117389726.70749      -467.76249        50.000  
 16 04 02 12 41 21.5000000  0  3G26G04G23                                       
  21335446.50849 112118527.34449    -15185.23049        49.000  
  21280448.46149 111829510.39149     -9855.44549        49.000  
  22338531.26649 117389773.79349      -474.00849        50.000  
 16 04 02 12 41 21.6000000  0  3G26G04G23                                       
  21335735.50049 112120046.08649    -15189.60949        49.000  
  21280636.04749 111830496.16449     -9860.03149        49.000  
  22338540.33649 117389821.47349      -479.82849        50.000  
 16 04 02 12 41 21.7000000  0  3G26G04G23                                       
  21336024.57849 112121565.20349    -15193.26649        49.000  
  21280823.72749 111831482.33249     -9863.87549        49.000  
  22338549.50849 117389869.66449      -484.85949        50.000  
 16 04 02 12 41 21.8000000  0  3G26G04G23                                       
  21336313.77349 112123084.85549    -15198.59849        49.000  
  21281011.49249 111832469.05149     -9869.39149        49.000  
  22338558.81249 117389918.53149      -491.64849        50.000  
 16 04 02 12 41 21.9000000  0  3G26G04G23                                       
  21336603.03949 112124604.93049    -15202.84049        49.000  
  21281199.34449 111833456.22349     -9873.84849        49.000  
  22338568.21949 117389967.96149      -497.26649        50.000  
 16 04 02 12 41 22.0000000  0  3G26G04G23                                       
  21336892.36749 112126125.48849    -15207.89149        49.000  
  21281387.28949 111834443.89549     -9879.06249        49.000  
  22338577.74249 117390018.02349      -503.71149        50.000  
 16 04 02 12 41 22.1000000  0  3G26G04G23                                       
  21337181.81249 112127646.50449    -15212.38349        49.000  
  21281575.34449 111835432.04749     -9883.79749        49.000  
  22338587.38349 117390068.68049      -509.62549        50.000  
 16 04 02 12 41 22.2000000  0  3G26G04G23                                       
  21337471.37549 112129168.04749    -15217.62149        49.000  
  21281763.48449 111836420.75449     -9889.42249        49.000  
  22338597.14849 117390119.99249      -516.21149        50.000  
 16 04 02 12 41 22.3000000  0  3G26G04G23                                       
  21337760.99249 112130689.98849    -15221.62549        49.000  
  21281951.70349 111837409.86749     -9893.55149        49.000  
  22338607.02349 117390171.85549      -521.69949        50.000  
 16 04 02 12 41 22.4000000  0  3G26G04G23                                       
  21338050.71149 112132212.34049    -15225.69549        49.000  
  21282140.00849 111838399.41849     -9897.75849        49.000  
  22338616.99249 117390224.25849      -527.13349        50.000  
 16 04 02 12 41 22.5000000  0  3G26G04G23                                       
  21338340.50049 112133735.18049    -15230.48849        49.000  
  21282328.40649 111839389.48049     -9902.82449        49.000  
  22338627.08649 117390277.30949      -533.45749        50.000  
 16 04 02 12 41 22.6000000  0  3G26G04G23                                       
  21338630.35949 112135258.45749    -15234.87549        49.000  
  21282516.89849 111840379.99649     -9907.37149        49.000  
  22338637.28949 117390330.92249      -539.10549        50.000  
 16 04 02 12 41 22.7000000  0  3G26G04G23                                       
  21338920.32049 112136782.19149    -15239.48849        49.000  
  21282705.49249 111841370.99649     -9912.26649        49.000  
  22338647.60249 117390385.13749      -545.14149        50.000  
 16 04 02 12 41 22.8000000  0  3G26G04G23                                       
  21339210.38349 112138306.44549    -15244.76649        49.000  
  21282894.17249 111842362.52749     -9917.57449        49.000  
  22338658.04749 117390440.00849      -551.77749        50.000  
 16 04 02 12 41 22.9000000  0  3G26G04G23                                       
  21339500.52349 112139831.14849    -15249.35949        49.000  
  21283082.94549 111843354.53949     -9922.50049        49.000  
  22338668.60249 117390495.47349      -557.85949        50.000  
 16 04 02 12 41 23.0000000  0  3G26G04G23                                       
  21339790.75049 112141356.37549    -15254.52749        49.000  
  21283271.82849 111844347.09049     -9927.85249        49.000  
  22338679.28149 117390551.60549      -564.41449        50.000  
 16 04 02 12 41 23.1000000  0  3G26G04G23                                       
  21340081.06249 112142881.95349    -15258.05949        49.000  
  21283460.78149 111845340.01649     -9931.59449        49.000  
  22338690.05549 117390608.22349      -569.19149        50.000  
 16 04 02 12 41 23.2000000  0  3G26G04G23                                       
  21340371.44549 112144407.96949    -15262.16449        49.000  
  21283649.81249 111846333.39549     -9935.87549        49.000  
  22338700.94549 117390665.41849      -574.77749        50.000  
 16 04 02 12 41 23.3000000  0  3G26G04G23                                       
  21340661.93049 112145934.45749    -15266.97349        49.000  
  21283838.93049 111847327.26649     -9940.94549        49.000  
  22338711.94549 117390723.23449      -581.07049        50.000  
 16 04 02 12 41 23.4000000  0  3G26G04G23                                       
  21340952.50849 112147461.42649    -15271.86749        49.000  
  21284028.15649 111848321.64549     -9946.09049        49.000  
  22338723.06249 117390781.66849      -587.38349        50.000  
 16 04 02 12 41 23.5000000  0  3G26G04G23                                       
  21341243.16449 112148988.82049    -15276.04349        49.000  
  21284217.46949 111849316.46949     -9950.43849        49.000  
  22338734.28149 117390840.67249      -593.02349        50.000  
 16 04 02 12 41 23.6000000  0  3G26G04G23                                       
  21341533.88349 112150516.66049    -15280.68449        49.000  
  21284406.86749 111850311.76249     -9955.16049        49.000  
  22338745.61749 117390900.25849      -598.94149        50.000  
 16 04 02 12 41 23.7000000  0  3G26G04G23                                       
  21341824.71949 112152044.98449    -15285.28149        49.000  
  21284596.37549 111851307.55949     -9960.18049        49.000  
  22338757.07849 117390960.46149      -604.94149        50.000  
 16 04 02 12 41 23.8000000  0  3G26G04G23                                       
  21342115.56249 112153573.68849    -15289.25449        49.000  
  21284785.94549 111852303.75849     -9964.31649        49.000  
  22338768.63349 117391021.19549      -610.30949        50.000  
 16 04 02 12 41 23.9000000  0  3G26G04G23                                       
  21342406.56249 112155102.90249    -15294.14849        49.000  
  21284975.64149 111853300.48449     -9969.38749        49.000  
  22338780.32049 117391082.59049      -616.76249        50.000  
 16 04 02 12 41 24.0000000  0  3G26G04G23                                       
  21342697.64149 112156632.56249    -15298.86749        49.000  
  21285165.39849 111854297.67649     -9974.19149        49.000  
  22338792.10949 117391144.55149      -622.66449        50.000  
 16 04 02 12 41 24.1000000  0  3G26G04G23                                       
  21342988.82049 112158162.71549    -15303.85949        49.000  
  21285355.25849 111855295.39149     -9979.52749        49.000  
  22338804.01649 117391207.16849      -629.30549        50.000  
 16 04 02 12 41 24.2000000  0  3G26G04G23                                       
  21343280.08649 112159693.35949    -15308.64149        49.000  
  21285545.21149 111856293.61749     -9984.59049        49.000  
  22338816.04749 117391270.40249      -635.41449        50.000  
 16 04 02 12 41 24.3000000  0  3G26G04G23                                       
  21343571.43049 112161224.38749    -15312.50049        49.000  
  21285735.24249 111857292.24249     -9988.59049        49.000  
  22338828.18049 117391334.16449      -640.69549        50.000  
 16 04 02 12 41 24.4000000  0  3G26G04G23                                       
  21343862.87549 112162755.90649    -15317.07049        49.000  
  21285925.37549 111858291.37949     -9993.50449        49.000  
  22338840.43849 117391398.55549      -646.78149        50.000  
 16 04 02 12 41 24.5000000  0  3G26G04G23                                       
  21344154.38349 112164287.79749    -15320.94949        49.000  
  21286115.58649 111859290.91049     -9997.43049        49.000  
  22338852.78149 117391463.46149      -651.92649        50.000  
 16 04 02 12 41 24.6000000  0  3G26G04G23                                       
  21344445.99249 112165820.19549    -15325.96149        49.000  
  21286305.89149 111860290.96949    -10002.67649        49.000  
  22338865.25849 117391529.01649      -658.39149        50.000  
 16 04 02 12 41 24.7000000  0  3G26G04G23                                       
  21344737.68049 112167353.00849    -15330.35549        49.000  
  21286496.26649 111861291.46549    -10007.32849        49.000  
  22338877.83649 117391595.12949      -664.23849        50.000  
 16 04 02 12 41 24.8000000  0  3G26G04G23                                       
  21345029.45349 112168886.32049    -15335.24249        49.000  
  21286686.75849 111862292.48849    -10012.51249        49.000  
  22338890.53949 117391661.89149      -670.59049        50.000  
 16 04 02 12 41 24.9000000  0  3G26G04G23                                       
  21345321.32049 112170420.08249    -15339.71949        49.000  
  21286877.32849 111863293.96949    -10017.11349        49.000  
  22338903.34449 117391729.21949      -676.29349        50.000  
 16 04 02 12 41 25.0000000  0  3G26G04G23                                       
  21345613.28949 112171954.32049    -15344.52049        49.000  
  21287068.00049 111864295.96149    -10022.19149        49.000  
  22338916.28149 117391797.19149      -682.65649        50.000  
 16 04 02 12 41 25.1000000  0  3G26G04G23                                       
  21345905.34449 112173489.07049    -15349.86349        49.000  
  21287258.76649 111865298.48049    -10027.68849        49.000  
  22338929.34449 117391865.80549      -689.46549        50.000  
 16 04 02 12 41 25.2000000  0  3G26G04G23                                       
  21346197.47749 112175024.25449    -15354.04349        49.000  
  21287449.62549 111866301.45349    -10032.05549        49.000  
  22338942.50849 117391934.99249      -694.93849        50.000  
 16 04 02 12 41 25.3000000  0  4G29G26G04G23                                    
  22386143.78149 117639978.64559     15206.47749        50.000  
  21346489.68049 112176559.79749    -15357.42249        49.000  
  21287640.56249 111867304.80549    -10035.63349        49.000  
  22338955.76649 117392004.67649      -699.63349        50.000  
 16 04 02 12 41 25.4000000  0  4G29G26G04G23                                    
  22385854.44549 117638458.19549     15203.03949        50.000  
  21346781.99249 112178095.83649    -15362.43049        49.000  
  21287831.59449 111868308.68449    -10041.00449        49.000  
  22338969.14849 117392075.00849      -706.27349        50.000  
 16 04 02 12 41 25.5000000  0  4G29G26G04G23                                    
  22385565.14149 117636938.02349     15200.38349        50.000  
  21347074.36749 112179632.30149    -15366.68449        49.000  
  21288022.69549 111869312.99249    -10045.37149        49.000  
  22338982.63349 117392145.91049      -711.93449        50.000  
 16 04 02 12 41 25.6000000  0  4G29G26G04G23                                    
  22385275.92249 117635418.15649     15197.18449        50.000  
  21347366.85949 112181169.25449    -15371.67649        49.000  
  21288213.90649 111870317.82049    -10050.53149        49.000  
  22338996.24249 117392217.43049      -718.21149        50.000  
 16 04 02 12 41 25.7000000  0  4G29G26G04G23                                    
  22384986.75049 117633898.62149     15193.80149        50.000  
  21347659.43049 112182706.69949    -15376.72749        49.000  
  21288405.21149 111871323.15649    -10055.66049        49.000  
  22339009.96949 117392289.58649      -724.66049        50.000  
 16 04 02 12 41 25.8000000  0  4G29G26G04G23                                    
  22384697.64849 117632379.38749     15190.84449        50.000  
  21347952.09449 112184244.59849    -15381.22749        49.000  
  21288596.61749 111872328.98449    -10060.63349        49.000  
  22339023.81249 117392362.35249      -730.67649        50.000  
 16 04 02 12 41 25.9000000  0  4G29G26G04G23                                    
  22384408.60949 117630860.44149     15187.71949        50.000  
  21348244.82849 112185782.96149    -15385.86349        49.000  
  21288788.13349 111873335.27749    -10065.34849        49.000  
  22339037.77349 117392435.71149      -736.79349        50.000  
 16 04 02 12 41 26.0000000  0  4G29G26G04G23                                    
  22384119.60949 117629341.77349     15185.21149        50.000  
  21348537.64149 112187321.77049    -15390.17249        49.000  
  21288979.71949 111874342.05549    -10069.99249        49.000  
  22339051.84449 117392509.66049      -742.47749        50.000  
 16 04 02 12 41 26.1000000  0  4G29G26G04G23                                    
  22383830.67249 117627823.42649     15182.00849        50.000  
  21348830.55549 112188861.06249    -15395.05949        49.000  
  21289171.38349 111875349.32049    -10074.86749        49.000  
  22339066.03949 117392584.23049      -748.70749        50.000  
 16 04 02 12 41 26.2000000  0  4G29G26G04G23                                    
  22383541.79749 117626305.35949     15179.10249        50.000  
  21349123.56249 112190400.79749    -15399.57849        49.000  
  21289363.14849 111876357.06249    -10079.73849        49.000  
  22339080.33649 117392659.39149      -754.76649        50.000  
 16 04 02 12 41 26.3000000  0  4G29G26G04G23                                    
  22383252.97749 117624787.57849     15176.37149        50.000  
  21349416.64849 112191940.99249    -15404.04749        49.000  
  21289555.00049 111877365.27349    -10084.29749        49.000  
  22339094.75849 117392735.14149      -760.51649        50.000  
 16 04 02 12 41 26.4000000  0  4G29G26G04G23                                    
  22382964.19549 117623270.02749     15174.14149        50.000  
  21349709.82849 112193481.57049    -15407.83649        49.000  
  21289746.93049 111878373.89549    -10088.37149        49.000  
  22339109.27349 117392811.42649      -765.77349        50.000  
 16 04 02 12 41 26.5000000  0  4G29G26G04G23                                    
  22382675.50049 117621752.82049     15170.51649        50.000  
  21350003.08649 112195022.66049    -15413.05149        49.000  
  21289938.96949 111879383.05949    -10093.87149        49.000  
  22339123.91449 117392888.36749      -772.43049        50.000  
 16 04 02 12 41 26.6000000  0  4G29G26G04G23                                    
  22382386.84449 117620235.93849     15167.34449        50.000  
  21350296.44549 112196564.23849    -15417.97749        49.000  
  21290131.10249 111880392.72749    -10099.00849        49.000  
  22339138.68049 117392965.94549      -778.82049        50.000  
 16 04 02 12 41 26.7000000  0  4G29G26G04G23                                    
  22382098.23449 117618719.27749     15165.05549        50.000  
  21350589.87549 112198106.21149    -15421.95749        49.000  
  21290323.32049 111881402.80549    -10103.11349        49.000  
  22339153.53949 117393044.04349      -784.13749        50.000  
 16 04 02 12 41 26.8000000  0  4G29G26G04G23                                    
  22381809.68849 117617202.93849     15161.88349        50.000  
  21350883.42249 112199648.66849    -15426.77049        49.000  
  21290515.62549 111882413.39149    -10108.04349        49.000  
  22339168.51649 117393122.77349      -790.34049        50.000  
 16 04 02 12 41 26.9000000  0  4G29G26G04G23                                    
  22381521.18049 117615686.90249     15159.09449        50.000  
  21351177.03149 112201191.57849    -15431.16849        49.000  
  21290708.02349 111883424.45749    -10112.75449        49.000  
  22339183.61749 117393202.10249      -796.12949        50.000  
 16 04 02 12 41 27.0000000  0  4G29G26G04G23                                    
  22381232.73449 117614171.10949     15156.45749        50.000  
  21351470.73449 112202734.91049    -15435.46949        49.000  
  21290900.50049 111884435.95749    -10117.26249        49.000  
  22339198.82049 117393281.99249      -801.89149        50.000  
 16 04 02 12 41 27.1000000  0  4G29G26G04G23                                    
  22380944.34449 117612655.60549     15153.68449        50.000  
  21351764.50849 112204278.69149    -15439.87949        49.000  
  21291093.07849 111885447.93449    -10121.85549        49.000  
  22339214.12549 117393362.47349      -807.72749        50.000  
 16 04 02 12 41 27.2000000  0  4G29G26G04G23                                    
  22380656.02349 117611140.46549     15149.77349        50.000  
  21352058.39149 112205822.99649    -15445.24249        49.000  
  21291285.75849 111886460.46549    -10127.62949        49.000  
  22339229.57049 117393443.62949      -814.66849        50.000  
 16 04 02 12 41 27.3000000  0  4G29G26G04G23                                    
  22380367.75049 117609625.56649     15147.50449        50.000  
  21352352.34449 112207367.71949    -15449.30149        49.000  
  21291478.51649 111887473.41449    -10131.75449        49.000  
  22339245.11749 117393525.32849      -820.03149        50.000  
 16 04 02 12 41 27.4000000  0  4G29G26G04G23                                    
  22380079.52349 117608110.93449     15145.01649        50.000  
  21352646.38349 112208912.85949    -15453.44949        49.000  
  21291671.35949 111888486.81649    -10136.07849        49.000  
  22339260.77349 117393607.60249      -825.55549        50.000  
 16 04 02 12 41 27.5000000  0  4G29G26G04G23                                    
  22379791.34449 117606596.59449     15141.82849        50.000  
  21352940.50049 112210458.46949    -15458.29749        49.000  
  21291864.30549 111889500.69549    -10140.94149        49.000  
  22339276.54749 117393690.48049      -831.86749        50.000  
 16 04 02 12 41 27.6000000  0  4G29G26G04G23                                    
  22379503.23449 117605082.55549     15139.03949        50.000  
  21353234.70349 112212004.53549    -15462.80949        49.000  
  21292057.33649 111890515.07449    -10145.84049        49.000  
  22339292.43049 117393773.95749      -837.76649        50.000  
 16 04 02 12 41 27.7000000  0  4G29G26G04G23                                    
  22379215.16449 117603568.82049     15135.63349        50.000  
  21353529.00049 112213551.06649    -15467.58649        49.000  
  21292250.46149 111891529.93049    -10150.96149        49.000  
  22339308.43049 117393858.05149      -844.11749        50.000  
 16 04 02 12 41 27.8000000  0  4G29G26G04G23                                    
  22378927.17249 117602055.42649     15132.39149        50.000  
  21353823.40649 112215098.10549    -15472.55549        49.000  
  21292443.68849 111892545.32049    -10156.23449        49.000  
  22339324.55549 117393942.78549      -850.38349        50.000  
 16 04 02 12 41 27.9000000  0  4G29G26G04G23                                    
  22378639.22749 117600542.35249     15129.04349        50.000  
  21354117.89149 112216645.63749    -15477.67649        49.000  
  21292636.99249 111893561.20749    -10161.37149        49.000  
  22339340.80549 117394028.15249      -856.94949        50.000  
 16 04 02 12 41 28.0000000  0  4G29G26G04G23                                    
  22378351.35249 117599029.54349     15126.63349        50.000  
  21354412.46949 112218193.59049    -15481.75049        49.000  
  21292830.39849 111894577.55549    -10165.67249        49.000  
  22339357.15649 117394114.08649      -862.30949        50.000  
 16 04 02 12 41 28.1000000  0  4G29G26G04G23                                    
  22378063.51649 117597516.97349     15124.27049        50.000  
  21354707.10949 112219741.93849    -15485.64849        49.000  
  21293023.88349 111895594.31249    -10169.79749        49.000  
  22339373.60949 117394200.55949      -867.59849        50.000  
 16 04 02 12 41 28.2000000  0  4G29G26G04G23                                    
  22377775.73449 117596004.67249     15121.60249        50.000  
  21355001.81249 112221290.73449    -15489.97749        49.000  
  21293217.45349 111896611.53949    -10174.39149        49.000  
  22339390.17249 117394287.62949      -873.50849        50.000  
 16 04 02 12 41 28.3000000  0  4G29G26G04G23                                    
  22377488.00049 117594492.65249     15118.75049        50.000  
  21355296.61749 112222839.96549    -15494.41049        49.000  
  21293411.12549 111897629.23049    -10179.11349        49.000  
  22339406.85249 117394375.27349      -879.41449        50.000  
 16 04 02 12 41 28.4000000  0  4G29G26G04G23                                    
  22377200.33649 117592980.96549     15115.37549        50.000  
  21355591.53149 112224389.69949    -15499.52349        49.000  
  21293604.87549 111898647.42249    -10184.16049        49.000  
  22339423.64849 117394463.53949      -885.76649        50.000  
 16 04 02 12 41 28.5000000  0  4G29G26G04G23                                    
  22376912.71949 117591469.55149     15112.81249        50.000  
  21355886.51649 112225939.85949    -15503.73849        49.000  
  21293798.71949 111899666.08649    -10188.84049        49.000  
  22339440.56249 117394552.41449      -891.69149        50.000  
 16 04 02 12 41 28.6000000  0  4G29G26G04G23                                    
  22376625.17249 117589958.45749     15109.33249        50.000  
  21356181.57849 112227490.51249    -15508.79749        49.000  
  21293992.65649 111900685.25449    -10193.98849        49.000  
  22339457.59449 117394641.90649      -897.94549        50.000  
 16 04 02 12 41 28.7000000  0  4G29G26G04G23                                    
  22376337.67249 117588447.62949     15106.66849        50.000  
  21356476.73449 112229041.59049    -15513.00049        49.000  
  21294186.69549 111901704.88349    -10198.66449        49.000  
  22339474.72749 117394731.96949      -903.77349        50.000  
 16 04 02 12 41 28.8000000  0  4G29G26G04G23                                    
  22376050.23449 117586937.14549     15103.39549        50.000  
  21356772.00849 112230593.18049    -15518.03949        49.000  
  21294380.82049 111902725.02049    -10203.61349        49.000  
  22339491.99249 117394822.68449      -910.12949        50.000  
 16 04 02 12 41 28.9000000  0  4G29G26G04G23                                    
  22375762.84449 117585426.89549     15101.10249        50.000  
  21357067.33649 112232145.15249    -15521.79749        49.000  
  21294575.02349 111903745.59049    -10207.91449        49.000  
  22339509.35249 117394913.92649      -915.43849        50.000  
 16 04 02 12 41 29.0000000  0  4G29G26G04G23                                    
  22375475.50849 117583916.91849     15098.40649        50.000  
  21357362.76649 112233697.58649    -15526.35249        49.000  
  21294769.32049 111904766.61349    -10212.36349        49.000  
  22339526.82049 117395005.75849      -921.17249        50.000  
 16 04 02 12 41 29.1000000  0  4G29G26G04G23                                    
  22375188.23449 117582407.21149     15095.68849        50.000  
  21357658.25849 112235250.43049    -15530.53149        49.000  
  21294963.69549 111905788.08249    -10216.82049        49.000  
  22339544.40649 117395098.16049      -926.95349        50.000  
 16 04 02 12 41 29.2000000  0  4G29G26G04G23                                    
  22374901.00049 117580897.80949     15092.37149        50.000  
  21357953.86749 112236803.75849    -15535.60949        49.000  
  21295158.17249 111906810.05549    -10221.99249        49.000  
  22339562.10949 117395191.17649      -933.40649        50.000  
 16 04 02 12 41 29.3000000  0  4G29G26G04G23                                    
  22374613.83649 117579388.74649     15089.21949        50.000  
  21358249.54749 112238357.57449    -15540.26649        49.000  
  21295352.75849 111907832.55149    -10227.09849        49.000  
  22339579.93049 117395284.84049      -939.59449        50.000  
 16 04 02 12 41 29.4000000  0  4G29G26G04G23                                    
  22374326.71149 117577879.93049     15086.73049        50.000  
  21358545.29749 112239911.81249    -15544.49249        49.000  
  21295547.41449 111908855.47349    -10231.40249        49.000  
  22339597.85949 117395379.05549      -945.14149        50.000  
 16 04 02 12 41 29.5000000  0  4G29G26G04G23                                    
  22374039.65649 117576371.39549     15083.90249        50.000  
  21358841.14849 112241466.48449    -15548.87549        49.000  
  21295742.15649 111909878.86349    -10236.17249        49.000  
  22339615.89149 117395473.85949      -951.00449        50.000  
 16 04 02 12 41 29.6000000  0  4G29G26G04G23                                    
  22373752.65649 117574863.18049     15080.69149        50.000  
  21359137.08649 112243021.64849    -15553.73049        49.000  
  21295937.00049 111910902.75849    -10241.21949        49.000  
  22339634.05549 117395569.28949      -957.23849        50.000  
 16 04 02 12 41 29.7000000  0  4G29G26G04G23                                    
  22373465.70349 117573355.26649     15077.63349        50.000  
