     2.10           OBSERVATION DATA    G (GPS)             RINEX VERSION / TYPE
Convert v1.8.0                          09-Jun-2016 15:04   PGM / RUN BY / DATE 
Signal Strength values S1,S2 are in dBHz                    COMMENT             
                                                            MARKER NAME         
                                                            MARKER NUMBER       
                                                            OBSERVER / AGENCY   
                    NovAtel GPSCard                         REC # / TYPE / VERS 
                                                            ANT # / TYPE        
0.0000        0.0000        0.0000                          APPROX POSITION XYZ 
        0.0000        0.0000        0.0000                  ANTENNA: DELTA H/E/N
     1     0                                                WAVELENGTH FACT L1/2
     1     0     3   G02   G13   G29                        WAVELENGTH FACT L1/2
                                                            COMMENT             
                                                            COMMENT             
                                                            COMMENT             
                                                            COMMENT             
                                                            COMMENT             
                                                            COMMENT             
     4    C1    L1    D1    S1                              # / TYPES OF OBSERV 
     0.100                                                  INTERVAL            
  2016    04    02    14    41     6.7000000    GPS         TIME OF FIRST OBS   
  2016    04    02    14    43    23.8000000    GPS         TIME OF LAST OBS    
Leap Seconds Unknown                                        COMMENT             
                                                            END OF HEADER       
 16 04 02 14 41  6.7000000  0  1G13                                             
  19746405.01649 103768057.46559     -8778.11349        50.000  
 16 04 02 14 41  6.8000000  0  1G13                                             
  19746572.11749 103768935.57049     -8783.88349        50.000  
 16 04 02 14 41  6.9000000  0  1G13                                             
  19746739.33649 103769814.26649     -8789.90249        50.000  
 16 04 02 14 41  7.0000000  0  2G02G13                                          
  22374754.68849 117580128.18459     -2441.18449        48.000  
  19746906.64849 103770693.47349     -8795.02349        50.000  
 16 04 02 14 41  7.1000000  0  2G02G13                                          
  22374801.15649 117580372.39149     -2442.80149        48.000  
  19747074.05549 103771573.25449     -8800.80949        50.000  
 16 04 02 14 41 13.6000000  0  1G29                                             
  17913905.86749  94138209.66459    -10199.88749        49.000  
 16 04 02 14 41 13.7000000  0  1G29                                             
  17914100.00049  94139229.85549    -10204.52749        49.000  
 16 04 02 14 41 13.8000000  0  1G29                                             
  17914294.21949  94140250.53549    -10209.45349        49.000  
 16 04 02 14 41 13.9000000  0  1G29                                             
  17914488.53149  94141271.64849    -10213.65249        49.000  
 16 04 02 14 41 14.0000000  0  1G29                                             
  17914682.94549  94142293.21549    -10218.36749        49.000  
 16 04 02 14 41 14.1000000  0  1G29                                             
  17914877.44549  94143315.31649    -10223.61349        49.000  
 16 04 02 14 41 14.2000000  0  1G29                                             
  17915072.00849  94144337.78149    -10227.05549        49.000  
 16 04 02 14 41 14.3000000  0  1G29                                             
  17915266.65649  94145360.66049    -10230.97349        49.000  
 16 04 02 14 41 14.4000000  0  1G29                                             
  17915461.39849  94146384.01649    -10235.84849        49.000  
 16 04 02 14 41 14.5000000  0  1G29                                             
  17915656.21949  94147407.83249    -10240.69149        49.000  
 16 04 02 14 41 14.6000000  0  1G29                                             
  17915851.15649  94148432.09049    -10245.11749        49.000  
 16 04 02 14 41 14.7000000  0  1G29                                             
  17916046.15649  94149456.83249    -10250.02349        49.000  
 16 04 02 14 41 14.8000000  0  1G29                                             
  17916241.26649  94150482.03149    -10254.59049        49.000  
 16 04 02 14 41 14.9000000  0  1G29                                             
  17916436.44549  94151507.69149    -10259.01249        49.000  
 16 04 02 14 41 15.0000000  0  1G29                                             
  17916631.71149  94152533.82049    -10263.93449        49.000  
 16 04 02 14 41 15.1000000  0  1G29                                             
  17916827.05549  94153560.35949    -10267.87949        49.000  
 16 04 02 14 41 15.2000000  0  1G29                                             
  17917022.50849  94154587.34449    -10272.35249        49.000  
 16 04 02 14 41 15.3000000  0  1G29                                             
  17917218.03949  94155614.84849    -10277.52749        49.000  
 16 04 02 14 41 15.4000000  0  1G29                                             
  17917413.62549  94156642.75449    -10281.74649        49.000  
 16 04 02 14 41 15.5000000  0  1G29                                             
  17917609.32849  94157671.16449    -10286.56249        49.000  
 16 04 02 14 41 15.6000000  0  1G29                                             
  17917805.11749  94158700.00049    -10291.15649        49.000  
 16 04 02 14 41 15.7000000  0  1G29                                             
  17918000.99249  94159729.35249    -10296.13349        49.000  
 16 04 02 14 41 15.8000000  0  1G29                                             
  17918196.94549  94160759.17649    -10300.72749        49.000  
 16 04 02 14 41 15.9000000  0  1G29                                             
  17918392.99249  94161789.40649    -10304.69149        49.000  
 16 04 02 14 41 16.0000000  0  1G29                                             
  17918589.13349  94162820.03949    -10309.06649        49.000  
 16 04 02 14 41 16.1000000  0  1G29                                             
  17918785.34449  94163851.14849    -10313.67649        49.000  
 16 04 02 14 41 16.2000000  0  1G29                                             
  17918981.63349  94164882.69949    -10317.83649        49.000  
 16 04 02 14 41 16.3000000  0  1G29                                             
  17919178.02349  94165914.72749    -10322.74249        49.000  
 16 04 02 14 41 16.4000000  0  1G29                                             
  17919374.49249  94166947.15649    -10326.75449        49.000  
 16 04 02 14 41 16.5000000  0  1G29                                             
  17919571.04749  94167980.06249    -10331.51249        49.000  
 16 04 02 14 41 16.6000000  0  1G29                                             
  17919767.67249  94169013.38349    -10335.81649        49.000  
 16 04 02 14 41 16.7000000  0  1G29                                             
  17919964.39149  94170047.16449    -10340.35949        49.000  
 16 04 02 14 41 16.8000000  0  1G29                                             
  17920161.18849  94171081.42649    -10345.32449        49.000  
 16 04 02 14 41 16.9000000  0  1G29                                             
  17920358.09449  94172116.17649    -10350.13349        49.000  
 16 04 02 14 41 17.0000000  0  1G29                                             
  17920555.10249  94173151.37149    -10354.53149        49.000  
 16 04 02 14 41 17.1000000  0  1G29                                             
  17920752.17249  94174186.97349    -10358.53149        49.000  
 16 04 02 14 41 17.2000000  0  1G29                                             
  17920949.32049  94175223.05549    -10363.30549        49.000  
 16 04 02 14 41 17.3000000  0  1G29                                             
  17921146.57849  94176259.65649    -10368.55549        49.000  
 16 04 02 14 41 17.4000000  0  1G29                                             
  17921343.90649  94177296.68849    -10373.00049        49.000  
 16 04 02 14 41 17.5000000  0  1G29                                             
  17921541.34449  94178334.21949    -10377.63349        49.000  
 16 04 02 14 41 17.6000000  0  1G29                                             
  17921738.82849  94179372.07849    -10381.08249        49.000  
 16 04 02 14 41 17.7000000  0  1G29                                             
  17921936.43049  94180410.48449    -10386.31249        49.000  
 16 04 02 14 41 17.8000000  0  1G29                                             
  17922134.11749  94181449.27049    -10390.36349        49.000  
 16 04 02 14 41 17.9000000  0  1G29                                             
  17922331.88349  94182488.56649    -10395.53149        49.000  
 16 04 02 14 41 18.0000000  0  1G29                                             
  17922529.73449  94183528.30549    -10399.99649        49.000  
 16 04 02 14 41 18.1000000  0  1G29                                             
  17922727.68049  94184568.48849    -10404.35249        49.000  
 16 04 02 14 41 18.2000000  0  1G29                                             
  17922925.68849  94185609.07049    -10408.38349        49.000  
 16 04 02 14 41 18.3000000  0  1G29                                             
  17923123.81249  94186650.21149    -10413.77749        49.000  
 16 04 02 14 41 18.4000000  0  1G29                                             
  17923322.00849  94187691.73449    -10417.79349        49.000  
 16 04 02 14 41 18.5000000  0  1G29                                             
  17923520.28949  94188733.71949    -10422.55149        49.000  
 16 04 02 14 41 18.6000000  0  1G29                                             
  17923718.67249  94189776.26649    -10427.93049        49.000  
 16 04 02 14 41 18.7000000  0  1G29                                             
  17923917.13349  94190819.18849    -10431.93049        49.000  
 16 04 02 14 41 18.8000000  0  1G29                                             
  17924115.70349  94191862.60549    -10436.62949        49.000  
 16 04 02 14 41 18.9000000  0  1G29                                             
  17924314.33649  94192906.42649    -10440.73049        49.000  
 16 04 02 14 41 19.0000000  0  1G29                                             
  17924513.05549  94193950.72349    -10445.37549        49.000  
 16 04 02 14 41 19.1000000  0  1G29                                             
  17924711.85949  94194995.45349    -10449.89549        49.000  
 16 04 02 14 41 19.2000000  0  1G29                                             
  17924910.78149  94196040.71549    -10454.93849        49.000  
 16 04 02 14 41 19.3000000  0  1G29                                             
  17925109.75849  94197086.34049    -10458.87549        49.000  
 16 04 02 14 41 19.4000000  0  1G29                                             
  17925308.82049  94198132.45349    -10463.84849        49.000  
 16 04 02 14 41 19.5000000  0  1G29                                             
  17925507.98449  94199179.04749    -10468.32449        49.000  
 16 04 02 14 41 19.6000000  0  1G29                                             
  17925707.23449  94200226.10249    -10473.16449        49.000  
 16 04 02 14 41 19.7000000  0  1G29                                             
  17925906.57049  94201273.62949    -10477.78949        49.000  
 16 04 02 14 41 19.8000000  0  1G29                                             
  17926105.98449  94202321.55949    -10481.76649        49.000  
 16 04 02 14 41 19.9000000  0  1G29                                             
  17926305.48449  94203369.93849    -10486.16449        49.000  
 16 04 02 14 41 20.0000000  0  1G29                                             
  17926505.07049  94204418.78549    -10490.99649        49.000  
 16 04 02 14 41 20.1000000  0  1G29                                             
  17926704.73449  94205468.02049    -10494.77349        49.000  
 16 04 02 14 41 20.2000000  0  1G29                                             
  17926904.49249  94206517.76649    -10500.00849        49.000  
 16 04 02 14 41 20.3000000  0  1G29                                             
  17927104.33649  94207567.94949    -10504.36349        49.000  
 16 04 02 14 41 20.4000000  0  1G29                                             
  17927304.25049  94208618.59449    -10508.96149        49.000  
 16 04 02 14 41 20.5000000  0  1G29                                             
  17927504.27349  94209669.71149    -10513.79749        49.000  
 16 04 02 14 41 20.6000000  0  1G29                                             
  17927704.35249  94210721.28549    -10518.43449        49.000  
 16 04 02 14 41 20.7000000  0  1G29                                             
  17927904.54749  94211773.31249    -10522.65649        49.000  
 16 04 02 14 41 20.8000000  0  1G29                                             
  17928104.82849  94212825.82049    -10527.61749        49.000  
 16 04 02 14 41 20.9000000  0  1G29                                             
  17928305.19549  94213878.74649    -10531.81249        49.000  
 16 04 02 14 41 21.0000000  0  1G29                                             
  17928505.66449  94214932.15649    -10536.44549        49.000  
 16 04 02 14 41 21.1000000  0  1G29                                             
  17928706.19549  94215985.95749    -10540.37149        49.000  
 16 04 02 14 41 21.2000000  0  1G29                                             
  17928906.83649  94217040.27049    -10545.64549        49.000  
 16 04 02 14 41 21.3000000  0  1G29                                             
  17929107.54749  94218094.99249    -10549.78149        49.000  
 16 04 02 14 41 21.4000000  0  1G29                                             
  17929308.33649  94219150.18049    -10554.38749        49.000  
 16 04 02 14 41 21.5000000  0  1G29                                             
  17929509.22749  94220205.84449    -10559.06249        49.000  
 16 04 02 14 41 21.6000000  0  1G29                                             
  17929710.18049  94221261.92249    -10563.30949        49.000  
 16 04 02 14 41 21.7000000  0  1G29                                             
  17929911.24249  94222318.50449    -10568.30549        49.000  
 16 04 02 14 41 21.8000000  0  1G29                                             
  17930112.39849  94223375.51649    -10572.69549        49.000  
 16 04 02 14 41 21.9000000  0  1G29                                             
  17930313.62549  94224432.95749    -10576.88749        49.000  
 16 04 02 14 41 22.0000000  0  1G29                                             
  17930514.91449  94225490.82849    -10581.18449        49.000  
 16 04 02 14 41 22.1000000  0  1G29                                             
  17930716.30549  94226549.17249    -10586.00049        49.000  
 16 04 02 14 41 22.2000000  0  1G29                                             
  17930917.77349  94227607.99649    -10590.55949        49.000  
 16 04 02 14 41 22.3000000  0  1G29                                             
  17931119.34449  94228667.24649    -10595.02749        49.000  
 16 04 02 14 41 22.4000000  0  1G29                                             
  17931321.00049  94229726.93449    -10599.39549        49.000  
 16 04 02 14 41 22.5000000  0  1G29                                             
  17931522.75049  94230787.13749    -10604.69149        49.000  
 16 04 02 14 41 22.6000000  0  1G29                                             
  17931724.59449  94231847.83649    -10609.39849        49.000  
 16 04 02 14 41 22.7000000  0  1G29                                             
  17931926.51649  94232908.96149    -10613.80549        49.000  
 16 04 02 14 41 22.8000000  0  1G29                                             
  17932128.52349  94233970.54749    -10618.57049        49.000  
 16 04 02 14 41 22.9000000  0  1G29                                             
  17932330.62549  94235032.61749    -10623.46149        49.000  
 16 04 02 14 41 23.0000000  0  1G29                                             
  17932532.80549  94236095.13349    -10627.70349        49.000  
 16 04 02 14 41 23.1000000  0  1G29                                             
  17932735.07849  94237158.09449    -10632.28949        49.000  
 16 04 02 14 41 23.2000000  0  1G29                                             
  17932937.42249  94238221.46549    -10636.29349        49.000  
 16 04 02 14 41 23.3000000  0  1G29                                             
  17933139.86749  94239285.32449    -10640.60249        49.000  
 16 04 02 14 41 23.4000000  0  1G29                                             
  17933342.37549  94240349.54749    -10644.82449        49.000  
 16 04 02 14 41 23.5000000  0  1G29                                             
  17933544.98449  94241414.25049    -10649.41849        49.000  
 16 04 02 14 41 23.6000000  0  1G29                                             
  17933747.68849  94242479.45349    -10654.55949        49.000  
 16 04 02 14 41 23.7000000  0  1G29                                             
  17933950.47749  94243545.12949    -10659.60249        49.000  
 16 04 02 14 41 23.8000000  0  1G29                                             
  17934153.37549  94244611.29349    -10664.19949        49.000  
 16 04 02 14 41 23.9000000  0  1G29                                             
  17934356.33649  94245677.85549    -10668.24249        49.000  
 16 04 02 14 41 24.0000000  0  1G29                                             
  17934559.37549  94246744.88749    -10672.57449        49.000  
 16 04 02 14 41 24.1000000  0  1G29                                             
  17934762.50849  94247812.32849    -10677.25849        49.000  
 16 04 02 14 41 24.2000000  0  1G29                                             
  17934965.75049  94248880.28549    -10681.95349        49.000  
 16 04 02 14 41 24.3000000  0  1G29                                             
  17935169.05549  94249948.68449    -10686.50449        49.000  
 16 04 02 14 41 24.4000000  0  1G29                                             
  17935372.45349  94251017.49649    -10690.50849        49.000  
 16 04 02 14 41 24.5000000  0  1G29                                             
  17935575.92249  94252086.74249    -10694.77749        49.000  
 16 04 02 14 41 24.6000000  0  1G29                                             
  17935779.49249  94253156.44549    -10699.80149        49.000  
 16 04 02 14 41 24.7000000  0  1G29                                             
  17935983.14149  94254226.62949    -10704.24249        49.000  
 16 04 02 14 41 24.8000000  0  1G29                                             
  17936186.87549  94255297.20749    -10708.52749        49.000  
 16 04 02 14 41 24.9000000  0  1G29                                             
  17936390.70349  94256368.30949    -10713.75449        49.000  
 16 04 02 14 41 25.0000000  0  1G29                                             
  17936594.61749  94257439.87149    -10718.05549        49.000  
 16 04 02 14 41 25.1000000  0  1G29                                             
  17936798.61749  94258511.89549    -10722.90649        49.000  
 16 04 02 14 41 25.2000000  0  1G29                                             
  17937002.68849  94259584.31649    -10726.68849        49.000  
 16 04 02 14 41 25.3000000  0  1G29                                             
  17937206.86749  94260657.26649    -10731.99649        49.000  
 16 04 02 14 41 25.4000000  0  1G29                                             
  17937411.10949  94261730.66049    -10736.65649        49.000  
 16 04 02 14 41 25.5000000  0  1G29                                             
  17937615.46149  94262804.53549    -10741.25449        49.000  
 16 04 02 14 41 25.6000000  0  1G29                                             
  17937819.89149  94263878.82449    -10745.50049        49.000  
 16 04 02 14 41 25.7000000  0  1G29                                             
  17938024.39849  94264953.51249    -10749.02349        49.000  
 16 04 02 14 41 25.8000000  0  1G29                                             
  17938229.00049  94266028.65649    -10753.65649        49.000  
 16 04 02 14 41 25.9000000  0  1G29                                             
  17938433.67249  94267104.23049    -10758.29349        49.000  
 16 04 02 14 41 26.0000000  0  1G29                                             
  17938638.43849  94268180.29349    -10763.04349        49.000  
 16 04 02 14 41 26.1000000  0  1G29                                             
  17938843.28949  94269256.82049    -10767.93449        49.000  
 16 04 02 14 41 26.2000000  0  1G29                                             
  17939048.23449  94270333.79749    -10772.08649        49.000  
 16 04 02 14 41 26.3000000  0  1G29                                             
  17939253.25849  94271411.18449    -10776.62949        49.000  
 16 04 02 14 41 26.4000000  0  1G29                                             
  17939458.36749  94272489.07449    -10781.44949        49.000  
 16 04 02 14 41 26.5000000  0  1G29                                             
  17939663.56249  94273567.39549    -10785.66849        49.000  
 16 04 02 14 41 26.6000000  0  1G29                                             
  17939868.83649  94274646.11749    -10789.75849        49.000  
 16 04 02 14 41 26.7000000  0  1G29                                             
  17940074.20349  94275725.30149    -10794.25049        49.000  
 16 04 02 14 41 26.8000000  0  1G29                                             
  17940279.66449  94276805.02049    -10799.74249        49.000  
 16 04 02 14 41 26.9000000  0  1G29                                             
  17940485.18849  94277885.07849    -10802.97349        49.000  
 16 04 02 14 41 27.0000000  0  1G29                                             
  17940690.82049  94278965.68049    -10808.53949        49.000  
 16 04 02 14 41 27.1000000  0  1G29                                             
  17940896.53149  94280046.68049    -10812.50449        49.000  
 16 04 02 14 41 27.2000000  0  1G29                                             
  17941102.33649  94281128.13349    -10817.19949        49.000  
 16 04 02 14 41 27.3000000  0  1G29                                             
  17941308.21949  94282210.04749    -10821.35549        49.000  
 16 04 02 14 41 27.4000000  0  1G29                                             
  17941514.19549  94283292.38749    -10826.02749        49.000  
 16 04 02 14 41 27.5000000  0  1G29                                             
  17941720.25849  94284375.26649    -10831.15649        49.000  
 16 04 02 14 41 27.6000000  0  1G29                                             
  17941926.40649  94285458.52349    -10835.47349        49.000  
 16 04 02 14 41 27.7000000  0  1G29                                             
  17942132.63349  94286542.27049    -10839.66449        49.000  
 16 04 02 14 41 27.8000000  0  1G29                                             
  17942338.95349  94287626.45749    -10844.52049        49.000  
 16 04 02 14 41 27.9000000  0  1G29                                             
  17942545.36749  94288711.17249    -10849.64149        49.000  
 16 04 02 14 41 28.0000000  0  1G29                                             
  17942751.85249  94289796.23849    -10853.16849        49.000  
 16 04 02 14 41 28.1000000  0  1G29                                             
  17942958.42249  94290881.79749    -10857.91849        49.000  
 16 04 02 14 41 28.2000000  0  1G29                                             
  17943165.08649  94291967.77349    -10862.16049        49.000  
 16 04 02 14 41 28.3000000  0  1G29                                             
  17943371.82049  94293054.18849    -10866.67249        49.000  
 16 04 02 14 41 28.4000000  0  1G29                                             
  17943578.67249  94294141.10549    -10871.78149        49.000  
 16 04 02 14 41 28.5000000  0  1G29                                             
  17943785.59449  94295228.47349    -10876.23049        49.000  
 16 04 02 14 41 28.6000000  0  1G29                                             
  17943992.59449  94296316.25849    -10880.46549        49.000  
 16 04 02 14 41 28.7000000  0  1G29                                             
  17944199.68049  94297404.53949    -10885.36749        49.000  
 16 04 02 14 41 28.8000000  0  1G29                                             
  17944406.84449  94298493.21149    -10889.19549        49.000  
 16 04 02 14 41 28.9000000  0  1G29                                             
  17944614.10249  94299582.33649    -10893.59449        49.000  
 16 04 02 14 41 29.0000000  0  1G29                                             
  17944821.44549  94300671.87149    -10898.07449        49.000  
 16 04 02 14 41 29.1000000  0  1G29                                             
  17945028.87549  94301761.93049    -10903.05149        49.000  
 16 04 02 14 41 29.2000000  0  1G29                                             
  17945236.39149  94302852.44549    -10907.82849        49.000  
 16 04 02 14 41 29.3000000  0  1G29                                             
  17945443.99249  94303943.37949    -10911.83649        49.000  
 16 04 02 14 41 29.4000000  0  1G29                                             
  17945651.67249  94305034.73049    -10915.90249        49.000  
 16 04 02 14 41 29.5000000  0  1G29                                             
  17945859.44549  94306126.58249    -10921.23049        49.000  
 16 04 02 14 41 29.6000000  0  1G29                                             
  17946067.31249  94307218.91449    -10925.76649        49.000  
 16 04 02 14 41 29.7000000  0  1G29                                             
  17946275.25049  94308311.64149    -10929.88349        49.000  
 16 04 02 14 41 29.8000000  0  1G29                                             
  17946483.26649  94309404.85549    -10934.53549        49.000  
 16 04 02 14 41 29.9000000  0  1G29                                             
  17946691.38349  94310498.52049    -10939.10949        49.000  
 16 04 02 14 41 30.0000000  0  1G29                                             
  17946899.59449  94311592.64149    -10943.70349        49.000  
 16 04 02 14 41 30.1000000  0  1G29                                             
  17947107.88349  94312687.19549    -10948.05949        49.000  
 16 04 02 14 41 30.2000000  0  1G29                                             
  17947316.26649  94313782.19549    -10952.35949        49.000  
 16 04 02 14 41 30.3000000  0  1G29                                             
  17947524.71949  94314877.64149    -10956.93849        49.000  
 16 04 02 14 41 30.4000000  0  1G29                                             
  17947733.26649  94315973.52349    -10961.29749        49.000  
 16 04 02 14 41 30.5000000  0  1G29                                             
  17947941.89849  94317069.87549    -10965.89549        49.000  
 16 04 02 14 41 30.6000000  0  1G29                                             
  17948150.60249  94318166.66449    -10970.55149        49.000  
 16 04 02 14 41 30.7000000  0  1G29                                             
  17948359.39149  94319263.85549    -10974.51249        49.000  
 16 04 02 14 41 30.8000000  0  1G29                                             
  17948568.28149  94320361.53149    -10979.15649        49.000  
 16 04 02 14 41 30.9000000  0  1G29                                             
  17948777.24249  94321459.62949    -10983.58249        49.000  
 16 04 02 14 41 31.0000000  0  1G29                                             
  17948986.27349  94322558.14149    -10987.57449        49.000  
 16 04 02 14 41 31.1000000  0  1G29                                             
  17949195.40649  94323657.15249    -10992.50849        49.000  
 16 04 02 14 41 31.2000000  0  1G29                                             
  17949404.61749  94324756.53149    -10996.28149        49.000  
 16 04 02 14 41 31.3000000  0  1G29                                             
  17949613.91449  94325856.41849    -11001.47749        49.000  
 16 04 02 14 41 31.4000000  0  1G29                                             
  17949823.30549  94326956.72749    -11005.55949        49.000  
 16 04 02 14 41 31.5000000  0  1G29                                             
  17950032.77349  94328057.47749    -11009.97349        49.000  
 16 04 02 14 41 31.6000000  0  1G29                                             
  17950242.31249  94329158.64849    -11014.24649        49.000  
 16 04 02 14 41 31.7000000  0  1G29                                             
  17950451.94549  94330260.26249    -11018.53149        49.000  
 16 04 02 14 41 31.8000000  0  1G29                                             
  17950661.66449  94331362.33649    -11023.27749        49.000  
 16 04 02 14 41 31.9000000  0  1G29                                             
  17950871.47749  94332464.88349    -11028.00449        49.000  
 16 04 02 14 41 32.0000000  0  1G29                                             
  17951081.36749  94333567.89149    -11032.70749        49.000  
 16 04 02 14 41 32.1000000  0  1G29                                             
  17951291.35249  94334671.34449    -11037.25449        49.000  
 16 04 02 14 41 32.2000000  0  1G29                                             
  17951501.43849  94335775.35249    -11042.75049        49.000  
 16 04 02 14 41 32.3000000  0  1G29                                             
  17951711.60249  94336879.77349    -11046.81649        49.000  
 16 04 02 14 41 32.4000000  0  1G29                                             
  17951921.83649  94337984.56249    -11050.42249        49.000  
 16 04 02 14 41 32.5000000  0  1G29                                             
  17952132.17249  94339089.85249    -11055.21949        49.000  
 16 04 02 14 41 32.6000000  0  1G29                                             
  17952342.57849  94340195.57449    -11059.69949        49.000  
 16 04 02 14 41 32.7000000  0  1G29                                             
  17952553.07849  94341301.76249    -11064.46949        49.000  
 16 04 02 14 41 32.8000000  0  1G29                                             
  17952763.66449  94342408.39149    -11068.82449        49.000  
 16 04 02 14 41 32.9000000  0  1G29                                             
  17952974.33649  94343515.46549    -11073.23849        49.000  
 16 04 02 14 41 33.0000000  0  1G29                                             
  17953185.08649  94344622.98449    -11077.56649        49.000  
 16 04 02 14 41 33.1000000  0  1G29                                             
  17953395.93849  94345731.00449    -11082.91449        49.000  
 16 04 02 14 41 33.2000000  0  1G29                                             
  17953606.86749  94346839.45349    -11086.85249        49.000  
 16 04 02 14 41 33.3000000  0  1G29                                             
  17953817.89149  94347948.36749    -11091.76649        49.000  
 16 04 02 14 41 33.4000000  0  1G29                                             
  17954028.98449  94349057.73849    -11096.02349        49.000  
 16 04 02 14 41 33.5000000  0  1G29                                             
  17954240.17249  94350167.53949    -11100.66449        49.000  
 16 04 02 14 41 33.6000000  0  1G29                                             
  17954451.46149  94351277.79349    -11104.92649        49.000  
 16 04 02 14 41 33.7000000  0  1G29                                             
  17954662.82849  94352388.51649    -11109.76249        49.000  
 16 04 02 14 41 33.8000000  0  1G29                                             
  17954874.25849  94353499.65649    -11113.93049        49.000  
 16 04 02 14 41 33.9000000  0  1G29                                             
  17955085.79749  94354611.26249    -11118.35549        49.000  
 16 04 02 14 41 34.0000000  0  1G29                                             
  17955297.40649  94355723.30949    -11122.98049        49.000  
 16 04 02 14 41 34.1000000  0  1G29                                             
  17955509.10949  94356835.82449    -11127.83249        49.000  
 16 04 02 14 41 34.2000000  0  1G29                                             
  17955720.90649  94357948.78149    -11132.05149        49.000  
 16 04 02 14 41 34.3000000  0  1G29                                             
  17955932.78149  94359062.18849    -11136.80949        49.000  
 16 04 02 14 41 34.4000000  0  1G29                                             
  17956144.75049  94360176.11349    -11141.80949        49.000  
 16 04 02 14 41 34.5000000  0  1G29                                             
  17956356.80549  94361290.45749    -11146.28149        49.000  
 16 04 02 14 41 34.6000000  0  1G29                                             
  17956568.94549  94362405.27749    -11150.59849        49.000  
 16 04 02 14 41 34.7000000  0  1G29                                             
  17956781.16449  94363520.48449    -11154.56249        49.000  
 16 04 02 14 41 34.8000000  0  1G29                                             
  17956993.47749  94364636.18449    -11159.45749        49.000  
 16 04 02 14 41 34.9000000  0  1G29                                             
  17957205.87549  94365752.35249    -11164.31249        49.000  
 16 04 02 14 41 35.0000000  0  1G29                                             
  17957418.37549  94366868.98049    -11168.75449        49.000  
 16 04 02 14 41 35.1000000  0  1G29                                             
  17957630.93049  94367985.99249    -11172.72749        49.000  
 16 04 02 14 41 35.2000000  0  1G29                                             
  17957843.58649  94369103.48049    -11177.27749        49.000  
 16 04 02 14 41 35.3000000  0  1G29                                             
  17958056.32049  94370221.39849    -11181.75849        49.000  
 16 04 02 14 41 35.4000000  0  1G29                                             
  17958269.14149  94371339.79349    -11186.41849        49.000  
 16 04 02 14 41 35.5000000  0  1G29                                             
  17958482.04749  94372458.62149    -11190.97349        49.000  
 16 04 02 14 41 35.6000000  0  1G29                                             
  17958695.02349  94373577.86749    -11194.81249        49.000  
 16 04 02 14 41 35.7000000  0  1G29                                             
  17958908.09449  94374697.56249    -11199.55949        49.000  
 16 04 02 14 41 35.8000000  0  1G29                                             
  17959121.26649  94375817.79749    -11204.91049        49.000  
 16 04 02 14 41 35.9000000  0  1G29                                             
  17959334.51649  94376938.44549    -11208.97349        49.000  
 16 04 02 14 41 36.0000000  0  1G29                                             
  17959547.85249  94378059.54349    -11213.57449        49.000  
 16 04 02 14 41 36.1000000  0  1G29                                             
  17959761.28149  94379181.10549    -11218.16049        49.000  
 16 04 02 14 41 36.2000000  0  1G29                                             
  17959974.78149  94380303.12949    -11222.71949        49.000  
 16 04 02 14 41 36.3000000  0  1G29                                             
  17960188.37549  94381425.54749    -11226.65249        49.000  
 16 04 02 14 41 36.4000000  0  1G29                                             
  17960402.04749  94382548.45349    -11231.62949        49.000  
 16 04 02 14 41 36.5000000  0  1G29                                             
  17960615.82049  94383671.81249    -11236.00449        49.000  
 16 04 02 14 41 36.6000000  0  1G29                                             
  17960829.66449  94384795.61749    -11240.64149        49.000  
 16 04 02 14 41 36.7000000  0  1G29                                             
  17961043.60249  94385919.83249    -11244.52749        49.000  
 16 04 02 14 41 36.8000000  0  1G29                                             
  17961257.62549  94387044.51249    -11249.17249        49.000  
 16 04 02 14 41 36.9000000  0  1G29                                             
  17961471.71949  94388169.61749    -11253.43849        49.000  
 16 04 02 14 41 37.0000000  0  1G29                                             
  17961685.91449  94389295.21949    -11258.78949        49.000  
 16 04 02 14 41 37.1000000  0  1G29                                             
  17961900.19549  94390421.28949    -11262.79349        49.000  
 16 04 02 14 41 37.2000000  0  1G29                                             
  17962114.57049  94391547.74649    -11267.40649        49.000  
 16 04 02 14 41 37.3000000  0  1G29                                             
  17962329.02349  94392674.71149    -11272.24649        49.000  
 16 04 02 14 41 37.4000000  0  1G29                                             
  17962543.55549  94393802.10249    -11276.46149        49.000  
 16 04 02 14 41 37.5000000  0  1G29                                             
  17962758.18049  94394929.94149    -11280.88749        49.000  
 16 04 02 14 41 37.6000000  0  1G29                                             
  17962972.88349  94396058.25049    -11285.32449        49.000  
 16 04 02 14 41 37.7000000  0  1G29                                             
  17963187.66449  94397186.93049    -11289.46149        49.000  
 16 04 02 14 41 37.8000000  0  1G29                                             
  17963402.54749  94398316.10949    -11294.21549        49.000  
 16 04 02 14 41 37.9000000  0  1G29                                             
  17963617.50049  94399445.69949    -11298.35549        49.000  
 16 04 02 14 41 38.0000000  0  1G29                                             
  17963832.53149  94400575.70349    -11302.40649        49.000  
 16 04 02 14 41 38.1000000  0  1G29                                             
  17964047.64849  94401706.14849    -11307.03549        49.000  
 16 04 02 14 41 38.2000000  0  1G29                                             
  17964262.87549  94402837.11749    -11312.16849        49.000  
 16 04 02 14 41 38.3000000  0  1G29                                             
  17964478.16449  94403968.46949    -11316.09049        49.000  
 16 04 02 14 41 38.4000000  0  1G29                                             
  17964693.54749  94405100.31649    -11321.03149        49.000  
 16 04 02 14 41 38.5000000  0  1G29                                             
  17964909.00049  94406232.53549    -11324.64549        49.000  
 16 04 02 14 41 38.6000000  0  1G29                                             
  17965124.53949  94407365.24649    -11329.64149        49.000  
 16 04 02 14 41 38.7000000  0  1G29                                             
  17965340.18049  94408498.41849    -11334.23849        49.000  
 16 04 02 14 41 38.8000000  0  1G29                                             
  17965555.90649  94409632.05149    -11338.79749        49.000  
 16 04 02 14 41 38.9000000  0  1G29                                             
  17965771.71149  94410766.11749    -11343.24649        49.000  
 16 04 02 14 41 39.0000000  0  1G29                                             
  17965987.60249  94411900.64149    -11347.85549        49.000  
 16 04 02 14 41 39.1000000  0  1G29                                             
  17966203.57849  94413035.61349    -11352.09449        49.000  
 16 04 02 14 41 39.2000000  0  1G29                                             
  17966419.65649  94414171.05149    -11357.08649        49.000  
 16 04 02 14 41 39.3000000  0  1G29                                             
  17966635.79749  94415306.89849    -11360.74249        49.000  
 16 04 02 14 41 39.4000000  0  1G29                                             
  17966852.02349  94416443.21949    -11365.70749        49.000  
 16 04 02 14 41 39.5000000  0  1G29                                             
  17967068.34449  94417579.98849    -11370.55549        49.000  
 16 04 02 14 41 39.6000000  0  1G29                                             
  17967284.76649  94418717.22749    -11375.04749        49.000  
 16 04 02 14 41 39.7000000  0  1G29                                             
  17967501.26649  94419854.94549    -11379.84049        49.000  
 16 04 02 14 41 39.8000000  0  1G29                                             
  17967717.85249  94420993.07449    -11383.60949        49.000  
 16 04 02 14 41 39.9000000  0  1G29                                             
  17967934.51649  94422131.64849    -11388.21949        49.000  
 16 04 02 14 41 40.0000000  0  1G29                                             
  17968151.26649  94423270.65649    -11392.46149        49.000  
 16 04 02 14 41 40.1000000  0  1G29                                             
  17968368.10249  94424410.15249    -11397.54349        49.000  
 16 04 02 14 41 40.2000000  0  1G29                                             
  17968585.03149  94425550.08249    -11401.85949        49.000  
 16 04 02 14 41 40.3000000  0  1G29                                             
  17968802.03149  94426690.45749    -11406.12149        49.000  
 16 04 02 14 41 40.4000000  0  1G29                                             
  17969019.10949  94427831.22749    -11409.89849        49.000  
 16 04 02 14 41 40.5000000  0  1G29                                             
  17969236.26649  94428972.39149    -11413.96149        49.000  
 16 04 02 14 41 40.6000000  0  1G29                                             
  17969453.51649  94430114.03549    -11419.16049        49.000  
 16 04 02 14 41 40.7000000  0  1G29                                             
  17969670.85249  94431256.14849    -11423.70749        49.000  
 16 04 02 14 41 40.8000000  0  1G29                                             
  17969888.27349  94432398.71949    -11428.22349        49.000  
 16 04 02 14 41 40.9000000  0  1G29                                             
  17970105.78949  94433541.77349    -11433.07849        49.000  
 16 04 02 14 41 41.0000000  0  1G29                                             
  17970323.39149  94434685.25049    -11437.38349        49.000  
 16 04 02 14 41 41.1000000  0  1G29                                             
  17970541.07849  94435829.18449    -11441.79349        49.000  
 16 04 02 14 41 41.2000000  0  1G29                                             
  17970758.82849  94436973.50049    -11445.60949        49.000  
 16 04 02 14 41 41.3000000  0  1G29                                             
  17970976.67249  94438118.27349    -11450.25049        49.000  
 16 04 02 14 41 41.4000000  0  1G29                                             
  17971194.61749  94439263.54349    -11455.34849        49.000  
 16 04 02 14 41 41.5000000  0  1G29                                             
  17971412.63349  94440409.23849    -11459.59849        49.000  
 16 04 02 14 41 41.6000000  0  1G29                                             
  17971630.73449  94441555.35549    -11463.58249        49.000  
 16 04 02 14 41 41.7000000  0  1G29                                             
  17971848.92249  94442701.94549    -11468.48849        49.000  
 16 04 02 14 41 41.8000000  0  1G29                                             
  17972067.20349  94443849.02049    -11473.50849        49.000  
 16 04 02 14 41 41.9000000  0  1G29                                             
  17972285.56249  94444996.53949    -11477.72349        49.000  
 16 04 02 14 41 42.0000000  0  1G29                                             
  17972504.01649  94446144.48849    -11482.15649        49.000  
 16 04 02 14 41 42.1000000  0  1G29                                             
  17972722.54749  94447292.86749    -11486.18449        49.000  
 16 04 02 14 41 42.2000000  0  1G29                                             
  17972941.16449  94448441.68049    -11490.52349        49.000  
 16 04 02 14 41 42.3000000  0  1G29                                             
  17973159.86749  94449590.94949    -11495.17249        49.000  
 16 04 02 14 41 42.4000000  0  1G29                                             
  17973378.64849  94450740.66449    -11499.54749        49.000  
 16 04 02 14 41 42.5000000  0  1G29                                             
  17973597.50849  94451890.75049    -11503.21549        49.000  
 16 04 02 14 41 42.6000000  0  1G29                                             
  17973816.45349  94453041.32849    -11508.22749        49.000  
 16 04 02 14 41 42.7000000  0  1G29                                             
  17974035.49249  94454192.39149    -11513.16849        49.000  
 16 04 02 14 41 42.8000000  0  1G29                                             
  17974254.60949  94455343.86349    -11517.23449        49.000  
 16 04 02 14 41 42.9000000  0  1G29                                             
  17974473.81249  94456495.80549    -11521.78549        49.000  
 16 04 02 14 41 43.0000000  0  1G29                                             
  17974693.10249  94457648.12549    -11525.71549        49.000  
 16 04 02 14 41 43.1000000  0  1G29                                             
  17974912.46949  94458800.90649    -11530.28949        49.000  
 16 04 02 14 41 43.2000000  0  1G29                                             
  17975131.92249  94459954.17249    -11535.24249        49.000  
 16 04 02 14 41 43.3000000  0  1G29                                             
  17975351.47749  94461107.94949    -11540.12549        49.000  
 16 04 02 14 41 43.4000000  0  1G29                                             
  17975571.09449  94462262.07449    -11543.86749        49.000  
 16 04 02 14 41 43.5000000  0  1G29                                             
  17975790.79749  94463416.62149    -11547.94149        49.000  
 16 04 02 14 41 43.6000000  0  1G29                                             
  17976010.59449  94464571.66049    -11552.77349        49.000  
 16 04 02 14 41 43.7000000  0  1G29                                             
  17976230.48449  94465727.19149    -11557.88349        49.000  
 16 04 02 14 41 43.8000000  0  1G29                                             
  17976450.45349  94466883.10949    -11561.73849        49.000  
 16 04 02 14 41 43.9000000  0  1G29                                             
  17976670.50049  94468039.46149    -11565.96549        49.000  
 16 04 02 14 41 44.0000000  0  1G29                                             
  17976890.64149  94469196.27049    -11570.44949        49.000  
 16 04 02 14 41 44.1000000  0  1G29                                             
  17977110.85249  94470353.49649    -11574.77349        49.000  
 16 04 02 14 41 44.2000000  0  1G29                                             
  17977331.15649  94471511.21149    -11579.49249        49.000  
 16 04 02 14 41 44.3000000  0  1G29                                             
  17977551.53949  94472669.31249    -11583.77749        49.000  
 16 04 02 14 41 44.4000000  0  1G29                                             
  17977772.01649  94473827.94549    -11588.88749        49.000  
 16 04 02 14 41 44.5000000  0  1G29                                             
  17977992.58649  94474987.02349    -11593.01249        49.000  
 16 04 02 14 41 44.6000000  0  1G29                                             
  17978213.23449  94476146.49249    -11597.50449        49.000  
 16 04 02 14 41 44.7000000  0  1G29                                             
  17978433.96949  94477306.45349    -11602.04749        49.000  
 16 04 02 14 41 44.8000000  0  1G29                                             
  17978654.77349  94478466.82449    -11606.30549        49.000  
 16 04 02 14 41 44.9000000  0  1G29                                             
  17978875.68049  94479627.68449    -11611.09049        49.000  
 16 04 02 14 41 45.0000000  0  1G29                                             
  17979096.65649  94480788.94549    -11615.00449        49.000  
 16 04 02 14 41 45.1000000  0  1G29                                             
  17979317.71949  94481950.64549    -11619.49249        49.000  
 16 04 02 14 41 45.2000000  0  1G29                                             
  17979538.87549  94483112.78949    -11623.84849        49.000  
 16 04 02 14 41 45.3000000  0  1G29                                             
  17979760.10949  94484275.39549    -11628.64549        49.000  
 16 04 02 14 41 45.4000000  0  1G29                                             
  17979981.43849  94485438.44549    -11632.98849        49.000  
 16 04 02 14 41 45.5000000  0  1G29                                             
  17980202.84449  94486601.93449    -11637.41449        49.000  
 16 04 02 14 41 45.6000000  0  1G29                                             
  17980424.32049  94487765.83249    -11641.56249        49.000  
 16 04 02 14 41 45.7000000  0  1G29                                             
  17980645.89849  94488930.23849    -11646.79749        49.000  
 16 04 02 14 41 45.8000000  0  1G29                                             
  17980867.55549  94490095.13349    -11651.41849        49.000  
 16 04 02 14 41 45.9000000  0  1G29                                             
  17981089.29749  94491260.37549    -11654.88749        49.000  
 16 04 02 14 41 46.0000000  0  1G29                                             
  17981311.12549  94492426.07049    -11659.48849        49.000  
 16 04 02 14 41 46.1000000  0  1G29                                             
  17981533.03949  94493592.24249    -11663.96149        49.000  
 16 04 02 14 41 46.2000000  0  1G29                                             
  17981755.03949  94494758.84849    -11668.65249        49.000  
 16 04 02 14 41 46.3000000  0  1G29                                             
  17981977.12549  94495925.91849    -11673.26649        49.000  
 16 04 02 14 41 46.4000000  0  1G29                                             
  17982199.29749  94497093.43849    -11677.66449        49.000  
 16 04 02 14 41 46.5000000  0  1G29                                             
  17982421.54749  94498261.36749    -11682.04349        49.000  
 16 04 02 14 41 46.6000000  0  1G29                                             
  17982643.89849  94499429.78549    -11686.49249        49.000  
 16 04 02 14 41 46.7000000  0  1G29                                             
  17982866.31249  94500598.57449    -11690.28949        49.000  
 16 04 02 14 41 46.8000000  0  1G29                                             
  17983088.81249  94501767.84849    -11695.14149        49.000  
 16 04 02 14 41 46.9000000  0  1G29                                             
  17983311.40649  94502937.55949    -11699.67649        49.000  
 16 04 02 14 41 47.0000000  0  1G29                                             
  17983534.07849  94504107.72749    -11704.20349        49.000  
 16 04 02 14 41 47.1000000  0  1G29                                             
  17983756.83649  94505278.30149    -11708.29749        49.000  
 16 04 02 14 41 47.2000000  0  1G29                                             
  17983979.67249  94506449.36749    -11713.08649        49.000  
 16 04 02 14 41 47.3000000  0  1G29                                             
  17984202.60249  94507620.88349    -11717.58649        49.000  
 16 04 02 14 41 47.4000000  0  1G29                                             
  17984425.60949  94508792.80549    -11721.59449        49.000  
 16 04 02 14 41 47.5000000  0  1G29                                             
  17984648.70349  94509965.15249    -11725.87949        49.000  
 16 04 02 14 41 47.6000000  0  1G29                                             
  17984871.88349  94511137.97349    -11730.59449        49.000  
 16 04 02 14 41 47.7000000  0  1G29                                             
  17985095.15649  94512311.27749    -11735.62149        49.000  
 16 04 02 14 41 47.8000000  0  1G29                                             
  17985318.50849  94513485.01249    -11739.88749        49.000  
 16 04 02 14 41 47.9000000  0  1G29                                             
  17985541.94549  94514659.17249    -11743.95749        49.000  
 16 04 02 14 41 48.0000000  0  1G29                                             
  17985765.46149  94515833.73849    -11748.12149        49.000  
 16 04 02 14 41 48.1000000  0  1G29                                             
  17985989.06249  94517008.77749    -11752.64149        49.000  
 16 04 02 14 41 48.2000000  0  1G29                                             
  17986212.73449  94518184.15649    -11756.42249        49.000  
 16 04 02 14 41 48.3000000  0  1G29                                             
  17986436.50849  94519360.08649    -11761.68849        49.000  
 16 04 02 14 41 48.4000000  0  1G29                                             
  17986660.35249  94520536.39849    -11765.58249        49.000  
 16 04 02 14 41 48.5000000  0  1G29                                             
  17986884.28949  94521713.17649    -11770.25449        49.000  
 16 04 02 14 41 48.6000000  0  1G29                                             
  17987108.30549  94522890.41849    -11774.95349        49.000  
 16 04 02 14 41 48.7000000  0  1G29                                             
  17987332.40649  94524068.07849    -11779.16849        49.000  
 16 04 02 14 41 48.8000000  0  1G29                                             
  17987556.60249  94525246.23049    -11783.90249        49.000  
 16 04 02 14 41 48.9000000  0  1G29                                             
  17987780.87549  94526424.79749    -11787.91449        49.000  
 16 04 02 14 41 49.0000000  0  1G29                                             
  17988005.23449  94527603.82049    -11792.39149        49.000  
 16 04 02 14 41 49.1000000  0  1G29                                             
  17988229.68049  94528783.28149    -11796.58649        49.000  
 16 04 02 14 41 49.2000000  0  1G29                                             
  17988454.21149  94529963.19549    -11801.14849        49.000  
 16 04 02 14 41 49.3000000  0  1G29                                             
  17988678.81249  94531143.46949    -11804.83649        49.000  
 16 04 02 14 41 49.4000000  0  1G29                                             
  17988903.50849  94532324.25449    -11809.88749        49.000  
 16 04 02 14 41 49.5000000  0  1G29                                             
  17989128.28149  94533505.47749    -11814.21149        49.000  
 16 04 02 14 41 49.6000000  0  1G29                                             
  17989353.14149  94534687.13349    -11818.62949        49.000  
 16 04 02 14 41 49.7000000  0  1G29                                             
  17989578.08649  94535869.22349    -11822.89149        49.000  
 16 04 02 14 41 49.8000000  0  1G29                                             
  17989803.11749  94537051.77349    -11827.57049        49.000  
 16 04 02 14 41 49.9000000  0  1G29                                             
  17990028.22749  94538234.75049    -11831.78549        49.000  
 16 04 02 14 41 50.0000000  0  1G29                                             
  17990253.40649  94539418.12549    -11835.73849        49.000  
 16 04 02 14 41 50.1000000  0  1G29                                             
  17990478.68049  94540601.94549    -11840.09849        49.000  
 16 04 02 14 41 50.2000000  0  1G29                                             
  17990704.03949  94541786.22749    -11844.77049        49.000  
 16 04 02 14 41 50.3000000  0  1G29                                             
  17990929.48449  94542970.95749    -11849.31649        49.000  
 16 04 02 14 41 50.4000000  0  1G29                                             
  17991155.01649  94544156.07449    -11853.17649        49.000  
 16 04 02 14 41 50.5000000  0  1G29                                             
  17991380.62549  94545341.69149    -11858.23849        49.000  
 16 04 02 14 41 50.6000000  0  1G29                                             
  17991606.32049  94546527.73449    -11862.45749        49.000  
 16 04 02 14 41 50.7000000  0  1G29                                             
  17991832.10249  94547714.22749    -11866.88749        49.000  
 16 04 02 14 41 50.8000000  0  1G29                                             
  17992057.97749  94548901.16449    -11871.31649        49.000  
 16 04 02 14 41 50.9000000  0  1G29                                             
  17992283.92249  94550088.54749    -11875.78149        49.000  
 16 04 02 14 41 51.0000000  0  1G29                                             
  17992509.96149  94551276.39149    -11880.54349        49.000  
 16 04 02 14 41 51.1000000  0  1G29                                             
  17992736.07049  94552464.60249    -11884.15249        49.000  
 16 04 02 14 41 51.2000000  0  1G29                                             
  17992962.25849  94553653.26249    -11888.46949        49.000  
 16 04 02 14 41 51.3000000  0  1G29                                             
  17993188.53949  94554842.35949    -11893.05949        49.000  
 16 04 02 14 41 51.4000000  0  1G29                                             
  17993414.89849  94556031.90249    -11897.41449        49.000  
 16 04 02 14 41 51.5000000  0  1G29                                             
  17993641.34449  94557221.88749    -11902.03549        49.000  
 16 04 02 14 41 51.6000000  0  1G29                                             
  17993867.88349  94558412.35549    -11906.67649        49.000  
 16 04 02 14 41 51.7000000  0  1G29                                             
  17994094.50849  94559603.25449    -11911.06249        49.000  
 16 04 02 14 41 51.8000000  0  1G29                                             
  17994321.20349  94560794.55149    -11914.87549        49.000  
 16 04 02 14 41 51.9000000  0  1G29                                             
  17994547.98449  94561986.28949    -11919.30549        49.000  
 16 04 02 14 41 52.0000000  0  1G29                                             
  17994774.85249  94563178.48049    -11923.87149        49.000  
 16 04 02 14 41 52.1000000  0  1G29                                             
  17995001.80549  94564371.16049    -11928.92649        49.000  
