     2.10           OBSERVATION DATA    G (GPS)             RINEX VERSION / TYPE
Convert v1.8.0                          07-Jun-2016 18:55   PGM / RUN BY / DATE 
Signal Strength values S1,S2 are in dBHz                    COMMENT             
                                                            MARKER NAME         
                                                            MARKER NUMBER       
                                                            OBSERVER / AGENCY   
                    NovAtel GPSCard                         REC # / TYPE / VERS 
                                                            ANT # / TYPE        
0.0000        0.0000        0.0000                          APPROX POSITION XYZ 
        0.0000        0.0000        0.0000                  ANTENNA: DELTA H/E/N
     1     1                                                WAVELENGTH FACT L1/2
     1     1     7   G12   G13   G15   G17   G18   G19   G20WAVELENGTH FACT L1/2
     1     1     2   G24   G25                              WAVELENGTH FACT L1/2
                                                            COMMENT             
                                                            COMMENT             
                                                            COMMENT             
                                                            COMMENT             
                                                            COMMENT             
     8    C1    L1    D1    S1    P2    L2    D2    S2      # / TYPES OF OBSERV 
     0.100                                                  INTERVAL            
  2016    04    02    13    16     6.7000000    GPS         TIME OF FIRST OBS   
  2016    04    02    13    20    27.8000000    GPS         TIME OF LAST OBS    
Leap Seconds Unknown                                        COMMENT             
                                                            END OF HEADER       
 16 04 02 13 16  6.7000000  0  1G12                                             
  23031434.51649 121031005.03949     -3075.71149        50.000  

 16 04 02 13 16  6.8000000  0  2G12G19                                          
  23031493.08649 121031312.84049     -3079.77049        50.000  

  22388871.07849 117654310.72359      3284.07449        49.000  

 16 04 02 13 16  6.9000000  0  2G12G19                                          
  23031551.71149 121031620.91049     -3082.42649        50.000  

  22388808.60249 117653982.41049      3281.13349        49.000  

 16 04 02 13 16  7.0000000  0  2G12G19                                          
  23031610.39149 121031929.27749     -3085.30949        50.000  

  22388746.19549 117653654.44949      3277.81649        49.000  

 16 04 02 13 16  7.1000000  0  2G12G19                                          
  23031669.13349 121032237.98049     -3088.89849        50.000  

  22388683.85949 117653326.85949      3273.94149        49.000  

 16 04 02 13 16  7.2000000  0  2G12G19                                          
  23031727.96149 121032547.13349     -3093.09849        50.000  

  22388621.61749 117652999.76249      3269.25049        50.000  

 16 04 02 13 16  7.3000000  0  2G12G19                                          
  23031786.82849 121032856.51649     -3095.77749        50.000  

  22388559.42249 117652672.92249      3266.22349        49.000  

 16 04 02 13 16  7.4000000  0  2G12G19                                          
  23031845.77349 121033166.26249     -3099.37149        50.000  

  22388497.29749 117652346.48449      3262.48449        49.000  

 16 04 02 13 16  7.5000000  0  2G12G19                                          
  23031904.78149 121033476.35549     -3102.61749        50.000  

  22388435.25849 117652020.44949      3258.57049        49.000  

 16 04 02 13 16  7.6000000  0  3G13G12G19                                       
  21588345.75849 113447521.89559     -8945.50449        49.000  

  23031963.85249 121033786.76649     -3106.05149        50.000  

  22388373.28949 117651694.76249      3254.82049        49.000  

 16 04 02 13 16  7.7000000  0  3G13G12G19                                       
  21588516.04749 113448416.75449     -8951.93849        49.000  

  23032022.98449 121034097.48849     -3109.01249        50.000  

  22388311.37549 117651369.41049      3251.64149        50.000  

 16 04 02 13 16  7.8000000  0  3G13G12G19                                       
  21588686.45349 113449312.38349     -8959.69949        49.000  

  23032082.18849 121034408.60949     -3113.17249        50.000  

  22388249.53949 117651044.50049      3247.06649        50.000  

 16 04 02 13 16  7.9000000  0  3G13G12G19                                       
  21588857.01649 113450208.72349     -8966.59049        49.000  

  23032141.46149 121034720.07849     -3116.24249        50.000  

  22388187.78949 117650719.98849      3243.45349        50.000  

 16 04 02 13 16  8.0000000  0  3G13G12G19                                       
  21589027.67249 113451105.62549     -8972.40649        49.000  

  23032200.76649 121035031.76249     -3118.69949        50.000  

  22388126.07049 117650395.71949      3240.71149        50.000  

 16 04 02 13 16  8.1000000  0  3G13G12G19                                       
  21589198.49249 113452003.29349     -8979.76249        49.000  

  23032260.15649 121035343.84449     -3122.38749        50.000  

  22388064.44549 117650071.88749      3236.64549        50.000  

 16 04 02 13 16  8.2000000  0  3G13G12G19                                       
  21589369.41449 113452901.62949     -8986.58249        49.000  

  23032319.60249 121035656.23049     -3125.43849        50.000  

  22388002.88349 117649748.39549      3233.23849        50.000  

 16 04 02 13 16  8.3000000  0  3G13G12G19                                       
  21589540.48449 113453800.62549     -8993.44149        49.000  

  23032379.09449 121035968.92249     -3128.78949        50.000  

  22387941.39149 117649425.25449      3229.44149        50.000  

 16 04 02 13 16  8.4000000  0  3G13G12G19                                       
  21589711.72749 113454700.36749     -9000.75449        49.000  

  23032438.67249 121036281.99249     -3132.55949        50.000  

  22387879.98449 117649102.53149      3225.33249        50.000  

 16 04 02 13 16  8.5000000  0  3G13G12G19                                       
  21589883.07049 113455600.78549     -9007.45749        49.000  

  23032498.30549 121036595.39149     -3135.77749        50.000  

  22387818.64149 117648780.16849      3221.77749        50.000  

 16 04 02 13 16  8.6000000  0  3G13G12G19                                       
  21590054.54749 113456501.93449     -9014.93049        49.000  

  23032558.01649 121036909.15649     -3139.51649        50.000  

  22387757.39149 117648458.21149      3217.51249        50.000  

 16 04 02 13 16  8.7000000  0  3G13G12G19                                       
  21590226.16449 113457403.78549     -9021.89149        49.000  

  23032617.78149 121037223.25449     -3142.83249        50.000  

  22387696.20349 117648136.63349      3213.81249        50.000  

 16 04 02 13 16  8.8000000  0  3G13G12G19                                       
  21590397.89849 113458306.35949     -9029.13349        49.000  

  23032677.62549 121037537.73449     -3146.66849        50.000  

  22387635.09449 117647815.45349      3209.81249        50.000  

 16 04 02 13 16  8.9000000  0  3G13G12G19                                       
  21590569.78149 113459209.58649     -9035.58649        49.000  

  23032737.51649 121037852.49249     -3149.50449        50.000  

  22387574.03949 117647494.61349      3206.48849        50.000  

 16 04 02 13 16  9.0000000  0  3G13G12G19                                       
  21590741.81249 113460113.55949     -9043.09049        49.000  

  23032797.49249 121038167.64849     -3153.36749        50.000  

  22387513.06249 117647174.19949      3202.23449        50.000  

 16 04 02 13 16  9.1000000  0  3G13G12G19                                       
  21590913.96149 113461018.20349     -9049.86349        49.000  

  23032857.51649 121038483.10549     -3156.42249        50.000  

  22387452.15649 117646854.12549      3198.71549        50.000  

 16 04 02 13 16  9.2000000  0  3G13G12G19                                       
  21591086.26649 113461923.60549     -9057.40249        49.000  

  23032917.61749 121038798.97349     -3160.52749        50.000  

  22387391.32849 117646534.49649      3194.39149        50.000  

 16 04 02 13 16  9.3000000  0  3G13G12G19                                       
  21591258.69549 113462829.72349     -9064.52049        49.000  

  23032977.78149 121039115.18849     -3163.94549        50.000  

  22387330.58649 117646215.26649      3190.40649        50.000  

 16 04 02 13 16  9.4000000  0  3G13G12G19                                       
  21591431.22749 113463736.46549     -9070.70349        49.000  

  23033038.00849 121039431.66449     -3166.44149        50.000  

  22387269.89149 117645896.32449      3187.61749        50.000  

 16 04 02 13 16  9.5000000  0  3G13G12G19                                       
  21591603.90649 113464643.87149     -9077.31249        49.000  

  23033098.28149 121039748.45349     -3169.56649        50.000  

  22387209.26649 117645577.73849      3184.05149        50.000  

 16 04 02 13 16  9.6000000  0  3G13G12G19                                       
  21591776.71149 113465552.01649     -9084.76249        49.000  

  23033158.63349 121040065.62149     -3173.35949        50.000  

  22387148.72749 117645259.55949      3179.98849        50.000  

 16 04 02 13 16  9.7000000  0  3G13G12G19                                       
  21591949.65649 113466460.83649     -9091.61749        49.000  

  23033219.04749 121040383.10549     -3176.75049        50.000  

  22387088.25049 117644941.75049      3176.07849        50.000  

 16 04 02 13 16  9.8000000  0  3G13G12G19                                       
  21592122.74249 113467370.37149     -9098.68449        49.000  

  23033279.53149 121040700.94149     -3180.16449        50.000  

  22387027.84449 117644624.31649      3172.43049        50.000  

 16 04 02 13 16  9.9000000  0  3G13G12G19                                       
  21592295.94549 113468280.56649     -9105.22749        49.000  

  23033340.07049 121041019.07849     -3183.05149        50.000  

  22386967.50849 117644307.22749      3169.05149        50.000  

 16 04 02 13 16 10.0000000  0  3G13G12G19                                       
  21592469.28949 113469191.46149     -9112.25849        49.000  

  23033400.67249 121041337.56249     -3186.62949        50.000  

  22386907.23449 117643990.53149      3165.03949        50.000  

 16 04 02 13 16 10.1000000  0  3G13G12G19                                       
  21592642.75849 113470103.01649     -9118.94149        49.000  

  23033461.32849 121041656.34849     -3189.62549        50.000  

  22386847.02349 117643674.16049      3161.82849        50.000  

 16 04 02 13 16 10.2000000  0  3G13G12G19                                       
  21592816.35949 113471015.34049     -9126.52749        49.000  

  23033522.07049 121041975.53149     -3193.56649        50.000  

  22386786.90649 117643358.24249      3157.35249        50.000  

 16 04 02 13 16 10.3000000  0  3G13G12G19                                       
  21592990.09449 113471928.33649     -9133.39549        49.000  

  23033582.87549 121042295.03549     -3196.96549        50.000  

  22386726.85949 117643042.67249      3153.57849        50.000  

 16 04 02 13 16 10.4000000  0  3G13G12G19                                       
  21593163.95349 113472842.04349     -9140.41049        49.000  

  23033643.74249 121042614.89849     -3200.35949        50.000  

  22386666.87549 117642727.49249      3149.97349        50.000  

 16 04 02 13 16 10.5000000  0  3G13G12G19                                       
  21593337.95349 113473756.42249     -9147.04349        49.000  

  23033704.67249 121042935.06649     -3203.39149        50.000  

  22386606.96949 117642412.67249      3146.42249        50.000  

 16 04 02 13 16 10.6000000  0  3G13G12G19                                       
  21593512.11749 113474671.49249     -9154.07049        49.000  

  23033765.66449 121043255.56649     -3206.75449        50.000  

  22386547.13349 117642098.20749      3142.72749        50.000  

 16 04 02 13 16 10.7000000  0  3G13G12G19                                       
  21593686.39149 113475587.30149     -9161.35249        49.000  

  23033826.72749 121043576.44149     -3210.40649        50.000  

  22386487.37549 117641784.16849      3138.59049        50.000  

 16 04 02 13 16 10.8000000  0  3G13G12G19                                       
  21593860.75849 113476503.76649     -9167.98849        49.000  

  23033887.84449 121043897.62949     -3213.59849        50.000  

  22386427.68049 117641470.47349      3135.14549        50.000  

 16 04 02 13 16 10.9000000  0  3G13G12G19                                       
  21594035.28149 113477420.91849     -9174.74649        49.000  

  23033949.03149 121044219.13349     -3216.77049        50.000  

  22386368.05549 117641157.12949      3131.57049        50.000  

 16 04 02 13 16 11.0000000  0  3G13G12G19                                       
  21594209.93849 113478338.76249     -9181.67249        49.000  

  23034010.27349 121044540.97349     -3220.14549        50.000  

  22386308.50049 117640844.16049      3127.87549        50.000  

 16 04 02 13 16 11.1000000  0  3G13G12G19                                       
  21594384.73449 113479257.31249     -9188.91449        49.000  

  23034071.58649 121044863.16049     -3223.80549        50.000  

  22386249.02349 117640531.59449      3123.79349        50.000  

 16 04 02 13 16 11.2000000  0  3G13G12G19                                       
  21594559.66449 113480176.60549     -9196.42249        49.000  

  23034132.96949 121045185.73449     -3227.73449        50.000  

  22386189.61749 117640219.43049      3119.50449        50.000  

 16 04 02 13 16 11.3000000  0  3G13G12G19                                       
  21594734.72749 113481096.54349     -9202.82449        49.000  

  23034194.40649 121045508.59049     -3230.41449        50.000  

  22386130.27349 117639907.60549      3116.26249        50.000  

 16 04 02 13 16 11.4000000  0  3G13G12G19                                       
  21594909.89849 113482017.22749     -9210.25049        49.000  

  23034255.92249 121045831.83649     -3234.20349        50.000  

  22386071.02349 117639596.19149      3112.20749        50.000  

 16 04 02 13 16 11.5000000  0  3G13G12G19                                       
  21595085.21949 113482938.57449     -9216.86749        49.000  

  23034317.50049 121046155.38349     -3237.31649        50.000  

  22386011.82849 117639285.13349      3108.65649        50.000  

 16 04 02 13 16 11.6000000  0  3G13G12G19                                       
  21595260.68849 113483860.62549     -9223.87149        49.000  

  23034379.14149 121046479.28149     -3240.79349        50.000  

  22385952.71149 117638974.44949      3104.88349        50.000  

 16 04 02 13 16 11.7000000  0  3G13G12G19                                       
  21595436.28949 113484783.39549     -9231.15249        49.000  

  23034440.85249 121046803.53549     -3244.59449        50.000  

  22385893.66449 117638664.16849      3100.73449        50.000  

 16 04 02 13 16 11.8000000  0  3G13G12G19                                       
  21595612.01649 113485706.89149     -9238.34849        49.000  

  23034502.62549 121047128.16049     -3248.04349        50.000  

  22385834.70349 117638354.28949      3096.83249        50.000  

 16 04 02 13 16 11.9000000  0  3G13G12G19                                       
  21595787.87549 113486631.05949     -9245.06649        49.000  

  23034564.46949 121047453.09849     -3251.16849        50.000  

  22385775.79749 117638044.76649      3093.37149        50.000  

 16 04 02 13 16 12.0000000  0  3G13G12G19                                       
  21595963.85949 113487555.88749     -9251.57049        49.000  

  23034626.35249 121047778.33249     -3254.16449        50.000  

  22385716.96149 117637735.58649      3089.88349        50.000  

 16 04 02 13 16 12.1000000  0  3G13G12G19                                       
  21596139.98449 113488481.42249     -9258.60549        49.000  

  23034688.30549 121048103.92649     -3257.61349        50.000  

  22385658.20349 117637426.78949      3086.05949        50.000  

 16 04 02 13 16 12.2000000  0  3G13G12G19                                       
  21596316.22749 113489407.63749     -9265.52349        49.000  

  23034750.32049 121048429.81649     -3260.70749        50.000  

  22385599.50849 117637118.34049      3082.63349        50.000  

 16 04 02 13 16 12.3000000  0  3G13G12G19                                       
  21596492.61749 113490334.54349     -9272.32449        49.000  

  23034812.40649 121048756.07449     -3264.23449        50.000  

  22385540.88349 117636810.28149      3078.84449        50.000  

 16 04 02 13 16 12.4000000  0  3G13G12G19                                       
  21596669.11749 113491262.09449     -9278.73049        49.000  

  23034874.53949 121049082.59049     -3266.91849        50.000  

  22385482.32049 117636502.53549      3075.64849        50.000  

 16 04 02 13 16 12.5000000  0  3G13G12G19                                       
  21596845.76649 113492190.36749     -9286.06649        49.000  

  23034936.75049 121049409.48449     -3270.68449        50.000  

  22385423.83649 117636195.19149      3071.58649        50.000  

 16 04 02 13 16 12.6000000  0  3G13G12G19                                       
  21597022.55549 113493119.30949     -9292.85549        49.000  

  23034999.01649 121049736.68849     -3274.02049        50.000  

  22385365.41449 117635888.20349      3067.85949        50.000  

 16 04 02 13 16 12.7000000  0  3G13G12G19                                       
  21597199.47749 113494049.03149     -9300.58249        49.000  

  23035061.35949 121050064.31649     -3278.07849        50.000  

  22385307.07849 117635581.67249      3063.42249        50.000  

 16 04 02 13 16 12.8000000  0  3G13G12G19                                       
  21597376.49249 113494979.39549     -9306.98449        49.000  

  23035123.75849 121050392.22749     -3280.85549        50.000  

  22385248.80549 117635275.46549      3060.25449        50.000  

 16 04 02 13 16 12.9000000  0  3G13G12G19                                       
  21597553.66449 113495910.42249     -9313.48049        49.000  

  23035186.21949 121050720.43449     -3283.73849        50.000  

  22385190.60249 117634969.59849      3056.96149        50.000  

 16 04 02 13 16 13.0000000  0  3G13G12G19                                       
  21597730.97749 113496842.15649     -9320.68449        49.000    21597727.32041
  88439082.31251     -7262.87141        20.000  
  23035248.74249 121051049.00049     -3287.35949        50.000  

  22385132.46149 117634664.12549      3052.85249        50.000  

 16 04 02 13 16 13.1000000  0  3G13G12G19                                       
  21597908.40649 113497774.56649     -9327.46549        49.000    21597904.75041
  88439808.84841     -7268.15241        20.000  
  23035311.32049 121051377.87949     -3290.62149        50.000  

  22385074.39849 117634359.00449      3049.35549        50.000  

 16 04 02 13 16 13.2000000  0  3G13G12G19                                       
  21598085.97749 113498707.70349     -9334.74649        49.000    21598078.40641
  88440535.94541     -7273.82841        20.000  
  23035373.97749 121051707.12549     -3294.37949        50.000  

  22385016.41449 117634054.28949      3045.12949        50.000  

 16 04 02 13 16 13.3000000  0  3G13G12G19                                       
  21598263.66449 113499641.49649     -9341.17249        49.000    21598256.10241
  88441263.55941     -7278.83641        20.000  
  23035436.69549 121052036.67249     -3297.26249        50.000  

  22384958.49249 117633749.91449      3041.91049        50.000  

 16 04 02 13 16 13.4000000  0  3G13G12G19                                       
  21598441.50049 113500576.03149     -9348.59049        49.000    21598432.83641
  88441991.78141     -7284.61741        20.000  
  23035499.47749 121052366.60249     -3301.01249        50.000  

  22384900.65649 117633445.95349      3037.78149        50.000  

 16 04 02 13 16 13.5000000  0  3G13G12G19                                       
  21598619.46949 113501511.24249     -9355.46549        49.000    21598610.80541
  88442720.53541     -7289.97341        20.000  
  23035562.32849 121052696.84849     -3304.28149        50.000  

  22384842.88349 117633142.35249      3034.05949        50.000  

 16 04 02 13 16 13.6000000  0  3G13G12G19                                       
  21598797.53949 113502447.10249     -9361.93849        49.000    21598792.80541
  88443449.79741     -7295.01641        20.000  
  23035625.22749 121053027.39549     -3307.22349        50.000  

  22384785.15649 117632839.08649      3030.77749        50.000  

 16 04 02 13 16 13.7000000  0  3G13G12G19                                       
  21598975.76649 113503383.66849     -9368.95749        49.000    21598971.03141
  88444179.60541     -7300.48441        20.000  
  23035688.18849 121053358.27349     -3310.46949        50.000  

  22384727.51649 117632536.19549      3027.11349        50.000  

 16 04 02 13 16 13.8000000  0  3G13G12G19                                       
  21599154.15649 113504321.02049     -9377.15249        49.000    21599152.18841
  88444910.03141     -7306.87141        20.000  
  23035751.23449 121053689.59049     -3315.27349        50.000  

  22384669.96949 117632233.77349      3021.99649        50.000  

 16 04 02 13 16 13.9000000  0  3G13G12G19                                       
  21599332.65649 113505259.04749     -9383.75049        49.000    21599330.68841
  88445640.96141     -7312.01241        20.000  
  23035814.33649 121054021.23049     -3318.16449        50.000  

  22384612.48449 117631931.71949      3018.57849        50.000  

 16 04 02 13 16 14.0000000  0  3G13G12G19                                       
  21599511.29749 113506197.75049     -9390.39849        49.000    21599507.78941
  88446372.41041     -7317.19541        20.000  
  23035877.50849 121054353.18049     -3321.38349        50.000  

  22384555.07849 117631630.01649      3015.02349        50.000  

 16 04 02 13 16 14.1000000  0  3G13G12G19                                       
  21599690.06249 113507137.14149     -9397.10549        49.000    21599686.54741
  88447104.39841     -7322.42241        20.000  
  23035940.74249 121054685.46549     -3324.52049        50.000  

  22384497.73449 117631328.68049      3011.64549        50.000  

 16 04 02 13 16 14.2000000  0  3G13G12G19                                       
  21599868.93849 113508077.25049     -9404.31249        49.000    21599861.53941
  88447836.94941     -7328.03541        20.000  
  23036004.03949 121055018.10949     -3328.10949        50.000  

  22384440.46149 117631027.74249      3007.63349        50.000  

 16 04 02 13 16 14.3000000  0  3G13G12G19                                       
  21600047.96949 113509018.07449     -9411.77749        49.000    21600040.57041
  88448570.05541     -7333.85241        20.000  
  23036067.41449 121055351.10949     -3331.99249        50.000  

  22384383.27349 117630727.19549      3003.36349        50.000  

 16 04 02 13 16 14.4000000  0  3G13G12G19                                       
  21600227.12549 113509959.60549     -9418.87949        49.000  

  23036130.85249 121055684.45349     -3335.50449        50.000  

  22384326.15649 117630427.04349      2999.35549        50.000  

 16 04 02 13 16 14.5000000  0  3G13G12G19                                       
  21600406.43049 113510901.86749     -9426.04749        49.000  

  23036194.35949 121056018.18049     -3339.19949        50.000  

  22384269.11749 117630127.30149      2995.35549        50.000  

 16 04 02 13 16 14.6000000  0  3G13G12G19                                       
  21600585.88349 113511844.82449     -9432.93449        49.000  

  23036257.92249 121056352.23049     -3342.35549        50.000  

  22384212.14149 117629827.93849      2991.61749        50.000  

 16 04 02 13 16 14.7000000  0  3G13G12G19                                       
  21600765.44549 113512788.44549     -9439.45349        49.000  

  23036321.55549 121056686.60549     -3345.29749        50.000  

  22384155.24249 117629528.91449      2988.41449        50.000  

 16 04 02 13 16 14.8000000  0  3G13G12G19                                       
  21600945.14149 113513732.73449     -9446.20349        49.000  

  23036385.24249 121057021.28149     -3348.57849        50.000  

  22384098.40649 117629230.22749      2984.90249        50.000  

 16 04 02 13 16 14.9000000  0  3G13G12G19                                       
  21601124.97749 113514677.75849     -9453.50049        49.000  

  23036449.00849 121057356.33649     -3352.20749        50.000  

  22384041.64849 117628931.97749      2980.71549        50.000  

 16 04 02 13 16 15.0000000  0  3G13G12G19                                       
  21601304.93849 113515623.42649     -9460.02049        49.000  

  23036512.82049 121057691.68849     -3355.24249        50.000  

  22383984.95349 117628634.05149      2977.41849        50.000  

 16 04 02 13 16 15.1000000  0  3G13G12G19                                       
  21601485.02349 113516569.78949     -9466.91449        49.000  

  23036576.69549 121058027.36349     -3358.55949        50.000  

  22383928.33649 117628336.49649      2973.60949        50.000  

 16 04 02 13 16 15.2000000  0  3G13G12G19                                       
  21601665.25049 113517516.86749     -9474.00449        49.000  

  23036640.64149 121058363.40649     -3362.19149        50.000  

  22383871.79749 117628039.32849      2969.80949        50.000  

 16 04 02 13 16 15.3000000  0  3G13G12G19                                       
  21601845.60249 113518464.66049     -9481.35949        49.000  

  23036704.64849 121058699.77749     -3365.59849        50.000  

  22383815.32049 117627742.55949      2965.69549        50.000  

 16 04 02 13 16 15.4000000  0  3G13G12G19                                       
  21602026.08649 113519413.07849     -9487.50449        49.000  

  23036768.71949 121059036.46149     -3368.52349        50.000  

  22383758.89849 117627446.10949      2962.63349        50.000  

 16 04 02 13 16 15.5000000  0  3G13G12G19                                       
  21602206.70349 113520362.21549     -9494.53149        49.000  

  23036832.85249 121059373.47349     -3371.91849        50.000  

  22383702.56249 117627150.04349      2958.82449        50.000  

 16 04 02 13 16 15.6000000  0  3G13G12G19                                       
  21602387.43849 113521312.01649     -9501.38349        49.000  

  23036897.03949 121059710.80549     -3375.07049        50.000  

  22383646.28949 117626854.32449      2955.30149        50.000  

 16 04 02 13 16 15.7000000  0  3G13G12G19                                       
  21602568.32049 113522262.54749     -9508.58649        49.000  

  23036961.29749 121060048.50849     -3378.75449        50.000  

  22383590.09449 117626559.02349      2951.20349        50.000  

 16 04 02 13 16 15.8000000  0  3G13G12G19                                       
  21602749.32849 113523213.75449     -9515.44149        49.000  

  23037025.62549 121060386.53949     -3382.10249        50.000  

  22383533.97749 117626264.08249      2947.50449        50.000  

 16 04 02 13 16 15.9000000  0  3G13G12G19                                       
  21602930.46949 113524165.67649     -9522.55149        49.000  

  23037090.00849 121060724.91049     -3385.64149        50.000  

  22383477.92249 117625969.53149      2943.57449        50.000  

 16 04 02 13 16 16.0000000  0  3G13G12G19                                       
  21603111.73449 113525118.25849     -9528.92649        49.000    21603113.15641
  88461135.85951     -7425.13741        20.000  
  23037154.46149 121061063.59849     -3388.38349        50.000  

  22383421.94549 117625675.32849      2940.32449        50.000  

 16 04 02 13 16 16.1000000  0  3G13G12G19                                       
  21603293.14149 113526071.56649     -9536.42649        49.000    21603294.56241
  88461878.69941     -7430.98041        20.000  
  23037218.98449 121061402.65249     -3392.35549        50.000  

  22383366.03149 117625381.52349      2936.17249        50.000  

 16 04 02 13 16 16.2000000  0  3G13G12G19                                       
  21603474.67249 113527025.55949     -9543.21549        49.000    21603477.96141
  88462622.07441     -7436.27341        20.000  
  23037283.56249 121061742.02749     -3395.59449        50.000  

  22383310.18849 117625088.09049      2932.51649        50.000  

 16 04 02 13 16 16.3000000  0  3G13G12G19                                       
  21603656.33649 113527980.22349     -9549.91849        49.000    21603659.62541
  88463365.97341     -7441.49641        20.000  
  23037348.21149 121062081.72749     -3398.66049        50.000  

  22383254.41449 117624795.00449      2929.09449        50.000  

 16 04 02 13 16 16.4000000  0  3G13G12G19                                       
  21603838.12549 113528935.53949     -9556.38349        49.000  

  23037412.90649 121062421.71949     -3401.56249        50.000  

  22383198.71149 117624502.26249      2925.62549        50.000  

 16 04 02 13 16 16.5000000  0  3G13G12G19                                       
  21604020.06249 113529891.61749     -9563.95749        49.000  

  23037477.68849 121062762.11349     -3405.62949        50.000  

  22383143.08649 117624209.96149      2921.25449        50.000  

 16 04 02 13 16 16.6000000  0  3G13G12G19                                       
  21604202.10249 113530848.34049     -9570.60249        49.000  

  23037542.51649 121063102.80149     -3408.72749        50.000  

  22383087.51649 117623917.98049      2917.86349        50.000  

 16 04 02 13 16 16.7000000  0  3G13G12G19                                       
  21604384.28949 113531805.76249     -9577.58649        49.000  

  23037607.41449 121063443.82049     -3412.01249        50.000  

  22383032.03149 117623626.37549      2914.27049        50.000  

 16 04 02 13 16 16.8000000  0  3G13G12G19                                       
  21604566.60949 113532763.85249     -9584.14849        49.000  

  23037672.36749 121063785.15249     -3415.00449        50.000  

  22382976.60949 117623335.12949      2910.71149        50.000  

 16 04 02 13 16 16.9000000  0  3G13G12G19                                       
  21604749.06249 113533722.64149     -9591.17249        49.000  

  23037737.39149 121064126.83249     -3418.53949        50.000  

  22382921.25849 117623044.26249      2906.91449        50.000  

 16 04 02 13 16 17.0000000  0  3G13G12G19                                       
  21604931.64149 113534682.10249     -9597.90249        49.000    21604929.68841
  88468574.09051     -7478.88741        20.000  
  23037802.46949 121064468.82849     -3421.68049        50.000  

  22382865.97749 117622753.75849      2903.15249        50.000  

 16 04 02 13 16 17.1000000  0  3G13G12G19                                       
  21605114.36749 113535642.35549     -9605.94149        49.000    21605112.42241
  88469322.33641     -7485.14841        20.000  
  23037867.63349 121064811.25049     -3426.09449        50.000  

  22382810.78149 117622463.70349      2898.60949        50.000  

 16 04 02 13 16 17.2000000  0  3G13G12G19                                       
  21605297.20349 113536603.25449     -9612.50849        49.000    21605296.10941
  88470071.08641     -7490.26641        20.000  
  23037932.85249 121065153.97749     -3429.14149        50.000  

  22382755.67249 117622174.00449      2894.97749        50.000  

 16 04 02 13 16 17.3000000  0  3G13G12G19                                       
  21605480.18849 113537564.83649     -9618.97749        49.000    21605479.09441
  88470820.36741     -7495.30941        20.000  
  23037998.13349 121065497.02049     -3432.02749        50.000  

  22382700.60949 117621884.65249      2891.76249        50.000  

 16 04 02 13 16 17.4000000  0  3G13G12G19                                       
  21605663.29749 113538527.05549     -9625.32449        49.000    21605664.54741
  88471570.15241     -7500.25441        20.000  
  23038063.46949 121065840.35549     -3434.95749        50.000  

  22382645.60249 117621595.63349      2888.47349        50.000  

 16 04 02 13 16 17.5000000  0  3G13G12G19                                       
  21605846.53949 113539490.01649     -9632.75049        49.000    21605847.78941
  88472320.51241     -7506.03941        20.000  
  23038128.85949 121066184.05149     -3438.64149        50.000  

  22382590.68049 117621307.01249      2884.41849        50.000  

 16 04 02 13 16 17.6000000  0  3G13G12G19                                       
  21606029.91449 113540453.64549     -9639.66849        49.000    21606033.41441
  88473071.39141     -7511.43041        20.000  
  23038194.32849 121066528.07849     -3442.07049        50.000  

  22382535.82049 117621018.76649      2880.52049        50.000  

 16 04 02 13 16 17.7000000  0  3G13G12G19                                       
  21606213.43049 113541418.01649     -9647.14549        49.000    21606216.93041
  88473822.85241     -7517.25441        20.000  
  23038259.85949 121066872.48449     -3445.76649        50.000  

  22382481.04749 117620730.92249      2876.57049        50.000  

 16 04 02 13 16 17.8000000  0  3G13G12G19                                       
  21606397.06249 113542383.02049     -9653.40649        49.000    21606402.53141
  88474574.80541     -7522.13741        20.000  
  23038325.45349 121067217.17249     -3448.69549        50.000  

  22382426.33649 117620443.42649      2873.14549        50.000  

 16 04 02 13 16 17.9000000  0  3G13G12G19                                       
  21606580.83649 113543348.75049     -9660.67249        49.000    21606586.31241
  88475327.32841     -7527.79741        20.000  
  23038391.10949 121067562.22349     -3452.45749        50.000  

  22382371.69549 117620156.30549      2869.02349        50.000  

 16 04 02 13 16 18.0000000  0  3G13G12G19                                       
  21606764.71949 113544315.16049     -9667.19549        49.000    21606768.63341
  88476080.38341     -7532.87941        23.000  
  23038456.82849 121067907.60249     -3455.14849        50.000  

  22382317.13349 117619869.56249      2865.89149        50.000  

 16 04 02 13 16 18.1000000  0  3G13G12G19                                       
  21606948.75049 113545282.21149     -9673.90249        49.000    21606952.65641
  88476833.93841     -7538.10541        20.000  
  23038522.61749 121068253.27349     -3458.52749        50.000  

  22382262.63349 117619583.14849      2862.21549        49.000  

 16 04 02 13 16 18.2000000  0  3G13G12G19                                       
  21607132.91449 113546249.99249     -9681.19949        49.000    21607137.57841
  88477588.05941     -7543.79341        20.000  
  23038588.46149 121068599.29749     -3462.17649        50.000  

  22382208.20349 117619297.12949      2858.15249        50.000  

 16 04 02 13 16 18.3000000  0  3G13G12G19                                       
  21607317.21949 113547218.49649     -9688.42649        49.000    21607321.88341
  88478342.74641     -7549.42241        20.000  
  23038654.38349 121068945.70349     -3465.83649        50.000  

  22382153.85949 117619011.52049      2854.17249        50.000  

 16 04 02 13 16 18.4000000  0  3G13G12G19                                       
  21607501.63349 113548187.64849     -9694.94549        49.000  

  23038720.35249 121069292.40249     -3468.74249        50.000  

  22382099.56249 117618726.25049      2850.79349        50.000  

 16 04 02 13 16 18.5000000  0  3G13G12G19                                       
  21607686.18849 113549157.48449     -9701.62149        49.000  

  23038786.39149 121069639.42649     -3471.87149        50.000  

  22382045.35249 117618441.34449      2847.18849        50.000  

 16 04 02 13 16 18.6000000  0  3G13G12G19                                       
  21607870.89149 113550128.02749     -9708.73849        49.000  

  23038852.49249 121069986.79749     -3475.52749        50.000  

  22381991.21949 117618156.81649      2843.30149        50.000  

 16 04 02 13 16 18.7000000  0  3G13G12G19                                       
  21608055.70349 113551099.24249     -9715.55149        49.000  

  23038918.66449 121070334.49649     -3478.81649        50.000  

  22381937.14149 117617872.65249      2839.70349        50.000  

 16 04 02 13 16 18.8000000  0  3G13G12G19                                       
  21608240.66449 113552071.17649     -9722.77749        49.000  

  23038984.89149 121070682.53549     -3482.40249        50.000  

  22381883.14149 117617588.89849      2835.51649        50.000  

 16 04 02 13 16 18.9000000  0  3G13G12G19                                       
  21608425.75049 113553043.80549     -9729.43049        49.000  

  23039051.19549 121071030.93049     -3485.43849        50.000  

  22381829.21149 117617305.49249      2832.30149        50.000  

 16 04 02 13 16 19.0000000  0  3G13G12G19                                       
  21608610.93849 113554017.03149     -9735.50449        49.000  

  23039117.53149 121071379.56649     -3488.05949        50.000  

  22381775.33649 117617022.39549      2829.24249        50.000  

 16 04 02 13 16 19.1000000  0  3G13G12G19                                       
  21608796.27349 113554991.00049     -9742.92249        49.000  

  23039183.95349 121071728.58649     -3491.98849        50.000  

  22381721.54749 117616739.71949      2824.85249        50.000  

 16 04 02 13 16 19.2000000  0  3G13G12G19                                       
  21608981.77349 113555965.69149     -9750.09849        49.000  

  23039250.43849 121072077.97749     -3495.56249        50.000  

  22381667.83649 117616457.43849      2821.01249        50.000  

 16 04 02 13 16 19.3000000  0  3G13G12G19                                       
  21609167.36749 113556941.00849     -9756.48449        49.000  

  23039316.97749 121072427.63349     -3498.39549        50.000  

  22381614.18049 117616175.47349      2817.76649        50.000  

 16 04 02 13 16 19.4000000  0  3G13G12G19                                       
  21609353.10949 113557917.07449     -9763.92249        49.000  

  23039383.58649 121072777.67249     -3502.18449        50.000  

  22381560.60949 117615893.93049      2813.51649        50.000  

 16 04 02 13 16 19.5000000  0  3G13G12G19                                       
  21609538.96149 113558893.75049     -9770.14149        49.000  

  23039450.24249 121073127.97749     -3504.79749        50.000  

  22381507.08649 117615612.68049      2810.57849        50.000  

 16 04 02 13 16 19.6000000  0  5G13G25G12G19G15                                 
  21609724.96149 113559871.16449     -9777.43849        49.000  

  26249248.30549 137940729.94959    -15507.77749        48.000  

  23039516.96949 121073478.66049     -3508.62949        50.000  

  22381453.64849 117615331.85549      2806.32849        50.000  

  22063014.68049 115941924.41859     10905.71149        49.000  

 16 04 02 13 16 19.7000000  0  5G13G25G12G19G15                                 
  21609911.08649 113560849.25449     -9784.24649        49.000  

  26249543.41449 137942280.75849    -15508.72749        48.000  

  23039583.77349 121073829.67249     -3511.86349        50.000  

  22381400.28149 117615051.39549      2802.74649        50.000  

  22062807.21149 115940834.15649     10899.24249        49.000  

 16 04 02 13 16 19.8000000  0  5G13G25G12G19G15                                 
  21610097.34449 113561828.05549     -9791.28549        49.000  

  26249838.59449 137943831.70749    -15509.93449        48.000  

  23039650.63349 121074181.03149     -3515.22749        50.000  

  22381346.97749 117614771.32049      2799.02349        50.000  

  22062599.87549 115939744.59449     10892.45749        49.000  

 16 04 02 13 16 19.9000000  0  5G13G25G12G19G15                                 
  21610283.71949 113562807.47749     -9797.52749        49.000  

  26250133.74249 137945382.69949    -15510.49649        48.000  

  23039717.53949 121074532.65249     -3517.94549        50.000  

  22381293.74249 117614491.55149      2795.70749        50.000  

  22062392.65649 115938655.61349     10886.53549        49.000  

 16 04 02 13 16 20.0000000  0  5G13G25G12G19G15                                 
  21610470.25049 113563787.66049     -9805.35249        49.000  

  26250428.96949 137946933.88349    -15512.67649        48.000  

  23039784.53149 121074884.69549     -3522.44149        50.000  

  22381240.58649 117614212.23849      2791.10549        50.000  

  22062185.56249 115937567.37949     10878.92649        49.000  

 16 04 02 13 16 20.1000000  0  5G13G25G12G19G15                                 
  21610656.91449 113564768.59849     -9812.84849        49.000  

  26250724.18049 137948485.23849    -15514.30949        48.000  

  23039851.59449 121075237.11749     -3526.14549        50.000  

  22381187.50849 117613933.33649      2786.95749        50.000  

  22061978.61749 115936479.87549     10871.59049        49.000  

 16 04 02 13 16 20.2000000  0  5G13G25G12G19G15                                 
  21610843.71149 113565750.21149     -9819.65249        49.000  

  26251019.41449 137950036.70349    -15515.33649        48.000  

  23039918.71949 121075589.86749     -3529.38749        50.000  

  22381134.50849 117613654.81649      2783.19149        50.000  

  22061771.78949 115935393.00849     10865.22749        49.000  

 16 04 02 13 16 20.3000000  0  5G13G25G12G19G15                                 
  21611030.62549 113566732.44949     -9825.66449        49.000  

  26251314.65649 137951588.21149    -15515.71949        48.000  

  23039985.90649 121075942.89549     -3531.91849        50.000  

  22381081.56249 117613376.59849      2780.32449        50.000  

  22061565.08649 115934306.76649     10859.15649        49.000  

 16 04 02 13 16 20.4000000  0  5G13G25G12G19G15                                 
  21611217.69549 113567715.44149     -9833.12549        49.000  

  26251609.95349 137953139.90249    -15517.51249        48.000  

  23040053.15649 121076296.30949     -3535.93049        50.000  

  22381028.70349 117613098.80949      2776.05949        50.000  

  22061358.47749 115933221.23049     10852.03949        49.000  

 16 04 02 13 16 20.5000000  0  5G13G25G12G19G15                                 
  21611404.87549 113568699.10549     -9839.87149        49.000  

  26251905.25049 137954691.69149    -15518.41049        48.000  

  23040120.46149 121076650.04349     -3538.98449        50.000  

  22380975.91449 117612821.38349      2772.54349        50.000  

  22061152.03149 115932136.35949     10845.54349        49.000  

 16 04 02 13 16 20.6000000  0  5G13G25G12G19G15                                 
  21611592.19549 113569683.43449     -9846.77049        49.000  

  26252200.55549 137956243.57049    -15519.62149        48.000  

  23040187.83649 121077004.07849     -3542.41849        50.000  

  22380923.18849 117612544.28549      2768.92249        50.000  

  22060945.69549 115931052.11349     10838.97749        49.000  

 16 04 02 13 16 20.7000000  0  5G13G25G12G19G15                                 
  21611779.64149 113570668.46949     -9853.53149        49.000  

  26252495.89149 137957795.59049    -15520.65249        48.000  

  23040255.28149 121077358.49249     -3545.73849        50.000  

  22380870.53949 117612267.61349      2765.04349        50.000  

  22060739.50049 115929968.56249     10832.27349        49.000  

 16 04 02 13 16 20.8000000  0  5G13G25G12G19G15                                 
  21611967.21949 113571654.18049     -9860.41849        49.000  

  26252791.25049 137959347.69949    -15521.72749        48.000  

  23040322.77349 121077713.19949     -3548.87949        50.000  

  22380817.95349 117611991.27349      2761.44149        50.000  

  22060533.43049 115928885.65649     10825.67249        49.000  

 16 04 02 13 16 20.9000000  0  5G13G25G12G19G15                                 
  21612154.92249 113572640.59449     -9867.44949        49.000  

  26253086.63349 137960899.94149    -15523.04749        48.000  

  23040390.35249 121078068.25849     -3552.29349        50.000  

  22380765.43849 117611715.32449      2757.61349        50.000  

  22060327.49249 115927803.42649     10818.99649        49.000  

 16 04 02 13 16 21.0000000  0  5G13G25G12G19G15                                 
  21612342.75849 113573627.66849     -9874.09449        49.000  

  26253382.03949 137962452.26249    -15523.90249        48.000  

  23040457.97749 121078423.62549     -3555.55949        50.000  

  22380712.99249 117611439.71949      2754.10949        50.000  

  22060121.68049 115926721.83249     10812.57449        49.000  

 16 04 02 13 16 21.1000000  0  5G13G25G12G19G15                                 
  21612530.72749 113574615.47349     -9881.34849        49.000  

  26253677.46949 137964004.75049    -15525.40649        48.000  

  23040525.67249 121078779.37149     -3559.06649        50.000  

  22380660.62549 117611164.53149      2750.08249        50.000  

  22059915.99249 115925640.94149     10805.77749        49.000  

 16 04 02 13 16 21.2000000  0  5G13G25G12G19G15                                 
  21612718.82049 113575603.86349     -9887.18449        49.000  

  26253972.93049 137965557.25449    -15525.69149        48.000  

  23040593.41449 121079135.35249     -3561.49649        50.000  

  22380608.31249 117610889.61349      2747.37949        50.000  

  22059710.41449 115924560.63749     10799.75449        49.000  

 16 04 02 13 16 21.3000000  0  5G13G25G12G19G15                                 
  21612907.04749 113576592.97749     -9894.16849        49.000  

  26254268.38349 137967109.89149    -15526.60949        48.000  

  23040661.21149 121079491.68049     -3564.72749        50.000  

  22380556.07849 117610615.09449      2743.55149        50.000  

  22059504.96949 115923481.00849     10793.30949        49.000  

 16 04 02 13 16 21.4000000  0  5G13G25G12G19G15                                 
  21613095.39849 113577582.78149     -9901.45349        49.000  

  26254563.83649 137968662.64849    -15528.31649        48.000  

  23040729.08649 121079848.37149     -3568.65249        50.000  

  22380503.91449 117610340.96149      2739.35949        50.000  

  22059299.64849 115922402.05549     10786.18049        49.000  

 16 04 02 13 16 21.5000000  0  5G13G25G12G19G15                                 
  21613283.88349 113578573.30149     -9908.56649        49.000  

  26254859.34449 137970215.56649    -15529.77749        48.000  

  23040797.02349 121080205.41049     -3572.26649        50.000  

  22380451.82049 117610067.22349      2735.42249        50.000  

  22059094.46949 115921323.79349     10779.27049        49.000  

 16 04 02 13 16 21.6000000  0  5G13G25G12G19G15                                 
  21613472.51649 113579564.49649     -9915.29349        49.000  

  26255154.87549 137971768.56249    -15530.65249        48.000  

  23040865.03149 121080562.76649     -3575.40649        50.000  

  22380399.79749 117609793.83649      2731.84449        50.000  

  22058889.42249 115920246.18449     10772.70749        49.000  

 16 04 02 13 16 21.7000000  0  5G13G25G12G19G15                                 
  21613661.28149 113580556.44149     -9922.89849        49.000  

  26255450.43849 137973321.74249    -15532.62949        48.000  

  23040933.10249 121080920.52049     -3579.40249        50.000  

  22380347.85249 117609520.88749      2727.43449        50.000  

  22058684.49249 115919169.28149     10765.51649        49.000  

 16 04 02 13 16 21.8000000  0  5G13G25G12G19G15                                 
  21613850.16449 113581549.08249     -9929.83249        49.000  

  26255746.01649 137974875.03949    -15533.64849        48.000  

  23041001.25049 121081278.61349     -3582.82049        50.000  

  22380295.98449 117609248.30949      2723.76249        50.000  

  22058479.73449 115918093.07849     10758.68449        49.000  

 16 04 02 13 16 21.9000000  0  5G13G25G12G19G15                                 
  21614039.18049 113582542.39149     -9936.51249        49.000  

  26256041.61749 137976428.43849    -15534.66849        48.000  

  23041069.44549 121081637.02349     -3585.94149        50.000  

  22380244.18849 117608976.09849      2720.21149        50.000  

  22058275.05549 115917017.51649     10752.20349        49.000  

 16 04 02 13 16 22.0000000  0  5G13G25G12G19G15                                 
  21614228.32849 113583536.40649     -9943.47749        49.000  

  26256337.24249 137977981.97349    -15535.96149        48.000  

  23041137.71149 121081995.77749     -3589.37149        50.000  

  22380192.46149 117608704.26649      2716.39849        50.000  

  22058070.49249 115915942.62549     10745.55149        49.000  

 16 04 02 13 16 22.1000000  0  5G13G25G12G19G15                                 
  21614417.60949 113584531.05949     -9949.86349        49.000  

  26256632.88349 137979535.56649    -15536.53549        48.000  

  23041206.03149 121082354.81649     -3592.23449        50.000  

  22380140.78949 117608432.75849      2713.25449        50.000  

  22057866.06249 115914868.35549     10739.46549        49.000  

 16 04 02 13 16 22.2000000  0  5G13G25G12G19G15                                 
  21614607.02349 113585526.43049     -9956.98049        49.000  

  26256928.58649 137981089.30149    -15537.91449        48.000  

  23041274.42249 121082714.21549     -3595.73049        50.000  

  22380089.20349 117608161.65249      2709.24249        50.000  

  22057661.77349 115913794.77349     10732.58649        49.000  

 16 04 02 13 16 22.3000000  0  5G13G25G12G19G15                                 
  21614796.57849 113586522.53149     -9964.28949        49.000  

  26257224.28149 137982643.19149    -15539.40649        48.000  

  23041342.89149 121083074.00449     -3599.42249        50.000  

  22380037.69549 117607890.95749      2705.19549        50.000  

  22057457.60949 115912721.90249     10725.54749        49.000  

 16 04 02 13 16 22.4000000  0  5G13G25G12G19G15                                 
  21614986.25849 113587519.26249     -9970.71149        49.000  

  26257519.98449 137984197.14149    -15540.18049        48.000  

  23041411.40649 121083434.05949     -3602.37949        50.000  

  22379986.24249 117607620.57849      2701.84449        50.000  

  22057253.56249 115911649.64149     10719.21949        49.000  

 16 04 02 13 16 22.5000000  0  5G13G25G12G19G15                                 
  21615176.05549 113588516.68449     -9977.54349        49.000  

  26257815.71949 137985751.21149    -15541.35549        48.000  

  23041479.99249 121083794.44949     -3605.76249        50.000  

  22379934.85949 117607350.58249      2698.07049        50.000  

  22057049.64849 115910578.05549     10712.56649        49.000  

 16 04 02 13 16 22.6000000  0  5G13G25G12G19G15                                 
  21615366.00049 113589514.84049     -9984.82049        49.000  

  26258111.48449 137987305.43849    -15542.86749        48.000  

  23041548.64149 121084155.22349     -3609.52749        50.000  

  22379883.55549 117607080.99249      2693.97349        50.000  

  22056845.88349 115909507.16449     10705.57849        49.000  

 16 04 02 13 16 22.7000000  0  5G13G25G12G19G15                                 
  21615556.07049 113590513.66449     -9991.49649        49.000  

  26258407.26649 137988859.76249    -15543.68849        48.000  

  23041617.35249 121084516.30149     -3612.51649        50.000  

  22379832.32049 117606811.75449      2690.55549        50.000  

  22056642.21949 115908436.92649     10699.16849        49.000  

 16 04 02 13 16 22.8000000  0  5G13G25G12G19G15                                 
  21615746.27349 113591513.19549     -9998.66849        49.000  

  26258703.08649 137990414.20349    -15545.14149        48.000  

  23041686.13349 121084877.74249     -3616.28949        50.000  

  22379781.14849 117606542.91049      2686.46949        50.000  

  22056438.68849 115907367.37549     10692.14149        49.000  

 16 04 02 13 16 22.9000000  0  5G13G25G12G19G15                                 
  21615936.60249 113592513.40249    -10005.36749        49.000  

  26258998.91449 137991968.77049    -15546.26249        48.000  

  23041754.97749 121085239.50049     -3619.36749        50.000  

  22379730.06249 117606274.43449      2682.97749        50.000  

  22056235.28149 115906298.46949     10685.72749        49.000  

 16 04 02 13 16 23.0000000  0  5G13G25G12G19G15                                 
  21616127.07049 113593514.29749    -10012.39549        49.000  

  26259294.75049 137993523.43449    -15547.45749        48.000  

  23041823.87549 121085601.58249     -3622.76649        50.000  

  22379679.04749 117606006.30949      2679.23049        50.000  

  22056032.00049 115905230.23849     10678.94149        49.000  

 16 04 02 13 16 23.1000000  0  5G13G25G12G19G15                                 
  21616317.65649 113594515.84049    -10018.59849        49.000  

  26259590.60949 137995078.18849    -15548.06649        48.000  

  23041892.84449 121085963.97349     -3625.52049        50.000  

  22379628.09449 117605738.54349      2675.86349        50.000  

  22055828.84449 115904162.63749     10672.82049        49.000  

 16 04 02 13 16 23.2000000  0  5G13G25G12G19G15                                 
  21616508.36749 113595518.07049    -10025.44149        49.000  

  26259886.48449 137996633.04349    -15549.00849        48.000  

  23041961.86749 121086326.68849     -3628.73849        50.000  

  22379577.19549 117605471.13349      2672.37949        50.000  

  22055625.79749 115903095.68049     10666.39549        49.000  

 16 04 02 13 16 23.3000000  0  5G13G25G12G19G15                                 
  21616699.21149 113596520.95749    -10032.10549        49.000  

  26260182.38349 137998187.98849    -15550.12549        48.000  

  23042030.94549 121086689.71149     -3632.00849        50.000  

  22379526.37549 117605204.06249      2668.80949        50.000  

  22055422.88349 115902029.37549     10659.78549        49.000  

 16 04 02 13 16 23.4000000  0  5G13G25G12G19G15                                 
  21616890.18849 113597524.53149    -10038.96949        49.000  

  26260478.32049 137999743.04349    -15551.18449        48.000  

  23042100.09449 121087053.06249     -3635.25049        50.000  

  22379475.62549 117604937.36749      2665.15249        50.000  

  22055220.10949 115900963.73049     10653.21149        49.000  

 16 04 02 13 16 23.5000000  0  5G13G25G12G19G15                                 
  21617081.29749 113598528.78149    -10045.77349        49.000  

  26260774.25849 138001298.21149    -15552.17649        48.000  

  23042169.28949 121087416.74249     -3638.50449        50.000  

  22379424.94549 117604671.04349      2661.38349        50.000  

  22055017.45349 115899898.73849     10646.63349        49.000  

 16 04 02 13 16 23.6000000  0  5G13G25G12G19G15                                 
  21617272.53149 113599533.68849    -10052.35549        49.000  

  26261070.18849 138002853.43449    -15552.84849        48.000  

  23042238.55549 121087780.71549     -3641.45749        50.000  

  22379374.32849 117604405.03149      2658.18449        50.000  

  22054814.91449 115898834.37949     10640.43049        49.000  

 16 04 02 13 16 23.7000000  0  5G13G25G12G19G15                                 
  21617463.89149 113600539.32049    -10059.68049        49.000  

  26261366.17249 138004408.83649    -15554.69949        48.000  

  23042307.88349 121088145.05149     -3645.27049        50.000  

  22379323.78949 117604139.44949      2653.85949        50.000  

  22054612.50849 115897770.72349     10633.14549        49.000  

 16 04 02 13 16 23.8000000  0  5G13G25G12G19G15                                 
  21617655.40649 113601545.64149    -10066.41449        49.000  

  26261662.14149 138005964.34049    -15555.48449        48.000  

  23042377.28149 121088509.73849     -3648.42649        50.000  

  22379273.32049 117603874.23849      2650.31649        50.000  

  22054410.21949 115896707.73449     10626.68449        49.000  

 16 04 02 13 16 23.9000000  0  5G13G25G12G19G15                                 
  21617847.03149 113602552.62149    -10073.13349        49.000  

  26261958.15649 138007519.93449    -15556.52349        48.000  

  23042446.73449 121088874.73049     -3651.68049        50.000  

  22379222.92249 117603609.36749      2646.81649        50.000  

  22054208.06249 115895645.38749     10620.16049        49.000  

 16 04 02 13 16 24.0000000  0  5G13G25G12G19G15                                 
  21618038.77349 113603560.26249    -10079.75449        49.000  

  26262254.22749 138009075.62149    -15557.55949        48.000  

  23042516.25049 121089240.02049     -3654.77049        50.000  

  22379172.57849 117603344.84849      2643.20349        50.000  

  22054006.00849 115894583.67649     10613.78949        49.000  

 16 04 02 13 16 24.1000000  0  5G13G25G12G19G15                                 
  21618230.66449 113604568.64149    -10087.02049        49.000  

  26262550.28949 138010631.45749    -15559.00849        48.000  

  23042585.83649 121089605.69549     -3658.42249        50.000  

  22379122.32049 117603080.73449      2639.20349        50.000  

  22053804.10249 115893522.68449     10606.70349        49.000  

 16 04 02 13 17  6.9000000  0  1G12                                             
  22584055.47749 118680011.26659     -5030.37949        50.000  

 16 04 02 13 17  7.0000000  0  2G12G19                                          
  22584151.21949 118680514.41449     -5033.16049        50.000  

