     2.10           OBSERVATION DATA    G (GPS)             RINEX VERSION / TYPE
Convert v1.8.0                          07-Jun-2016 18:54   PGM / RUN BY / DATE 
Signal Strength values S1,S2 are in dBHz                    COMMENT             
                                                            MARKER NAME         
                                                            MARKER NUMBER       
                                                            OBSERVER / AGENCY   
                    NovAtel GPSCard                         REC # / TYPE / VERS 
                                                            ANT # / TYPE        
0.0000        0.0000        0.0000                          APPROX POSITION XYZ 
        0.0000        0.0000        0.0000                  ANTENNA: DELTA H/E/N
     1     1                                                WAVELENGTH FACT L1/2
     1     1     3   G03   G16   G21                        WAVELENGTH FACT L1/2
                                                            COMMENT             
                                                            COMMENT             
                                                            COMMENT             
                                                            COMMENT             
                                                            COMMENT             
                                                            COMMENT             
     4    C1    L1    D1    S1                              # / TYPES OF OBSERV 
     0.100                                                  INTERVAL            
  2016    04    02    12    26    36.9000000    GPS         TIME OF FIRST OBS   
  2016    04    02    12    30    27.8000000    GPS         TIME OF LAST OBS    
Leap Seconds Unknown                                        COMMENT             
                                                            END OF HEADER       
 16 04 02 12 26 36.9000000  0  1G21                                             
  22571815.38349 118615690.02359     -7258.12949        48.000  
 16 04 02 12 26 37.0000000  0  3G21G16G03                                       
  22571953.51649 118616415.89149     -7258.94949        48.000  
  18752073.07849  98542808.19159     12077.85249        49.000  
  21480010.03949 112878213.22359      7742.93449        48.000  
 16 04 02 12 26 37.1000000  0  3G21G16G03                                       
  22572091.64849 118617141.80949     -7259.77049        48.000  
  18751843.28149  98541600.58249     12074.13749        49.000  
  21479862.71949 112877439.06249      7739.64849        48.000  
 16 04 02 12 26 37.2000000  0  3G21G16G03                                       
  22572229.79749 118617867.79349     -7260.16449        48.000  
  18751613.53949  98540393.35949     12070.38349        49.000  
  21479715.47749 112876665.31249      7735.73049        48.000  
 16 04 02 12 26 37.3000000  0  3G21G16G03                                       
  22572367.97749 118618593.86349     -7261.09449        48.000  
  18751383.89149  98539186.52749     12066.44949        50.000  
  21479568.31249 112875891.94149      7731.98049        48.000  
 16 04 02 12 26 37.4000000  0  3G21G16G03                                       
  22572506.17249 118619320.07049     -7262.65649        48.000  
  18751154.31249  98537980.12149     12062.20349        49.000  
  21479421.22749 112875118.97749      7727.78149        48.000  
 16 04 02 12 26 37.5000000  0  3G21G16G03                                       
  22572644.36749 118620046.35949     -7263.44949        48.000  
  18750924.82049  98536774.10549     12058.28549        49.000  
  21479274.21149 112874346.42249      7723.75449        48.000  
 16 04 02 12 26 37.6000000  0  3G21G16G03                                       
  22572782.58649 118620772.70349     -7263.86749        48.000  
  18750695.39849  98535568.46949     12054.54749        49.000  
  21479127.25849 112873574.21549      7720.28949        48.000  
 16 04 02 12 26 37.7000000  0  3G21G16G03                                       
  22572920.82049 118621499.05549     -7263.93849        48.000  
  18750466.03149  98534363.15249     12051.25449        49.000  
  21478980.37549 112872802.34049      7716.87149        48.000  
 16 04 02 12 26 37.8000000  0  3G21G16G03                                       
  22573059.06249 118622225.55549     -7265.50049        48.000  
  18750236.75049  98533158.28149     12046.68849        49.000  
  21478833.56249 112872030.87549      7712.69149        48.000  
 16 04 02 12 26 37.9000000  0  3G21G16G03                                       
  22573197.31249 118622952.07049     -7265.41049        48.000  
  18750007.53149  98531953.72749     12043.82049        49.000  
  21478686.82049 112871259.74649      7709.69949        48.000  
 16 04 02 12 26 38.0000000  0  3G21G16G03                                       
  22573335.57849 118623678.66049     -7266.39549        48.000  
  18749778.37549  98530749.56649     12039.68449        49.000  
  21478540.15649 112870489.00449      7705.70749        48.000  
 16 04 02 12 26 38.1000000  0  3G21G16G03                                       
  22573473.88349 118624405.39149     -7267.46549        48.000  
  18749549.32049  98529545.85249     12035.39149        49.000  
  21478393.57049 112869718.69149      7701.39549        48.000  
 16 04 02 12 26 38.2000000  0  3G21G16G03                                       
  22573612.18049 118625132.13749     -7268.10949        48.000  
  18749320.32049  98528342.46149     12031.78949        49.000  
  21478247.03949 112868948.69549      7698.04749        48.000  
 16 04 02 12 26 38.3000000  0  3G21G16G03                                       
  22573750.50049 118625859.02749     -7269.11349        48.000  
  18749091.40649  98527139.50449     12027.80549        49.000  
  21478100.60249 112868179.14149      7693.84449        48.000  
 16 04 02 12 26 38.4000000  0  3G21G16G03                                       
  22573888.83649 118626585.97749     -7270.10549        48.000  
  18748862.56249  98525936.93049     12023.74649        49.000  
  21477954.21949 112867409.94949      7689.93049        48.000  
 16 04 02 12 26 38.5000000  0  3G21G16G03                                       
  22574027.18049 118627312.97749     -7270.25049        48.000  
  18748633.78949  98524734.71549     12020.39149        49.000  
  21477807.91449 112866641.11749      7686.65649        48.000  
 16 04 02 12 26 38.6000000  0  3G21G16G03                                       
  22574165.53149 118628040.01649     -7270.97349        48.000  
  18748405.08649  98523532.85249     12016.59449        49.000  
  21477661.67249 112865872.62549      7682.93849        48.000  
 16 04 02 12 26 38.7000000  0  3G21G16G03                                       
  22574303.89849 118628767.18449     -7271.81649        48.000  
  18748176.46149  98522331.42649     12012.46949        49.000  
  21477515.51649 112865104.56249      7678.87149        48.000  
 16 04 02 12 26 38.8000000  0  3G21G16G03                                       
  22574442.28949 118629494.43049     -7272.96149        48.000  
  18747947.90649  98521130.35949     12008.69549        49.000  
  21477369.43049 112864336.86749      7675.01249        48.000  
 16 04 02 12 26 38.9000000  0  3G21G16G03                                       
  22574580.68849 118630221.76649     -7273.70349        48.000  
  18747719.43049  98519929.70749     12004.68049        50.000  
  21477223.42249 112863569.56249      7671.16049        48.000  
 16 04 02 12 26 39.0000000  0  3G21G16G03                                       
  22574719.10249 118630949.11349     -7273.85249        48.000  
  18747491.02349  98518729.37949     12001.46949        49.000  
  21477077.46949 112862802.57849      7668.07849        48.000  
 16 04 02 12 26 39.1000000  0  3G21G16G03                                       
  22574857.52349 118631676.55949     -7274.86749        48.000  
  18747262.68849  98517529.44549     11997.54749        49.000  
  21476931.58649 112862035.99249      7664.10549        48.000  
 16 04 02 12 26 39.2000000  0  3G21G16G03                                       
  22574995.96149 118632404.05549     -7275.18049        48.000  
  18747034.41449  98516329.88349     11993.87949        49.000  
  21476785.78149 112861269.75449      7660.61349        48.000  
 16 04 02 12 26 39.3000000  0  3G21G16G03                                       
  22575134.41449 118633131.66049     -7276.59849        48.000  
  18746806.22749  98515130.74249     11989.49649        49.000  
  21476640.04749 112860503.94949      7656.18449        48.000  
 16 04 02 12 26 39.4000000  0  3G21G16G03                                       
  22575272.89849 118633859.36349     -7277.30949        48.000  
  18746578.10949  98513932.00449     11985.64549        49.000  
  21476494.39149 112859738.51649      7652.46149        48.000  
 16 04 02 12 26 39.5000000  0  3G21G16G03                                       
  22575411.38349 118634587.16049     -7278.62949        48.000  
  18746350.07049  98512733.66049     11981.32049        49.000  
  21476348.81249 112858973.48449      7648.32049        48.000  
 16 04 02 12 26 39.6000000  0  3G21G16G03                                       
  22575549.89849 118635315.04349     -7279.18049        48.000  
  18746122.10949  98511535.71949     11977.51249        49.000  
  21476203.31249 112858208.85249      7644.53549        48.000  
 16 04 02 12 26 39.7000000  0  3G21G16G03                                       
  22575688.43049 118636043.03949     -7280.45749        48.000  
  18745894.22749  98510338.19549     11973.31249        49.000  
  21476057.88349 112857444.62549      7640.42649        48.000  
 16 04 02 12 26 39.8000000  0  3G21G16G03                                       
  22575826.96949 118636771.09049     -7280.87949        48.000  
  18745666.41449  98509141.02049     11969.86349        49.000  
  21475912.51649 112856680.74649      7636.96949        48.000  
 16 04 02 12 26 39.9000000  0  3G21G16G03                                       
  22575965.53149 118637499.21149     -7281.74649        48.000  
  18745438.68049  98507944.23449     11965.91849        49.000  
  21475767.22749 112855917.25049      7633.07849        48.000  
 16 04 02 12 26 40.0000000  0  3G21G16G03                                       
  22576104.09449 118638227.36349     -7281.79749        48.000  
  18745211.00049  98506747.80549     11962.59449        49.000  
  21475622.00849 112855154.09849      7629.92249        48.000  
 16 04 02 12 26 40.1000000  0  3G21G16G03                                       
  22576242.68049 118638955.64849     -7283.42249        48.000  
  18744983.41449  98505551.80149     11958.10549        49.000  
  21475476.86749 112854391.36349      7625.48449        48.000  
 16 04 02 12 26 40.2000000  0  3G21G16G03                                       
  22576381.28949 118639684.04749     -7284.46949        48.000  
  18744755.88349  98504356.22349     11953.77049        49.000  
  21475331.81249 112853629.06249      7621.10249        48.000  
 16 04 02 12 26 40.3000000  0  3G21G16G03                                       
  22576519.90649 118640412.48849     -7284.67649        48.000  
  18744528.44549  98503160.99249     11950.55549        49.000  
  21475186.81249 112852867.08249      7617.94549        48.000  
 16 04 02 12 26 40.4000000  0  3G21G16G03                                       
  22576658.53149 118641140.96549     -7285.21949        48.000  
  18744301.04749  98501966.10949     11946.98849        49.000  
  21475041.89149 112852105.44949      7614.60249        48.000  
 16 04 02 12 26 40.5000000  0  3G21G16G03                                       
  22576797.16449 118641869.53149     -7286.05149        48.000  
  18744073.74249  98500771.61349     11943.13749        49.000  
  21474897.03149 112851344.20749      7610.76249        48.000  
 16 04 02 12 26 40.6000000  0  3G21G16G03                                       
  22576935.82049 118642598.16849     -7286.94949        48.000  
  18743846.52349  98499577.52049     11939.05149        49.000  
  21474752.25049 112850583.35249      7606.66449        48.000  
 16 04 02 12 26 40.7000000  0  3G21G16G03                                       
  22577074.51649 118643326.97349     -7288.43849        48.000  
  18743619.37549  98498383.87949     11934.42249        49.000  
  21474607.54749 112849822.93449      7602.30149        48.000  
 16 04 02 12 26 40.8000000  0  3G21G16G03                                       
  22577213.20349 118644055.78949     -7288.84849        48.000  
  18743392.28149  98497190.58249     11930.95349        49.000  
  21474462.91449 112849062.88349      7598.53149        48.000  
 16 04 02 12 26 40.9000000  0  3G21G16G03                                       
  22577351.89849 118644784.70349     -7289.44149        48.000  
  18743165.28149  98495997.67249     11927.37149        49.000  
  21474318.34449 112848303.17649      7595.25849        48.000  
 16 04 02 12 26 41.0000000  0  3G21G16G03                                       
  22577490.60949 118645513.64549     -7289.78949        48.000  
  18742938.34449  98494805.11349     11923.73849        49.000  
  21474173.83649 112847543.83649      7591.60249        48.000  
 16 04 02 12 26 41.1000000  0  3G21G16G03                                       
  22577629.35949 118646242.71949     -7291.18849        48.000  
  18742711.49249  98493612.98449     11919.33649        49.000  
  21474029.42249 112846784.90649      7587.44949        48.000  
 16 04 02 12 26 41.2000000  0  3G21G16G03                                       
  22577768.11749 118646971.90649     -7292.39149        48.000  
  18742484.71949  98492421.28549     11914.96149        49.000  
  21473885.07849 112846026.41049      7583.12949        48.000  
 16 04 02 12 26 41.3000000  0  3G21G16G03                                       
  22577906.88349 118647701.11749     -7292.33249        48.000  
  18742258.00849  98491229.91049     11912.02749        49.000  
  21473740.79749 112845268.22749      7580.10949        48.000  
 16 04 02 12 26 41.4000000  0  3G21G16G03                                       
  22578045.65649 118648430.37949     -7292.91849        48.000  
  18742031.35949  98490038.90249     11908.33249        49.000  
  21473596.58649 112844510.41849      7576.28149        48.000  
 16 04 02 12 26 41.5000000  0  3G21G16G03                                       
  22578184.44549 118649159.72749     -7293.71149        48.000  
  18741804.79749  98488848.28949     11904.34849        49.000  
  21473452.44549 112843752.97349      7572.64149        48.000  
 16 04 02 12 26 41.6000000  0  3G21G16G03                                       
  22578323.25849 118649889.18849     -7295.21149        48.000  
  18741578.31249  98487658.09849     11899.85949        49.000  
  21473308.39849 112842995.95349      7568.18449        48.000  
 16 04 02 12 26 41.7000000  0  3G21G16G03                                       
  22578462.10249 118650618.77049     -7296.30949        48.000  
  18741351.91449  98486468.33649     11895.70349        49.000  
  21473164.42249 112842239.35249      7564.11749        48.000  
 16 04 02 12 26 41.8000000  0  3G21G16G03                                       
  22578600.93849 118651348.36749     -7296.46549        48.000  
  18741125.57049  98485278.90649     11892.33249        49.000  
  21473020.51649 112841483.07849      7560.83649        48.000  
 16 04 02 12 26 41.9000000  0  3G21G16G03                                       
  22578739.78949 118652078.07049     -7297.45749        48.000  
  18740899.30549  98484089.87949     11888.36749        49.000  
  21472876.68049 112840727.21949      7556.69149        48.000  
 16 04 02 12 26 42.0000000  0  3G21G16G03                                       
  22578878.65649 118652807.82849     -7297.93049        48.000  
  18740673.11749  98482901.22749     11884.71149        49.000  
  21472732.90649 112839971.69549      7553.37149        48.000  
 16 04 02 12 26 42.1000000  0  3G21G16G03                                       
  22579017.55549 118653537.67649     -7298.96149        48.000  
  18740446.99249  98481712.95349     11880.76249        49.000  
  21472589.21149 112839216.56649      7549.41049        48.000  
 16 04 02 12 26 42.2000000  0  3G21G16G03                                       
  22579156.45349 118654267.59049     -7299.38349        48.000  
  18740220.95349  98480525.09049     11876.90249        49.000  
  21472445.57849 112838461.82449      7545.72749        48.000  
 16 04 02 12 26 42.3000000  0  3G21G16G03                                       
  22579295.35249 118654997.55549     -7300.08249        48.000  
  18739994.96949  98479337.55149     11873.39149        49.000  
  21472302.02349 112837707.41849      7542.10549        48.000  
 16 04 02 12 26 42.4000000  0  3G21G16G03                                       
  22579434.28949 118655727.64549     -7301.39149        48.000  
  18739769.07849  98478150.47349     11868.87949        49.000  
  21472158.55549 112836953.44949      7537.77349        48.000  
 16 04 02 12 26 42.5000000  0  2G21G16                                          
  22579573.21949 118656457.77349     -7301.78149        48.000  
  18739543.25049  98476963.73449     11865.41049        49.000  
 16 04 02 12 26 42.6000000  0  2G21G16                                          
  22579712.18049 118657188.02749     -7303.08249        48.000  
  18739317.49249  98475777.41849     11861.19149        49.000  
 16 04 02 12 26 42.7000000  0  2G21G16                                          
  22579851.16449 118657918.34049     -7303.56649        48.000  
  18739091.81249  98474591.48849     11857.44149        49.000  
 16 04 02 12 26 42.8000000  0  2G21G16                                          
  22579990.14149 118658648.68049     -7303.62949        48.000  
  18738866.21149  98473405.88749     11854.31649        49.000  
 16 04 02 12 26 42.9000000  0  2G21G16                                          
  22580129.13349 118659379.03549     -7303.87949        48.000  
  18738640.65649  98472220.61749     11851.03549        49.000  
 16 04 02 12 26 43.0000000  0  2G21G16                                          
  22580268.14849 118660109.55149     -7305.34849        48.000  
  18738415.20349  98471035.81649     11846.27049        49.000  
 16 04 02 12 26 43.1000000  0  2G21G16                                          
  22580407.15649 118660840.03549     -7305.24249        48.000  
  18738189.78949  98469851.29349     11843.32449        49.000  
 16 04 02 12 26 43.2000000  0  2G21G16                                          
  22580546.18849 118661570.65249     -7306.48049        48.000  
  18737964.46149  98468667.20749     11838.98449        49.000  
 16 04 02 12 26 43.3000000  0  2G21G16                                          
  22580685.24249 118662301.37949     -7307.83649        48.000  
  18737739.21949  98467483.54749     11834.55949        49.000  
 16 04 02 12 26 43.4000000  0  2G21G16                                          
  22580824.31249 118663032.19949     -7308.89849        48.000  
  18737514.05549  98466300.28549     11830.53549        49.000  
 16 04 02 12 26 43.5000000  0  2G21G16                                          
  22580963.41449 118663763.19149     -7310.48849        48.000  
  18737288.98449  98465117.50849     11825.72749        49.000  
 16 04 02 12 26 43.6000000  0  2G21G16                                          
  22581102.51649 118664494.18049     -7310.31649        48.000  
  18737063.95349  98463935.04349     11822.67649        49.000  
 16 04 02 12 26 43.7000000  0  2G21G16                                          
  22581241.63349 118665225.23849     -7310.99249        48.000  
  18736839.00849  98462752.94149     11819.15649        49.000  
 16 04 02 12 26 43.8000000  0  2G21G16                                          
  22581380.77349 118665956.39149     -7311.58649        48.000  
  18736614.13349  98461571.26649     11815.10549        49.000  
 16 04 02 12 26 43.9000000  0  2G21G16                                          
  22581519.90649 118666687.56649     -7311.99249        48.000  
  18736389.32849  98460389.90649     11811.77049        49.000  
 16 04 02 12 26 44.0000000  0  2G21G16                                          
  22581659.07849 118667418.91049     -7313.92649        48.000  
  18736164.60249  98459209.02349     11806.89549        49.000  
 16 04 02 12 26 44.1000000  0  2G21G16                                          
  22581798.25849 118668150.28549     -7314.26649        48.000  
  18735939.95349  98458028.50449     11803.32049        49.000  
 16 04 02 12 26 44.2000000  0  2G21G16                                          
  22581937.45349 118668881.75449     -7315.05949        48.000  
  18735715.38349  98456848.36349     11799.49249        49.000  
 16 04 02 12 26 44.3000000  0  2G21G16                                          
  22582076.64849 118669613.26249     -7315.46949        48.000  
  18735490.87549  98455668.58649     11795.94149        49.000  
 16 04 02 12 26 44.4000000  0  2G21G16                                          
  22582215.86749 118670344.84449     -7316.30549        48.000  
  18735266.45349  98454489.19949     11791.98449        49.000  
 16 04 02 12 26 44.5000000  0  2G21G16                                          
  22582355.10249 118671076.48849     -7316.51649        48.000  
  18735042.10249  98453310.18849     11788.41449        49.000  
 16 04 02 12 26 44.6000000  0  2G21G16                                          
  22582494.32849 118671808.16049     -7316.88349        48.000  
  18734817.82049  98452131.48449     11785.27349        49.000  
 16 04 02 12 26 44.7000000  0  2G21G16                                          
  22582633.57849 118672539.91049     -7317.72749        48.000  
  18734593.59449  98450953.19549     11781.21549        49.000  
 16 04 02 12 26 44.8000000  0  2G21G16                                          
  22582772.84449 118673271.74649     -7318.81249        48.000  
  18734369.43849  98449775.29349     11777.15649        49.000  
 16 04 02 12 26 44.9000000  0  2G21G16                                          
  22582912.13349 118674003.67649     -7319.80949        48.000  
  18734145.37549  98448597.80549     11772.85949        49.000  
 16 04 02 12 26 45.0000000  0  2G21G16                                          
  22583051.41449 118674735.64149     -7320.02349        48.000  
  18733921.36749  98447420.65249     11769.60249        49.000  
 16 04 02 12 26 45.1000000  0  2G21G16                                          
  22583190.73449 118675467.72749     -7321.30149        48.000  
  18733697.44549  98446243.93049     11765.36749        49.000  
 16 04 02 12 26 45.2000000  0  2G21G16                                          
  22583330.05549 118676199.87549     -7321.90649        48.000  
  18733473.57849  98445067.59449     11761.49249        49.000  
 16 04 02 12 26 45.3000000  0  2G21G16                                          
  22583469.40649 118676932.12149     -7322.92249        48.000  
  18733249.80549  98443891.65649     11757.45349        49.000  
 16 04 02 12 26 45.4000000  0  2G21G16                                          
  22583608.76649 118677664.46949     -7323.96949        48.000  
  18733026.10949  98442716.14149     11753.23449        49.000  
 16 04 02 12 26 45.5000000  0  2G21G16                                          
  22583748.15649 118678396.94549     -7325.22349        48.000  
  18732802.50049  98441541.05549     11748.89849        49.000  
 16 04 02 12 26 45.6000000  0  2G21G16                                          
  22583887.55549 118679129.50849     -7326.14849        48.000  
  18732578.96149  98440366.36749     11744.86749        49.000  
 16 04 02 12 26 45.7000000  0  2G21G16                                          
  22584026.96949 118679862.11349     -7326.43449        48.000  
  18732355.49249  98439192.03949     11741.30949        49.000  
 16 04 02 12 26 45.8000000  0  2G21G16                                          
  22584166.39149 118680594.77049     -7326.56249        48.000  
  18732132.09449  98438018.05549     11738.24249        49.000  
 16 04 02 12 26 45.9000000  0  2G21G16                                          
  22584305.82049 118681327.44149     -7327.09049        48.000  
  18731908.75849  98436844.42249     11734.55549        49.000  
 16 04 02 12 26 46.0000000  0  2G21G16                                          
  22584445.26649 118682060.25049     -7328.48049        48.000  
  18731685.51649  98435671.23449     11729.99649        49.000  
 16 04 02 12 26 46.1000000  0  2G21G16                                          
  22584584.72749 118682793.12549     -7329.02049        48.000  
  18731462.32849  98434498.40649     11726.47349        49.000  
 16 04 02 12 26 46.2000000  0  2G21G16                                          
  22584724.18849 118683525.99649     -7328.97349        48.000  
  18731239.21149  98433325.89549     11723.47349        49.000  
 16 04 02 12 26 46.3000000  0  2G21G16                                          
  22584863.64849 118684258.90249     -7329.42249        48.000  
  18731016.15649  98432153.74249     11719.67649        49.000  
 16 04 02 12 26 46.4000000  0  2G21G16                                          
  22585003.17249 118684992.07849     -7332.09049        48.000  
  18730793.21149  98430982.15649     11713.95749        49.000  
 16 04 02 12 26 46.5000000  0  2G21G16                                          
  22585142.70349 118685725.27749     -7332.68449        48.000  
  18730570.33649  98429810.91449     11710.10949        49.000  
 16 04 02 12 26 46.6000000  0  2G21G16                                          
  22585282.23449 118686458.53949     -7332.83249        48.000  
  18730347.53149  98428640.03149     11707.03949        49.000  
 16 04 02 12 26 46.7000000  0  2G21G16                                          
  22585421.76649 118687191.74249     -7332.24649        48.000  
  18730124.76649  98427469.41449     11704.41849        49.000  
 16 04 02 12 26 46.8000000  0  2G21G16                                          
  22585561.31249 118687925.08649     -7333.68049        48.000  
  18729902.08649  98426299.23449     11700.07449        49.000  
 16 04 02 12 26 46.9000000  0  2G21G16                                          
  22585700.88349 118688658.52349     -7334.91849        48.000  
  18729679.48449  98425129.47349     11695.72749        49.000  
 16 04 02 12 26 47.0000000  0  2G21G16                                          
  22585840.46949 118689392.05149     -7335.82849        48.000  
  18729456.95349  98423960.11749     11691.55949        49.000  
 16 04 02 12 26 47.1000000  0  2G21G16                                          
  22585980.06249 118690125.61749     -7336.11349        48.000  
  18729234.50849  98422791.12149     11688.03149        49.000  
 16 04 02 12 26 47.2000000  0  2G21G16                                          
  22586119.66449 118690859.21549     -7336.07049        48.000  
  18729012.10949  98421622.44949     11685.03149        49.000  
 16 04 02 12 26 47.3000000  0  2G21G16                                          
  22586259.28149 118691592.86349     -7336.65649        48.000  
  18728789.78949  98420454.13349     11681.33649        49.000  
 16 04 02 12 26 47.4000000  0  2G21G16                                          
  22586398.93049 118692326.72749     -7338.93849        48.000  
  18728567.57049  98419286.35249     11676.11349        49.000  
 16 04 02 12 26 47.5000000  0  2G21G16                                          
  22586538.57049 118693060.55149     -7338.86349        48.000  
  18728345.39849  98418118.84849     11672.93849        49.000  
 16 04 02 12 26 47.6000000  0  2G21G16                                          
  22586678.24249 118693794.50849     -7340.26249        48.000  
  18728123.32849  98416951.78949     11668.48049        49.000  
 16 04 02 12 26 47.7000000  0  2G21G16                                          
  22586817.93849 118694528.59849     -7341.18849        48.000  
  18727901.32849  98415785.16449     11664.38349        49.000  
 16 04 02 12 26 47.8000000  0  2G21G16                                          
  22586957.62549 118695262.66849     -7341.07049        48.000  
  18727679.37549  98414618.83249     11661.43849        49.000  
 16 04 02 12 26 47.9000000  0  2G21G16                                          
  22587097.33649 118695996.83649     -7342.02049        48.000  
  18727457.50849  98413452.93449     11657.26649        49.000  
 16 04 02 12 26 48.0000000  0  2G21G16                                          
  22587237.05549 118696731.07849     -7342.78149        48.000  
  18727235.71149  98412287.39849     11653.30149        49.000  
 16 04 02 12 26 48.1000000  0  2G21G16                                          
  22587376.80549 118697465.43849     -7343.73449        48.000  
  18727014.00049  98411122.28949     11649.51649        49.000  
 16 04 02 12 26 48.2000000  0  2G21G16                                          
  22587516.54749 118698199.78549     -7343.95349        48.000  
  18726792.35249  98409957.50449     11646.06649        49.000  
 16 04 02 12 26 48.3000000  0  2G21G16                                          
  22587656.29749 118698934.24649     -7345.02349        48.000  
  18726570.78149  98408793.13749     11641.78549        49.000  
 16 04 02 12 26 48.4000000  0  2G21G16                                          
  22587796.07849 118699668.81649     -7346.07449        48.000  
  18726349.28949  98407629.18049     11637.74249        49.000  
 16 04 02 12 26 48.5000000  0  2G21G16                                          
  22587935.86749 118700403.44949     -7346.76649        48.000  
  18726127.86749  98406465.59049     11633.96549        49.000  
 16 04 02 12 26 48.6000000  0  2G21G16                                          
  22588075.67249 118701138.16449     -7347.52049        48.000  
  18725906.52349  98405302.41849     11629.77749        49.000  
 16 04 02 12 26 48.7000000  0  2G21G16                                          
  22588215.50849 118701872.93449     -7348.04349        48.000  
  18725685.25049  98404139.60249     11626.31649        49.000  
 16 04 02 12 26 48.8000000  0  2G21G16                                          
  22588355.34449 118702607.78549     -7348.82449        48.000  
  18725464.03949  98402977.17649     11622.48449        49.000  
 16 04 02 12 26 48.9000000  0  2G21G16                                          
  22588495.18849 118703342.66849     -7349.12949        48.000  
  18725242.90649  98401815.10249     11618.95749        49.000  
 16 04 02 12 26 49.0000000  0  2G21G16                                          
  22588635.04749 118704077.62549     -7350.02349        48.000  
  18725021.82849  98400653.41049     11615.05949        49.000  
 16 04 02 12 26 49.1000000  0  2G21G16                                          
  22588774.93049 118704812.69549     -7350.98049        48.000  
  18724800.85249  98399492.14849     11610.80949        49.000  
 16 04 02 12 26 49.2000000  0  2G21G16                                          
  22588914.81249 118705547.80549     -7351.43449        48.000  
  18724579.93049  98398331.23049     11607.28149        49.000  
 16 04 02 12 26 49.3000000  0  2G21G16                                          
  22589054.72749 118706282.98449     -7352.24649        48.000  
  18724359.08649  98397170.69549     11603.52049        49.000  
 16 04 02 12 26 49.4000000  0  2G21G16                                          
  22589194.64149 118707018.26249     -7353.32449        48.000  
  18724138.32049  98396010.58249     11599.16049        49.000  
 16 04 02 12 26 49.5000000  0  2G21G16                                          
  22589334.58649 118707753.62549     -7354.06249        48.000  
  18723917.63349  98394850.85949     11595.26649        49.000  
 16 04 02 12 26 49.6000000  0  2G21G16                                          
  22589474.53149 118708489.04749     -7354.59449        48.000  
  18723697.01649  98393691.50849     11591.69949        49.000  
 16 04 02 12 26 49.7000000  0  2G21G16                                          
  22589614.47749 118709224.50849     -7355.03549        48.000  
  18723476.46149  98392532.51649     11587.99649        49.000  
 16 04 02 12 26 49.8000000  0  2G21G16                                          
  22589754.45349 118709960.07049     -7356.15649        48.000  
  18723255.98449  98391373.93449     11583.82049        49.000  
 16 04 02 12 26 49.9000000  0  2G21G16                                          
  22589894.46149 118710695.79349     -7357.54349        48.000  
  18723035.60249  98390215.80549     11579.45349        49.000  
 16 04 02 12 26 50.0000000  0  2G21G16                                          
  22590034.46149 118711431.51649     -7357.61749        48.000  
  18722815.28149  98389058.02349     11576.01649        49.000  
 16 04 02 12 26 50.1000000  0  2G21G16                                          
  22590174.46149 118712167.27049     -7357.91849        48.000  
  18722595.03149  98387900.57849     11572.42249        49.000  
 16 04 02 12 26 50.2000000  0  2G21G16                                          
  22590314.49249 118712903.12549     -7358.67649        48.000  
  18722374.85949  98386743.52049     11568.82049        49.000  
 16 04 02 12 26 50.3000000  0  2G21G16                                          
  22590454.53149 118713639.04349     -7359.57449        48.000  
  18722154.75849  98385586.87549     11564.53949        49.000  
 16 04 02 12 26 50.4000000  0  2G21G16                                          
  22590594.59449 118714375.05549     -7360.60549        48.000  
  18721934.72749  98384430.60549     11560.64149        49.000  
 16 04 02 12 26 50.5000000  0  2G21G16                                          
  22590734.66449 118715111.07849     -7360.54349        48.000  
  18721714.75849  98383274.68449     11557.45349        49.000  
 16 04 02 12 26 50.6000000  0  2G21G16                                          
  22590874.73449 118715847.15649     -7361.02349        48.000  
  18721494.85949  98382119.10949     11553.92249        49.000  
 16 04 02 12 26 50.7000000  0  2G21G16                                          
  22591014.84449 118716583.38749     -7362.80549        48.000  
  18721275.05549  98380964.01249     11549.05149        49.000  
 16 04 02 12 26 50.8000000  0  2G21G16                                          
  22591154.96149 118717319.71949     -7363.80149        48.000  
  18721055.32049  98379809.32449     11544.89549        49.000  
 16 04 02 12 26 50.9000000  0  2G21G16                                          
  22591295.07849 118718056.05149     -7363.62149        48.000  
  18720835.65649  98378654.96949     11541.67249        49.000  
 16 04 02 12 26 51.0000000  0  2G21G16                                          
  22591435.20349 118718792.40649     -7363.85949        48.000  
  18720616.06249  98377500.92249     11538.62949        49.000  
 16 04 02 12 26 51.1000000  0  2G21G16                                          
  22591575.35249 118719528.89149     -7365.33649        48.000  
  18720396.53949  98376347.34049     11533.86749        49.000  
 16 04 02 12 26 51.2000000  0  2G21G16                                          
  22591715.50849 118720265.45349     -7366.00049        48.000  
  18720177.09449  98375194.12949     11530.30149        49.000  
 16 04 02 12 26 51.3000000  0  2G21G16                                          
  22591855.69549 118721002.09849     -7366.93849        48.000  
  18719957.72749  98374041.34049     11525.84849        49.000  
 16 04 02 12 26 51.4000000  0  2G21G16                                          
  22591995.88349 118721738.80949     -7367.52749        48.000  
  18719738.43049  98372888.91449     11522.28949        49.000  
 16 04 02 12 26 51.5000000  0  2G21G16                                          
  22592136.08649 118722475.60949     -7368.47349        48.000  
  18719519.20349  98371736.88349     11518.30949        49.000  
 16 04 02 12 26 51.6000000  0  2G21G16                                          
  22592276.31249 118723212.48449     -7369.25049        48.000  
  18719300.06249  98370585.26249     11514.30149        49.000  
 16 04 02 12 26 51.7000000  0  2G21G16                                          
  22592416.56249 118723949.47349     -7370.32049        48.000  
  18719080.99249  98369434.04749     11510.22749        49.000  
 16 04 02 12 26 51.8000000  0  2G21G16                                          
  22592556.81249 118724686.50849     -7370.68849        48.000  
  18718862.00049  98368283.19549     11506.63749        49.000  
 16 04 02 12 26 51.9000000  0  2G21G16                                          
  22592697.07849 118725423.60249     -7371.44549        48.000  
  18718643.07049  98367132.73049     11502.73849        49.000  
 16 04 02 12 26 52.0000000  0  2G21G16                                          
  22592837.36749 118726160.81649     -7372.48849        48.000  
  18718424.23449  98365982.69549     11498.50449        49.000  
 16 04 02 12 26 52.1000000  0  2G21G16                                          
  22592977.66449 118726898.05949     -7372.95349        48.000  
  18718205.45349  98364832.99649     11494.91049        49.000  
 16 04 02 12 26 52.2000000  0  2G21G16                                          
  22593117.97749 118727635.42649     -7373.85249        48.000  
  18717986.75049  98363683.73449     11490.84049        49.000  
 16 04 02 12 26 52.3000000  0  2G21G16                                          
  22593258.29749 118728372.80149     -7374.08249        48.000  
  18717768.11749  98362534.80949     11487.39849        49.000  
 16 04 02 12 26 52.4000000  0  2G21G16                                          
  22593398.62549 118729110.22749     -7374.40249        48.000  
  18717549.54749  98361386.23049     11484.02749        49.000  
 16 04 02 12 26 52.5000000  0  2G21G16                                          
  22593538.98449 118729847.77349     -7375.74249        48.000  
  18717331.06249  98360238.09849     11479.53949        49.000  
 16 04 02 12 26 52.6000000  0  2G21G16                                          
  22593679.35249 118730585.39549     -7376.66049        48.000  
  18717112.65649  98359090.35549     11475.48049        49.000  
 16 04 02 12 26 52.7000000  0  2G21G16                                          
  22593819.72749 118731323.10549     -7377.44949        48.000  
  18716894.32049  98357943.00849     11471.54349        49.000  
 16 04 02 12 26 52.8000000  0  2G21G16                                          
  22593960.11749 118732060.85249     -7377.82849        48.000  
  18716676.04749  98356796.00449     11468.15249        49.000  
 16 04 02 12 26 52.9000000  0  2G21G16                                          
  22594100.52349 118732798.68849     -7378.71549        48.000  
  18716457.85949  98355649.41849     11463.98849        49.000  
 16 04 02 12 26 53.0000000  0  2G21G16                                          
  22594240.93049 118733536.52749     -7378.62549        48.000  
  18716239.73449  98354503.14849     11461.00449        49.000  
 16 04 02 12 26 53.1000000  0  2G21G16                                          
  22594381.34449 118734274.44549     -7379.46549        48.000  
  18716021.68849  98353357.27749     11456.87549        49.000  
 16 04 02 12 26 53.2000000  0  2G21G16                                          
  22594521.78949 118735012.49649     -7380.77749        48.000  
  18715803.72749  98352211.83249     11452.53949        49.000  
 16 04 02 12 26 53.3000000  0  2G21G16                                          
  22594662.23449 118735750.56649     -7381.02349        48.000  
  18715585.82049  98351066.73449     11449.16049        49.000  
 16 04 02 12 26 53.4000000  0  2G21G16                                          
  22594802.71149 118736488.75849     -7382.37149        48.000  
  18715368.00049  98349922.08249     11444.58249        49.000  
 16 04 02 12 26 53.5000000  0  2G21G16                                          
  22594943.18049 118737226.96949     -7382.16849        48.000  
  18715150.24249  98348777.74649     11441.55949        49.000  
 16 04 02 12 26 53.6000000  0  2G21G16                                          
  22595083.67249 118737965.26249     -7383.21149        48.000  
  18714932.56249  98347633.80149     11437.79749        49.000  
 16 04 02 12 26 53.7000000  0  2G21G16                                          
  22595224.18049 118738703.60949     -7383.81249        48.000  
  18714714.94549  98346490.24649     11433.79749        49.000  
 16 04 02 12 26 53.8000000  0  2G21G16                                          
  22595364.69549 118739442.03949     -7384.54349        48.000  
  18714497.42249  98345347.08249     11429.82849        49.000  
 16 04 02 12 26 53.9000000  0  2G21G16                                          
  22595505.24249 118740180.61349     -7386.26649        48.000  
  18714279.96949  98344204.36349     11425.19949        49.000  
 16 04 02 12 26 54.0000000  0  2G21G16                                          
  22595645.78149 118740919.15249     -7385.68849        48.000  
  18714062.57049  98343061.93849     11422.46549        49.000  
 16 04 02 12 26 54.1000000  0  2G21G16                                          
  22595786.32049 118741657.68049     -7385.46149        48.000  
  18713845.23449  98341919.83249     11419.37549        49.000  
 16 04 02 12 26 54.2000000  0  2G21G16                                          
  22595926.88349 118742396.34449     -7386.84049        48.000  
  18713627.98449  98340778.14149     11415.16049        49.000  
 16 04 02 12 26 54.3000000  0  2G21G16                                          
  22596067.46149 118743135.10249     -7387.86749        48.000  
  18713410.81249  98339636.88749     11410.70749        49.000  
 16 04 02 12 26 54.4000000  0  2G21G16                                          
  22596208.05549 118743873.95349     -7388.89849        48.000  
  18713193.70349  98338496.01649     11406.75449        49.000  
 16 04 02 12 26 54.5000000  0  2G21G16                                          
  22596348.67249 118744612.85549     -7389.59449        48.000  
  18712976.68049  98337355.53949     11402.80149        49.000  
 16 04 02 12 26 54.6000000  0  2G21G16                                          
  22596489.29749 118745351.86349     -7390.20749        48.000  
  18712759.72749  98336215.45749     11399.05949        49.000  
 16 04 02 12 26 54.7000000  0  2G21G16                                          
  22596629.93849 118746090.90249     -7390.95349        48.000  
  18712542.84449  98335075.73849     11395.24649        49.000  
 16 04 02 12 26 54.8000000  0  2G21G16                                          
  22596770.60249 118746830.09849     -7392.43449        48.000  
  18712326.05549  98333936.49249     11390.53549        49.000  
 16 04 02 12 26 54.9000000  0  2G21G16                                          
  22596911.28149 118747569.33249     -7392.69549        48.000  
  18712109.32849  98332797.59049     11387.07849        49.000  
 16 04 02 12 26 55.0000000  0  2G21G16                                          
  22597051.97749 118748308.68449     -7394.02749        48.000  
  18711892.68049  98331659.13349     11382.62149        49.000  
 16 04 02 12 26 55.1000000  0  2G21G16                                          
  22597192.68849 118749048.08649     -7394.46549        48.000  
  18711676.10949  98330521.03549     11378.96949        49.000  
 16 04 02 12 26 55.2000000  0  2G21G16                                          
  22597333.40649 118749787.58649     -7395.06649        48.000  
  18711459.60949  98329383.34049     11375.18849        49.000  
 16 04 02 12 26 55.3000000  0  2G21G16                                          
  22597474.14149 118750527.09449     -7395.48049        48.000  
  18711243.17249  98328245.97349     11371.84449        49.000  
 16 04 02 12 26 55.4000000  0  2G21G16                                          
  22597614.88349 118751266.73049     -7396.73049        48.000  
  18711026.82849  98327109.04749     11367.40249        49.000  
 16 04 02 12 26 55.5000000  0  2G21G16                                          
  22597755.63349 118752006.39849     -7397.03549        48.000  
  18710810.54749  98325972.47749     11363.87549        49.000  
 16 04 02 12 26 55.6000000  0  2G21G16                                          
  22597896.40649 118752746.15649     -7397.97349        48.000  
  18710594.34449  98324836.30949     11359.74649        49.000  
 16 04 02 12 26 55.7000000  0  2G21G16                                          
  22598037.19549 118753486.00849     -7398.91849        48.000  
  18710378.21949  98323700.55149     11355.60549        49.000  
 16 04 02 12 26 55.8000000  0  2G21G16                                          
  22598178.00849 118754225.94949     -7399.71949        48.000  
  18710162.17249  98322565.19549     11351.75049        49.000  
 16 04 02 12 26 55.9000000  0  2G21G16                                          
  22598318.81249 118754965.84849     -7399.28549        48.000  
  18709946.17249  98321430.11749     11348.94549        49.000  
 16 04 02 12 26 56.0000000  0  2G21G16                                          
  22598459.62549 118755705.82849     -7399.96549        48.000  
  18709730.24249  98320295.43449     11345.22349        49.000  
 16 04 02 12 26 56.1000000  0  2G21G16                                          
  22598600.45349 118756445.88749     -7400.95749        48.000  
  18709514.39849  98319161.14149     11341.06249        49.000  
 16 04 02 12 26 56.2000000  0  2G21G16                                          
  22598741.29749 118757186.05949     -7402.07849        48.000  
  18709298.62549  98318027.27749     11336.76649        49.000  
 16 04 02 12 26 56.3000000  0  2G21G16                                          
  22598882.14849 118757926.27749     -7402.60249        48.000  
  18709082.93049  98316893.77749     11333.09849        49.000  
 16 04 02 12 26 56.4000000  0  2G21G16                                          
  22599023.02349 118758666.57849     -7403.26249        48.000  
  18708867.31249  98315760.66849     11329.35249        49.000  
 16 04 02 12 26 56.5000000  0  2G21G16                                          
  22599163.90649 118759406.89849     -7403.65249        48.000  
  18708651.75849  98314627.90649     11325.78549        49.000  
 16 04 02 12 26 56.6000000  0  2G21G16                                          
  22599304.80549 118760147.34449     -7404.89549        48.000  
  18708436.27349  98313495.59849     11321.13749        49.000  
 16 04 02 12 26 56.7000000  0  2G21G16                                          
  22599445.71949 118760887.83649     -7405.28149        48.000  
  18708220.86749  98312363.62549     11317.75849        49.000  
 16 04 02 12 26 56.8000000  0  2G21G16                                          
  22599586.64849 118761628.43049     -7406.61749        48.000  
  18708005.53949  98311232.08249     11313.36749        49.000  
 16 04 02 12 26 56.9000000  0  2G21G16                                          
  22599727.59449 118762369.09449     -7406.89549        48.000  
  18707790.28149  98310100.92649     11309.72349        49.000  
 16 04 02 12 26 57.0000000  0  2G21G16                                          
  22599868.53149 118763109.75449     -7406.93849        48.000  
  18707575.09449  98308970.08249     11306.62949        49.000  
 16 04 02 12 26 57.1000000  0  2G21G16                                          
  22600009.50049 118763850.49249     -7407.73049        48.000  
  18707359.97749  98307839.63349     11302.74249        49.000  
 16 04 02 12 26 57.2000000  0  2G21G16                                          
  22600150.47749 118764591.34449     -7408.76249        48.000  
  18707144.93849  98306709.60549     11298.35549        49.000  
 16 04 02 12 26 57.3000000  0  2G21G16                                          
  22600291.46949 118765332.25449     -7409.55549        48.000  
  18706929.97749  98305579.95349     11294.59849        49.000  
 16 04 02 12 26 57.4000000  0  2G21G16                                          
  22600432.46149 118766073.19549     -7409.77349        48.000  
  18706715.07049  98304450.65649     11291.11749        49.000  
 16 04 02 12 26 57.5000000  0  2G21G16                                          
  22600573.47749 118766814.20349     -7410.21549        48.000  
  18706500.24249  98303321.73049     11287.56649        49.000  
 16 04 02 12 26 57.6000000  0  2G21G16                                          
  22600714.50049 118767555.28949     -7411.30549        48.000  
  18706285.50849  98302193.21549     11283.30549        49.000  
 16 04 02 12 26 57.7000000  0  2G21G16                                          
  22600855.53949 118768296.46149     -7411.96149        48.000  
  18706070.82849  98301065.09849     11279.38349        49.000  
 16 04 02 12 26 57.8000000  0  2G21G16                                          
  22600996.60249 118769037.72349     -7413.00849        48.000  
  18705856.23449  98299937.38349     11275.22349        49.000  
 16 04 02 12 26 57.9000000  0  2G21G16                                          
  22601137.67249 118769779.05149     -7413.73849        48.000  
  18705641.71149  98298810.04749     11271.42249        49.000  
 16 04 02 12 26 58.0000000  0  2G21G16                                          
  22601278.75849 118770520.46549     -7414.59049        48.000  
  18705427.27349  98297683.12149     11267.32849        49.000  
 16 04 02 12 26 58.1000000  0  2G21G16                                          
  22601419.85949 118771261.91849     -7414.73849        48.000  
  18705212.89149  98296556.54349     11264.00449        49.000  
 16 04 02 12 26 58.2000000  0  2G21G16                                          
  22601560.95349 118772003.37549     -7414.69549        48.000  
  18704998.57049  98295430.29349     11260.83249        49.000  
 16 04 02 12 26 58.3000000  0  2G21G16                                          
  22601702.07849 118772744.92649     -7415.80549        48.000  
  18704784.32849  98294304.44549     11256.68049        49.000  
 16 04 02 12 26 58.4000000  0  2G21G16                                          
  22601843.20349 118773486.57049     -7416.90649        48.000  
  18704570.15649  98293179.02049     11252.27749        49.000  
 16 04 02 12 26 58.5000000  0  2G21G16                                          
  22601984.34449 118774228.27049     -7417.35249        48.000  
  18704356.06249  98292053.95749     11248.68449        49.000  
 16 04 02 12 26 58.6000000  0  2G21G16                                          
  22602125.50049 118774970.06249     -7418.24649        48.000  
  18704142.04749  98290929.30149     11244.66849        49.000  
 16 04 02 12 26 58.7000000  0  2G21G16                                          
  22602266.66449 118775711.89549     -7418.72349        48.000  
  18703928.10249  98289805.00849     11241.02749        49.000  
 16 04 02 12 26 58.8000000  0  2G21G16                                          
  22602407.84449 118776453.82049     -7419.53549        48.000  
  18703714.22749  98288681.12549     11236.99649        49.000  
 16 04 02 12 26 58.9000000  0  2G21G16                                          
  22602549.03949 118777195.80549     -7420.18049        48.000  
  18703500.43049  98287557.60549     11233.35549        49.000  
 16 04 02 12 26 59.0000000  0  2G21G16                                          
  22602690.24249 118777937.86349     -7421.01249        48.000  
  18703286.70349  98286434.48849     11229.18849        49.000  
 16 04 02 12 26 59.1000000  0  2G21G16                                          
  22602831.47749 118778679.97749     -7421.60549        48.000  
  18703073.05549  98285311.74649     11225.59849        49.000  
 16 04 02 12 26 59.2000000  0  2G21G16                                          
  22602972.71149 118779422.16049     -7422.29749        48.000  
  18702859.48449  98284189.39849     11221.50449        49.000  
 16 04 02 12 26 59.3000000  0  2G21G16                                          
  22603113.95349 118780164.41449     -7422.66049        48.000  
  18702645.97749  98283067.41449     11218.12549        49.000  
 16 04 02 12 26 59.4000000  0  2G21G16                                          
  22603255.20349 118780906.68849     -7422.94149        48.000  
  18702432.53949  98281945.78149     11214.49649        49.000  
 16 04 02 12 26 59.5000000  0  2G21G16                                          
  22603396.47749 118781649.05549     -7423.89549        48.000  
  18702219.18049  98280824.55149     11210.64149        49.000  
 16 04 02 12 26 59.6000000  0  2G21G16                                          
  22603537.75849 118782391.47749     -7424.59849        48.000  
  18702005.88349  98279703.70349     11206.64549        49.000  
 16 04 02 12 26 59.7000000  0  2G21G16                                          
  22603679.05549 118783133.96549     -7425.22749        48.000  
  18701792.67249  98278583.23449     11202.80549        49.000  
 16 04 02 12 26 59.8000000  0  2G21G16                                          
  22603820.35949 118783876.52049     -7425.71149        48.000  
  18701579.52349  98277463.14849     11199.12549        49.000  
 16 04 02 12 26 59.9000000  0  2G21G16                                          
  22603961.68049 118784619.14549     -7426.54749        48.000  
  18701366.44549  98276343.44149     11195.19149        49.000  
 16 04 02 12 27  0.0000000  0  2G21G16                                          
  22604103.00849 118785361.86349     -7427.57849        48.000  
  18701153.45349  98275224.15249     11191.02749        49.000  
 16 04 02 12 27  0.1000000  0  2G21G16                                          
  22604244.34449 118786104.61349     -7427.93849        48.000  
  18700940.52349  98274105.22749     11187.29349        49.000  
 16 04 02 12 27  0.2000000  0  2G21G16                                          
  22604385.70349 118786847.45749     -7428.67649        48.000  
  18700727.67249  98272986.69549     11183.51249        49.000  
 16 04 02 12 27  0.3000000  0  2G21G16                                          
  22604527.08649 118787590.39149     -7429.84049        48.000  
  18700514.89849  98271868.57049     11179.28549        49.000  
 16 04 02 12 27  0.4000000  0  2G21G16                                          
  22604668.47749 118788333.36749     -7429.99649        48.000  
  18700302.20349  98270750.81649     11175.71549        49.000  
 16 04 02 12 27  0.5000000  0  2G21G16                                          
  22604809.85949 118789076.37949     -7430.27049        48.000  
  18700089.56249  98269633.40249     11172.43849        49.000  
 16 04 02 12 27  0.6000000  0  2G21G16                                          
  22604951.27349 118789819.52749     -7432.07849        48.000  
  18699877.01649  98268516.45349     11167.44949        49.000  
 16 04 02 12 27  0.7000000  0  2G21G16                                          
  22605092.72749 118790562.80149     -7433.25049        48.000  
  18699664.54749  98267399.94149     11163.09449        49.000  
 16 04 02 12 27  0.8000000  0  2G21G16                                          
  22605234.18049 118791306.15649     -7433.88349        48.000  
  18699452.15649  98266283.82849     11159.24249        49.000  
 16 04 02 12 27  0.9000000  0  2G21G16                                          
  22605375.64149 118792049.53549     -7434.26649        48.000  
  18699239.83649  98265168.05949     11155.73049        49.000  
 16 04 02 12 27  1.0000000  0  2G21G16                                          
  22605517.10249 118792792.91449     -7434.01249        48.000  
  18699027.57049  98264052.61749     11152.65249        49.000  
 16 04 02 12 27  1.1000000  0  2G21G16                                          
  22605658.59449 118793536.41849     -7435.36749        48.000  
  18698815.39149  98262937.60249     11148.32449        49.000  
 16 04 02 12 27  1.2000000  0  2G21G16                                          
  22605800.10249 118794280.04349     -7436.55949        48.000  
  18698603.29749  98261823.03149     11143.90249        49.000  
 16 04 02 12 27  1.3000000  0  2G21G16                                          
  22605941.61749 118795023.68049     -7436.77349        48.000  
  18698391.26649  98260708.78549     11140.60949        49.000  
 16 04 02 12 27  1.4000000  0  2G21G16                                          
  22606083.13349 118795767.34849     -7436.84449        48.000  
  18698179.29749  98259594.89549     11137.26249        49.000  
 16 04 02 12 27  1.5000000  0  2G21G16                                          
  22606224.64849 118796511.02049     -7436.91449        48.000  
  18697967.39149  98258481.33649     11133.85949        49.000  
 16 04 02 12 27  1.6000000  0  2G21G16                                          
  22606366.18849 118797254.81249     -7438.28949        48.000  
  18697755.57049  98257368.19149     11129.60949        49.000  
 16 04 02 12 27  1.7000000  0  2G21G16                                          
  22606507.75049 118797998.69549     -7439.25849        48.000  
  18697543.82849  98256255.48049     11125.21149        49.000  
 16 04 02 12 27  1.8000000  0  2G21G16                                          
  22606649.32049 118798742.63749     -7439.92249        48.000  
  18697332.14849  98255143.13349     11121.45749        49.000  
 16 04 02 12 27  1.9000000  0  2G21G16                                          
  22606790.89849 118799486.68849     -7440.99249        48.000  
  18697120.55549  98254031.21149     11117.21549        49.000  
 16 04 02 12 27  2.0000000  0  2G21G16                                          
  22606932.49249 118800230.77349     -7441.12549        48.000  
  18696909.03149  98252919.64849     11113.87149        49.000  
 16 04 02 12 27  2.1000000  0  2G21G16                                          
  22607074.09449 118800974.91449     -7441.86749        48.000  
  18696697.57849  98251808.45749     11110.04349        49.000  
 16 04 02 12 27  2.2000000  0  2G21G16                                          
  22607215.71949 118801719.16449     -7442.68449        48.000  
  18696486.21149  98250697.69149     11105.96949        49.000  
 16 04 02 12 27  2.3000000  0  2G21G16                                          
