     2.10           OBSERVATION DATA    G (GPS)             RINEX VERSION / TYPE
Convert v1.8.0                          07-Jun-2016 18:56   PGM / RUN BY / DATE 
Signal Strength values S1,S2 are in dBHz                    COMMENT             
                                                            MARKER NAME         
                                                            MARKER NUMBER       
                                                            OBSERVER / AGENCY   
                    NovAtel GPSCard                         REC # / TYPE / VERS 
                                                            ANT # / TYPE        
0.0000        0.0000        0.0000                          APPROX POSITION XYZ 
        0.0000        0.0000        0.0000                  ANTENNA: DELTA H/E/N
     1     1                                                WAVELENGTH FACT L1/2
     1     1     4   G03   G08   G27   G31                  WAVELENGTH FACT L1/2
                                                            COMMENT             
                                                            COMMENT             
                                                            COMMENT             
                                                            COMMENT             
                                                            COMMENT             
                                                            COMMENT             
     4    C1    L1    D1    S1                              # / TYPES OF OBSERV 
     0.100                                                  INTERVAL            
  2016    04    02    13    56     7.1000000    GPS         TIME OF FIRST OBS   
  2016    04    02    14    00    27.6000000    GPS         TIME OF LAST OBS    
Leap Seconds Unknown                                        COMMENT             
                                                            END OF HEADER       
 16 04 02 13 56  7.1000000  0  1G08                                             
  22371337.11749 117562169.39559      1053.08649        49.000  
 16 04 02 13 56  7.2000000  0  1G08                                             
  22371317.12549 117562064.37149      1047.80949        49.000  
 16 04 02 13 56  7.3000000  0  1G08                                             
  22371297.23449 117561959.81249      1043.37549        49.000  
 16 04 02 13 56  7.4000000  0  1G08                                             
  22371277.41449 117561855.68849      1038.90649        49.000  
 16 04 02 13 56  7.5000000  0  1G08                                             
  22371257.70349 117561752.04349      1034.11749        49.000  
 16 04 02 13 56  7.6000000  0  1G08                                             
  22371238.07849 117561648.90649      1028.94149        49.000  
 16 04 02 13 56  7.7000000  0  1G08                                             
  22371218.53149 117561546.16449      1024.97749        49.000  
 16 04 02 13 56  7.8000000  0  1G08                                             
  22371199.07049 117561443.89149      1020.41849        49.000  
 16 04 02 13 56  7.9000000  0  1G08                                             
  22371179.71149 117561342.10249      1015.52349        49.000  
 16 04 02 13 56  8.0000000  0  1G08                                             
  22371160.43849 117561240.79749      1010.57049        49.000  
 16 04 02 13 56  8.1000000  0  1G08                                             
  22371141.26649 117561139.97749      1005.86749        49.000  
 16 04 02 13 56  8.2000000  0  1G08                                             
  22371122.18049 117561039.64849      1000.77749        49.000  
 16 04 02 13 56  8.3000000  0  1G08                                             
  22371103.17249 117560939.76249       996.47349        49.000  
 16 04 02 13 56  8.4000000  0  1G08                                             
  22371084.25849 117560840.33649       991.70749        49.000  
 16 04 02 13 56  8.5000000  0  1G08                                             
  22371065.43849 117560741.40249       987.09449        49.000  
 16 04 02 13 56  8.6000000  0  1G08                                             
  22371046.68849 117560642.89849       982.71549        49.000  
 16 04 02 13 56  8.7000000  0  1G08                                             
  22371028.02349 117560544.89149       977.55549        49.000  
 16 04 02 13 56  8.8000000  0  1G08                                             
  22371009.46149 117560447.36749       972.69149        49.000  
 16 04 02 13 56  8.9000000  0  1G08                                             
  22370991.00049 117560350.34849       967.85249        49.000  
 16 04 02 13 56  9.0000000  0  1G08                                             
  22370972.62549 117560253.76249       963.37549        49.000  
 16 04 02 13 56  9.1000000  0  1G08                                             
  22370954.34449 117560157.68449       958.27349        49.000  
 16 04 02 13 56  9.2000000  0  1G08                                             
  22370936.15649 117560062.07049       953.63749        49.000  
 16 04 02 13 56  9.3000000  0  1G08                                             
  22370918.06249 117559966.97349       948.56649        49.000  
 16 04 02 13 56  9.4000000  0  1G08                                             
  22370900.04749 117559872.30949       944.24649        49.000  
 16 04 02 13 56  9.5000000  0  1G08                                             
  22370882.13349 117559778.12549       939.51649        49.000  
 16 04 02 13 56  9.6000000  0  1G08                                             
  22370864.28949 117559684.38349       935.01649        49.000  
 16 04 02 13 56  9.7000000  0  1G08                                             
  22370846.54749 117559591.10249       930.51649        49.000  
 16 04 02 13 56  9.8000000  0  1G08                                             
  22370828.87549 117559498.26249       926.10549        49.000  
 16 04 02 13 56  9.9000000  0  1G08                                             
  22370811.31249 117559405.98049       920.45749        49.000  
 16 04 02 13 56 10.0000000  0  1G08                                             
  22370793.84449 117559314.16849       915.41849        49.000  
 16 04 02 13 56 10.1000000  0  1G08                                             
  22370776.46949 117559222.89149       910.37549        49.000  
 16 04 02 13 56 10.2000000  0  1G08                                             
  22370759.19549 117559132.09449       905.37549        49.000  
 16 04 02 13 56 10.3000000  0  1G08                                             
  22370741.98449 117559041.71149       901.46949        49.000  
 16 04 02 13 56 10.4000000  0  1G08                                             
  22370724.87549 117558951.78949       897.06249        49.000  
 16 04 02 13 56 10.5000000  0  1G08                                             
  22370707.85949 117558862.34449       892.07449        49.000  
 16 04 02 13 56 10.6000000  0  1G08                                             
  22370690.93849 117558773.41049       887.00849        49.000  
 16 04 02 13 56 10.7000000  0  1G08                                             
  22370674.09449 117558684.92649       882.30549        49.000  
 16 04 02 13 56 10.8000000  0  1G08                                             
  22370657.33649 117558596.85949       878.41849        49.000  
 16 04 02 13 56 10.9000000  0  1G08                                             
  22370640.67249 117558509.32449       873.14849        49.000  
 16 04 02 13 56 11.0000000  0  1G08                                             
  22370624.10249 117558422.24649       868.47749        49.000  
 16 04 02 13 56 11.1000000  0  1G08                                             
  22370607.60949 117558335.60949       863.81249        49.000  
 16 04 02 13 56 11.2000000  0  1G08                                             
  22370591.23449 117558249.53949       858.34449        49.000  
 16 04 02 13 56 11.3000000  0  1G08                                             
  22370574.93049 117558163.91849       853.56649        49.000  
 16 04 02 13 56 11.4000000  0  1G08                                             
  22370558.73449 117558078.80549       848.83649        49.000  
 16 04 02 13 56 11.5000000  0  1G08                                             
  22370542.62549 117557994.13349       844.05549        49.000  
 16 04 02 13 56 11.6000000  0  1G08                                             
  22370526.60949 117557909.96549       839.24249        49.000  
 16 04 02 13 56 11.7000000  0  1G08                                             
  22370510.68049 117557826.20749       835.30549        49.000  
 16 04 02 13 56 11.8000000  0  1G08                                             
  22370494.82849 117557742.91849       830.64149        49.000  
 16 04 02 13 56 11.9000000  0  1G08                                             
  22370479.07049 117557660.10949       825.62149        49.000  
 16 04 02 13 56 12.0000000  0  1G08                                             
  22370463.40649 117557577.81649       820.60249        49.000  
 16 04 02 13 56 12.1000000  0  1G08                                             
  22370447.82849 117557495.97749       815.72349        49.000  
 16 04 02 13 56 12.2000000  0  1G08                                             
  22370432.35249 117557414.64549       810.92649        49.000  
 16 04 02 13 56 12.3000000  0  1G08                                             
  22370416.96949 117557333.80549       805.91449        49.000  
 16 04 02 13 56 12.4000000  0  1G08                                             
  22370401.67249 117557253.41849       801.58649        49.000  
 16 04 02 13 56 12.5000000  0  1G08                                             
  22370386.42249 117557173.38349       798.11349        49.000  
 16 04 02 13 56 12.6000000  0  1G08                                             
  22370371.30549 117557093.94949       791.89849        49.000  
 16 04 02 13 56 12.7000000  0  1G08                                             
  22370356.29749 117557014.98449       787.04749        49.000  
 16 04 02 13 56 12.8000000  0  1G08                                             
  22370341.35249 117556936.44549       782.91449        49.000  
 16 04 02 13 56 12.9000000  0  1G08                                             
  22370326.52349 117556858.41849       778.01249        49.000  
 16 04 02 13 56 13.0000000  0  1G08                                             
  22370311.75049 117556780.78149       774.01249        49.000  
 16 04 02 13 56 13.1000000  0  1G08                                             
  22370297.08649 117556703.69949       768.41449        49.000  
 16 04 02 13 56 13.2000000  0  1G08                                             
  22370282.51649 117556627.13349       763.12949        49.000  
 16 04 02 13 56 13.3000000  0  1G08                                             
  22370268.03949 117556551.05149       758.30549        49.000  
 16 04 02 13 56 13.4000000  0  1G08                                             
  22370253.64849 117556475.40249       754.22349        49.000  
 16 04 02 13 56 13.5000000  0  1G08                                             
  22370239.34449 117556400.19149       749.64149        49.000  
 16 04 02 13 56 13.6000000  0  2G08G03                                          
  22370225.13349 117556325.51649       744.35249        49.000  
  23680410.33649 124441394.81259    -11497.22349        50.000  
 16 04 02 13 56 13.7000000  0  2G08G03                                          
  22370211.00849 117556251.28949       739.98049        49.000  
  23680629.16449 124442544.76249    -11502.56649        50.000  
 16 04 02 13 56 13.8000000  0  2G08G03                                          
  22370196.96949 117556177.53549       734.97749        49.000  
  23680848.08649 124443695.27749    -11508.50049        50.000  
 16 04 02 13 56 13.9000000  0  2G08G03                                          
  22370183.04749 117556104.34049       729.58249        49.000  
  23681067.14849 124444846.44549    -11514.84049        50.000  
 16 04 02 13 56 14.0000000  0  2G08G03                                          
  22370169.18849 117556031.50849       725.87549        49.000  
  23681286.26649 124445998.07849    -11519.60249        50.000  
 16 04 02 13 56 14.1000000  0  2G08G03                                          
  22370155.43049 117555959.21949       720.52749        49.000  
  23681505.53949 124447150.36349    -11525.97749        50.000  
 16 04 02 13 56 14.2000000  0  2G08G03                                          
  22370141.77349 117555887.43849       715.23049        49.000  
  23681724.91449 124448303.24249    -11532.12949        50.000  
 16 04 02 13 56 14.3000000  0  2G08G03                                          
  22370128.19549 117555816.12149       710.67649        49.000  
  23681944.40649 124449456.68849    -11537.71549        50.000  
 16 04 02 13 56 14.4000000  0  2G08G03                                          
  22370114.71149 117555745.26249       706.22749        49.000  
  23682164.03949 124450610.69149    -11543.14549        50.000  
 16 04 02 13 56 14.5000000  0  2G08G03                                          
  22370101.31249 117555674.86349       701.73449        49.000  
  23682383.75049 124451765.25049    -11548.52349        50.000  
 16 04 02 13 56 14.6000000  0  2G08G03                                          
  22370088.00849 117555604.91849       697.09049        49.000  
  23682603.56249 124452920.36749    -11554.24249        50.000  
 16 04 02 13 56 14.7000000  0  2G08G03                                          
  22370074.79749 117555535.46949       692.01249        49.000  
  23682823.48449 124454076.06649    -11560.31649        50.000  
 16 04 02 13 56 14.8000000  0  2G08G03                                          
  22370061.67249 117555466.53149       687.00849        49.000  
  23683043.50049 124455232.37949    -11566.19549        50.000  
 16 04 02 13 56 14.9000000  0  2G08G03                                          
  22370048.63349 117555398.01649       682.84449        49.000  
  23683263.64149 124456389.21549    -11571.33249        50.000  
 16 04 02 13 56 15.0000000  0  2G08G03                                          
  22370035.67249 117555329.93049       678.57849        49.000  
  23683483.88349 124457546.57449    -11576.67249        50.000  
 16 04 02 13 56 15.1000000  0  2G08G03                                          
  22370022.81249 117555262.32449       673.81249        49.000  
  23683704.23449 124458704.51649    -11582.49649        50.000  
 16 04 02 13 56 15.2000000  0  2G08G03                                          
  22370010.04749 117555195.23449       668.44949        49.000  
  23683924.69549 124459863.06249    -11588.67649        50.000  
 16 04 02 13 56 15.3000000  0  2G08G03                                          
  22369997.35249 117555128.59449       664.10949        49.000  
  23684145.26649 124461022.16049    -11593.93049        50.000  
 16 04 02 13 56 15.4000000  0  2G08G03                                          
  22369984.75049 117555062.38749       659.69549        49.000  
  23684365.91449 124462181.80149    -11599.52049        50.000  
 16 04 02 13 56 15.5000000  0  2G08G03                                          
  22369972.25049 117554996.67249       654.72349        49.000  
  23684586.69549 124463342.01249    -11605.40249        50.000  
 16 04 02 13 56 15.6000000  0  2G08G03                                          
  22369959.84449 117554931.49649       649.29349        49.000  
  23684807.60249 124464502.87149    -11611.80149        50.000  
 16 04 02 13 56 15.7000000  0  2G08G03                                          
  22369947.53949 117554866.78549       644.50449        49.000  
  23685028.60949 124465664.29349    -11617.59849        50.000  
 16 04 02 13 56 15.8000000  0  2G08G03                                          
  22369935.31249 117554802.52349       640.28149        49.000  
  23685249.72749 124466826.25849    -11622.71549        50.000  
 16 04 02 13 56 15.9000000  0  2G08G03                                          
  22369923.16449 117554738.68849       635.96949        49.000  
  23685470.93849 124467988.74249    -11627.96549        50.000  
 16 04 02 13 56 16.0000000  0  2G08G03                                          
  22369911.11749 117554675.40249       630.41049        49.000  
  23685692.28149 124469151.88349    -11634.52349        50.000  
 16 04 02 13 56 16.1000000  0  2G08G03                                          
  22369899.16449 117554612.54749       626.14149        49.000  
  23685913.71949 124470315.54749    -11639.80949        50.000  
 16 04 02 13 56 16.2000000  0  2G08G03                                          
  22369887.29749 117554550.18449       621.06649        49.000  
  23686135.25049 124471479.79749    -11645.89549        50.000  
 16 04 02 13 56 16.3000000  0  2G08G03                                          
  22369875.51649 117554488.30549       616.35249        49.000  
  23686356.91449 124472644.62949    -11651.48849        50.000  
 16 04 02 13 56 16.4000000  0  2G08G03                                          
  22369863.83649 117554426.93049       611.13349        49.000  
  23686578.68849 124473810.07849    -11657.87149        50.000  
 16 04 02 13 56 16.5000000  0  2G08G03                                          
  22369852.25049 117554366.04349       606.58249        49.000  
  23686800.57049 124474976.09049    -11663.29749        50.000  
 16 04 02 13 56 16.6000000  0  2G08G03                                          
  22369840.74249 117554305.57449       602.35249        49.000  
  23687022.54749 124476142.62949    -11668.37949        50.000  
 16 04 02 13 56 16.7000000  0  2G08G03                                          
  22369829.32049 117554245.58249       597.63749        49.000  
  23687244.64149 124477309.73849    -11674.01249        50.000  
 16 04 02 13 56 16.8000000  0  2G08G03                                          
  22369817.99249 117554186.05949       592.92249        49.000  
  23687466.82049 124478477.41849    -11679.99649        50.000  
 16 04 02 13 56 16.9000000  0  2G08G03                                          
  22369806.76649 117554127.03949       587.76249        49.000  
  23687689.14149 124479645.69949    -11686.07449        50.000  
 16 04 02 13 56 17.0000000  0  2G08G03                                          
  22369795.62549 117554068.50049       582.86349        49.000  
  23687911.57049 124480814.53949    -11691.71549        50.000  
 16 04 02 13 56 17.1000000  0  2G08G03                                          
  22369784.57049 117554010.41049       578.48849        49.000  
  23688134.10949 124481983.96549    -11697.25049        50.000  
 16 04 02 13 56 17.2000000  0  2G08G03                                          
  22369773.60249 117553952.79349       573.71949        49.000  
  23688356.73449 124483153.91849    -11702.67249        50.000  
 16 04 02 13 56 17.3000000  0  2G08G03                                          
  22369762.73449 117553895.62949       569.34049        49.000  
  23688579.47749 124484324.44949    -11708.28949        50.000  
 16 04 02 13 56 17.4000000  0  2G08G03                                          
  22369751.94549 117553838.93849       564.44949        49.000  
  23688802.32849 124485495.55149    -11714.27349        50.000  
 16 04 02 13 56 17.5000000  0  2G08G03                                          
  22369741.25049 117553782.78949       559.03549        49.000  
  23689025.29749 124486667.26249    -11720.31649        50.000  
 16 04 02 13 56 17.6000000  0  2G08G03                                          
  22369730.64849 117553727.05949       554.92249        49.000  
  23689248.34449 124487839.52049    -11725.59449        50.000  
 16 04 02 13 56 17.7000000  0  2G08G03                                          
  22369720.13349 117553671.80549       550.34049        49.000  
  23689471.52349 124489012.33649    -11731.25449        50.000  
 16 04 02 13 56 17.8000000  0  2G08G03                                          
  22369709.71149 117553617.04349       545.22749        49.000  
  23689694.83649 124490185.74249    -11737.33649        50.000  
 16 04 02 13 56 17.9000000  0  2G08G03                                          
  22369699.38349 117553562.77049       540.35949        49.000  
  23689918.23449 124491359.73049    -11743.01249        50.000  
 16 04 02 13 56 18.0000000  0  2G08G03                                          
  22369689.14149 117553508.96149       535.45349        49.000  
  23690141.77349 124492534.29349    -11748.93849        50.000  
 16 04 02 13 56 18.1000000  0  2G08G03                                          
  22369678.99249 117553455.65249       530.68049        49.000  
  23690365.39149 124493709.44549    -11754.69149        50.000  
 16 04 02 13 56 18.2000000  0  2G08G03                                          
  22369668.93049 117553402.80149       526.12949        49.000  
  23690589.10949 124494885.15249    -11760.28549        50.000  
 16 04 02 13 56 18.3000000  0  2G08G03                                          
  22369658.97749 117553350.47749       520.88349        49.000  
  23690812.96149 124496061.48049    -11766.41849        50.000  
 16 04 02 13 56 18.4000000  0  2G08G03                                          
  22369649.10249 117553298.57849       516.60249        49.000  
  23691036.91449 124497238.33249    -11771.60949        50.000  
 16 04 02 13 56 18.5000000  0  2G08G03                                          
  22369639.31249 117553247.12549       512.29349        49.000  
  23691260.96149 124498415.72749    -11776.93849        50.000  
 16 04 02 13 56 18.6000000  0  2G08G03                                          
  22369629.60949 117553196.14549       507.26249        49.000  
  23691485.10949 124499593.69549    -11782.93049        50.000  
 16 04 02 13 56 18.7000000  0  2G08G03                                          
  22369620.00049 117553145.69149       502.30149        49.000  
  23691709.38349 124500772.28949    -11788.98849        50.000  
 16 04 02 13 56 18.8000000  0  2G08G03                                          
  22369610.47749 117553095.63349       498.23049        49.000  
  23691933.75849 124501951.36749    -11793.93049        50.000  
 16 04 02 13 56 18.9000000  0  2G08G03                                          
  22369601.04749 117553046.05949       493.33649        49.000  
  23692158.24249 124503131.02349    -11799.79749        50.000  
 16 04 02 13 56 19.0000000  0  2G08G03                                          
  22369591.71149 117552997.01649       488.06249        49.000  
  23692382.85249 124504311.30549    -11805.96549        50.000  
 16 04 02 13 56 19.1000000  0  2G08G03                                          
  22369582.46149 117552948.44149       483.33249        49.000  
  23692607.56249 124505492.16049    -11811.53149        50.000  
 16 04 02 13 56 19.2000000  0  2G08G03                                          
  22369573.30549 117552900.31649       478.76649        49.000  
  23692832.36749 124506673.56649    -11817.25849        50.000  
 16 04 02 13 56 19.3000000  0  2G08G03                                          
  22369564.25049 117552852.68849       473.91449        49.000  
  23693057.29749 124507855.55949    -11823.13349        50.000  
 16 04 02 13 56 19.4000000  0  2G08G03                                          
  22369555.26649 117552805.47349       469.82449        49.000  
  23693282.30549 124509038.05949    -11828.11749        50.000  
 16 04 02 13 56 19.5000000  0  2G08G03                                          
  22369546.38349 117552758.80549       464.22349        49.000  
  23693507.44549 124510221.19149    -11834.67249        50.000  
 16 04 02 13 56 19.6000000  0  2G08G03                                          
  22369537.58649 117552712.61749       459.52749        49.000  
  23693732.70349 124511404.93049    -11840.38349        50.000  
 16 04 02 13 56 19.7000000  0  2G08G03                                          
  22369528.88349 117552666.87949       454.82449        49.000  
  23693958.06249 124512589.18449    -11845.79349        50.000  
 16 04 02 13 56 19.8000000  0  2G08G03                                          
  22369520.27349 117552621.62949       450.04349        49.000  
  23694183.52349 124513774.05949    -11851.84449        50.000  
 16 04 02 13 56 19.9000000  0  2G08G03                                          
  22369511.74249 117552576.79349       445.90249        49.000  
  23694409.08649 124514959.39849    -11856.77049        50.000  
 16 04 02 13 56 20.0000000  0  2G08G03                                          
  22369503.31249 117552532.48849       440.68849        49.000  
  23694634.79749 124516145.39149    -11863.03949        50.000  
 16 04 02 13 56 20.1000000  0  2G08G03                                          
  22369494.98449 117552488.68849       435.64549        49.000  
  23694860.60249 124517331.98449    -11869.05149        50.000  
 16 04 02 13 56 20.2000000  0  2G08G03                                          
  22369486.72749 117552445.29349       431.36349        49.000  
  23695086.48449 124518519.07849    -11874.20349        50.000  
 16 04 02 13 56 20.3000000  0  2G08G03                                          
  22369478.57049 117552402.39149       426.71949        49.000  
  23695312.49249 124519706.76649    -11879.87549        50.000  
 16 04 02 13 56 20.4000000  0  2G08G03                                          
  22369470.49249 117552359.93449       422.40649        49.000  
  23695538.60249 124520894.98049    -11885.03949        50.000  
 16 04 02 13 56 20.5000000  0  2G08G03                                          
  22369462.50049 117552317.98849       416.87949        49.000  
  23695764.82849 124522083.80949    -11891.62149        50.000  
 16 04 02 13 56 20.6000000  0  2G08G03                                          
  22369454.60249 117552276.50849       412.23449        49.000  
  23695991.15649 124523273.20349    -11897.29349        50.000  
 16 04 02 13 56 20.7000000  0  2G08G03                                          
  22369446.80549 117552235.49249       407.71549        49.000  
  23696217.60249 124524463.15649    -11902.57849        50.000  
 16 04 02 13 56 20.8000000  0  2G08G03                                          
  22369439.07849 117552194.91849       403.41849        49.000  
  23696444.14849 124525653.64149    -11907.86349        50.000  
 16 04 02 13 56 20.9000000  0  2G08G03                                          
  22369431.44549 117552154.81649       398.41449        49.000  
  23696670.79749 124526844.70349    -11914.02349        50.000  
 16 04 02 13 56 21.0000000  0  2G08G03                                          
  22369423.92249 117552115.28549       392.98849        49.000  
  23696897.56249 124528036.41849    -11920.14549        50.000  
 16 04 02 13 56 21.1000000  0  2G08G03                                          
  22369416.49249 117552076.20749       388.14149        49.000  
  23697124.44549 124529228.69549    -11926.05149        50.000  
 16 04 02 13 56 21.2000000  0  2G08G03                                          
  22369409.14849 117552037.63349       383.19549        49.000  
  23697351.43849 124530421.57049    -11932.04349        50.000  
 16 04 02 13 56 21.3000000  0  2G08G03                                          
  22369401.89149 117551999.49649       378.96949        49.000  
  23697578.53149 124531614.98049    -11937.28549        50.000  
 16 04 02 13 56 21.4000000  0  2G08G03                                          
  22369394.71949 117551961.79749       374.60549        49.000  
  23697805.72749 124532808.91449    -11942.38749        50.000  
 16 04 02 13 56 21.5000000  0  2G08G03                                          
  22369387.63349 117551924.55149       370.13749        49.000  
  23698033.03149 124534003.41049    -11948.01649        50.000  
 16 04 02 13 56 21.6000000  0  2G08G03                                          
  22369380.64849 117551887.85549       364.47749        49.000  
  23698260.46949 124535198.54349    -11954.59049        50.000  
 16 04 02 13 56 21.7000000  0  2G08G03                                          
  22369373.75849 117551851.61749       359.94549        49.000  
  23698488.00049 124536394.22349    -11959.94149        50.000  
 16 04 02 13 56 21.8000000  0  2G08G03                                          
  22369366.95349 117551815.84449       355.07449        49.000  
  23698715.63349 124537590.48049    -11965.91849        50.000  
 16 04 02 13 56 21.9000000  0  2G08G03                                          
  22369360.23449 117551780.55149       350.60949        49.000  
  23698943.37549 124538787.29749    -11971.21149        50.000  
 16 04 02 13 56 22.0000000  0  2G08G03                                          
  22369353.60249 117551745.68449       346.39149        49.000  
  23699171.21949 124539984.64149    -11976.39849        50.000  
 16 04 02 13 56 22.1000000  0  2G08G03                                          
  22369347.07049 117551711.33649       340.90249        49.000  
  23699399.18049 124541182.60549    -11982.96949        50.000  
 16 04 02 13 56 22.2000000  0  2G08G03                                          
  22369340.62549 117551677.45349       336.37149        49.000  
  23699627.26649 124542381.12949    -11988.42249        50.000  
 16 04 02 13 56 22.3000000  0  2G08G03                                          
  22369334.26649 117551644.05949       331.42649        49.000  
  23699855.44549 124543580.23449    -11994.25849        50.000  
 16 04 02 13 56 22.4000000  0  2G08G03                                          
  22369328.00849 117551611.14549       326.77349        49.000  
  23700083.73449 124544779.91449    -11999.93049        50.000  
 16 04 02 13 56 22.5000000  0  2G08G03                                          
  22369321.82049 117551578.69949       322.07049        49.000  
  23700312.13349 124545980.14849    -12005.34849        50.000  
 16 04 02 13 56 22.6000000  0  2G08G03                                          
  22369315.73449 117551546.69149       317.55149        49.000  
  23700540.63349 124547180.93449    -12011.00049        50.000  
 16 04 02 13 56 22.7000000  0  2G08G03                                          
  22369309.72749 117551515.16049       313.13749        49.000  
  23700769.24249 124548382.30149    -12016.57049        50.000  
 16 04 02 13 56 22.8000000  0  2G08G03                                          
  22369303.81249 117551484.11349       308.13749        49.000  
  23700997.95349 124549584.21949    -12022.26649        50.000  
 16 04 02 13 56 22.9000000  0  2G08G03                                          
  22369297.99249 117551453.52049       303.62549        49.000  
  23701226.78149 124550786.70349    -12027.85249        50.000  
 16 04 02 13 56 23.0000000  0  2G08G03                                          
  22369292.26649 117551423.41449       298.53549        49.000  
  23701455.72749 124551989.76249    -12033.81649        50.000  
 16 04 02 13 56 23.1000000  0  2G08G03                                          
  22369286.63349 117551393.78949       293.82849        49.000  
  23701684.77349 124553193.40649    -12039.55949        50.000  
 16 04 02 13 56 23.2000000  0  2G08G03                                          
  22369281.08649 117551364.63349       289.11349        49.000  
  23701913.91449 124554397.60549    -12045.11349        50.000  
 16 04 02 13 56 23.3000000  0  2G08G03                                          
  22369275.62549 117551335.93449       284.40649        49.000  
  23702143.17249 124555602.35949    -12051.03149        50.000  
 16 04 02 13 56 23.4000000  0  2G08G03                                          
  22369270.26649 117551307.80949       278.80949        49.000  
  23702372.54749 124556807.78149    -12057.30549        50.000  
 16 04 02 13 56 23.5000000  0  2G08G03                                          
  22369264.98449 117551280.04749       275.09049        49.000  
  23702602.01649 124558013.66049    -12061.94549        50.000  
 16 04 02 13 56 23.6000000  0  2G08G03                                          
  22369259.79749 117551252.77349       270.28549        49.000  
  23702831.59449 124559220.12949    -12067.89149        50.000  
 16 04 02 13 56 23.7000000  0  2G08G03                                          
  22369254.71149 117551226.05149       264.90249        49.000  
  23703061.29749 124560427.24249    -12074.12949        50.000  
 16 04 02 13 56 23.8000000  0  2G08G03                                          
  22369249.70349 117551199.73049       260.82849        49.000  
  23703291.10249 124561634.85549    -12079.27349        50.000  
 16 04 02 13 56 23.9000000  0  2G08G03                                          
  22369244.78949 117551173.88749       256.29749        49.000  
  23703521.00849 124562843.03149    -12084.64549        50.000  
 16 04 02 13 56 24.0000000  0  2G08G03                                          
  22369239.94549 117551148.43849       252.24249        49.000  
  23703751.02349 124564051.70349    -12089.65249        50.000  
 16 04 02 13 56 24.1000000  0  2G08G03                                          
  22369235.18849 117551123.45749       247.39149        49.000  
  23703981.13349 124565260.93049    -12095.43849        50.000  
 16 04 02 13 56 24.2000000  0  2G08G03                                          
  22369230.53949 117551099.02349       241.88349        49.000  
  23704211.37549 124566470.80549    -12101.93049        50.000  
 16 04 02 13 56 24.3000000  0  2G08G03                                          
  22369225.99249 117551075.07049       237.09849        49.000  
  23704441.71949 124567681.26249    -12107.72749        50.000  
 16 04 02 13 56 24.4000000  0  2G08G03                                          
  22369221.51649 117551051.56649       232.49249        49.000  
  23704672.16449 124568892.25049    -12113.14549        50.000  
 16 04 02 13 56 24.5000000  0  2G08G03                                          
  22369217.13349 117551028.52349       228.05549        49.000  
  23704902.71949 124570103.81249    -12118.64849        50.000  
 16 04 02 13 56 24.6000000  0  2G08G03                                          
  22369212.82849 117551005.91849       223.67249        49.000  
  23705133.36749 124571315.89149    -12123.85949        50.000  
 16 04 02 13 56 24.7000000  0  2G08G03                                          
  22369208.60949 117550983.73449       219.48049        49.000  
  23705364.11749 124572528.49649    -12129.11749        50.000  
 16 04 02 13 56 24.8000000  0  2G08G03                                          
  22369204.50049 117550962.11349       213.94149        49.000  
  23705595.00849 124573741.75849    -12135.54749        50.000  
 16 04 02 13 56 24.9000000  0  2G08G03                                          
  22369200.46149 117550940.91849       209.51649        49.000  
  23705825.97749 124574955.53949    -12141.07449        50.000  
 16 04 02 13 56 25.0000000  0  2G08G03                                          
  22369196.51649 117550920.19149       204.89549        49.000  
  23706057.04749 124576169.87949    -12146.58249        50.000  
 16 04 02 13 56 25.1000000  0  2G08G03                                          
  22369192.66449 117550899.92649       200.23849        49.000  
  23706288.23449 124577384.77349    -12151.99649        50.000  
 16 04 02 13 56 25.2000000  0  2G08G03                                          
  22369188.89849 117550880.16449       195.19149        49.000  
  23706519.53949 124578600.27049    -12158.00849        50.000  
 16 04 02 13 56 25.3000000  0  2G08G03                                          
  22369185.22749 117550860.83249       190.77049        49.000  
  23706750.93849 124579816.29349    -12163.47349        50.000  
 16 04 02 13 56 25.4000000  0  2G08G03                                          
  22369181.64149 117550841.99249       186.02749        49.000  
  23706982.46149 124581032.89549    -12169.11749        50.000  
 16 04 02 13 56 25.5000000  0  2G08G03                                          
  22369178.15649 117550823.65649       180.98449        49.000  
  23707214.08649 124582250.10549    -12175.21949        50.000  
 16 04 02 13 56 25.6000000  0  2G08G03                                          
  22369174.75849 117550805.79349       176.16849        49.000  
  23707445.82049 124583467.87149    -12180.99249        50.000  
 16 04 02 13 56 25.7000000  0  2G08G03                                          
  22369171.44549 117550788.40249       171.47349        49.000  
  23707677.66449 124584686.22749    -12186.68449        50.000  
 16 04 02 13 56 25.8000000  0  2G08G03                                          
  22369168.23449 117550771.54749       166.15249        49.000  
  23707909.63349 124585905.18449    -12192.76649        50.000  
 16 04 02 13 56 25.9000000  0  2G08G03                                          
  22369165.11749 117550755.14849       161.55149        49.000  
  23708141.70349 124587124.71549    -12198.37149        50.000  
 16 04 02 13 56 26.0000000  0  2G08G03                                          
  22369162.07849 117550739.15649       157.50049        49.000  
  23708373.85949 124588344.74649    -12203.50049        50.000  
 16 04 02 13 56 26.1000000  0  2G08G03                                          
  22369159.12549 117550723.63749       152.97749        49.000  
  23708606.12549 124589565.31649    -12208.76649        50.000  
 16 04 02 13 56 26.2000000  0  2G08G03                                          
  22369156.26649 117550708.61349       147.94949        49.000  
  23708838.51649 124590786.50449    -12214.84449        50.000  
 16 04 02 13 56 26.3000000  0  2G08G03                                          
  22369153.49249 117550694.06249       143.09849        49.000  
  23709071.00049 124592008.24249    -12220.57849        50.000  
 16 04 02 13 56 26.4000000  0  2G08G03                                          
  22369150.80549 117550679.95349       138.59849        49.000  
  23709303.60249 124593230.53149    -12226.14549        50.000  
 16 04 02 13 56 26.5000000  0  2G08G03                                          
  22369148.21949 117550666.39549       133.17249        49.000  
  23709536.31249 124594453.45749    -12232.30949        50.000  
 16 04 02 13 56 26.6000000  0  2G08G03                                          
  22369145.71949 117550653.26249       128.84049        49.000  
  23709769.13349 124595676.91049    -12237.76249        50.000  
 16 04 02 13 56 26.7000000  0  2G08G03                                          
  22369143.32049 117550640.61349       124.14549        49.000  
  23710002.05549 124596900.93449    -12243.41449        50.000  
 16 04 02 13 56 26.8000000  0  2G08G03                                          
  22369141.00849 117550628.49249       118.84849        49.000  
  23710235.10949 124598125.58249    -12249.67649        50.000  
 16 04 02 13 56 26.9000000  0  2G08G03                                          
  22369138.78149 117550616.78949       114.59449        49.000  
  23710468.25049 124599350.73049    -12254.69149        50.000  
 16 04 02 13 56 27.0000000  0  2G08G03                                          
  22369136.65649 117550605.59449       109.65649        49.000  
  23710701.50049 124600576.49249    -12260.52749        50.000  
 16 04 02 13 56 27.1000000  0  2G08G03                                          
  22369134.60249 117550594.82449       105.14549        49.000  
  23710934.85249 124601802.78149    -12266.12949        50.000  
 16 04 02 13 56 27.2000000  0  2G08G03                                          
  22369132.64149 117550584.51649       100.82849        49.000  
  23711168.32849 124603029.61749    -12271.35249        50.000  
 16 04 02 13 56 27.3000000  0  2G08G03                                          
  22369130.76649 117550574.66849        96.03949        49.000  
  23711401.89149 124604257.00849    -12277.10549        50.000  
 16 04 02 13 56 27.4000000  0  2G08G03                                          
  22369128.98449 117550565.33649        90.91849        49.000  
  23711635.57049 124605485.00449    -12283.11749        50.000  
 16 04 02 13 56 27.5000000  0  2G08G03                                          
  22369127.29749 117550556.48449        86.17249        49.000  
  23711869.35949 124606713.59049    -12288.94949        50.000  
 16 04 02 13 56 27.6000000  0  2G08G03                                          
  22369125.69549 117550548.07449        81.79349        49.000  
  23712103.25049 124607942.69549    -12294.10949        50.000  
 16 04 02 13 56 27.7000000  0  2G08G03                                          
  22369124.18049 117550540.11749        77.08649        49.000  
  23712337.25049 124609172.35549    -12299.71549        50.000  
 16 04 02 13 56 27.8000000  0  2G08G03                                          
  22369122.76649 117550532.71949        71.52749        49.000  
  23712571.36749 124610402.67649    -12306.41049        50.000  
 16 04 02 13 56 27.9000000  0  2G08G03                                          
  22369121.43849 117550525.75049        67.27049        49.000  
  23712805.58649 124611633.50449    -12311.35949        50.000  
 16 04 02 13 56 28.0000000  0  2G08G03                                          
  22369120.19549 117550519.24649        62.59849        49.000  
  23713039.92249 124612864.89149    -12317.05949        50.000  
 16 04 02 13 56 28.1000000  0  2G08G03                                          
  22369119.03949 117550513.17649        58.50049        49.000  
  23713274.35249 124614096.82049    -12322.15249        50.000  
 16 04 02 13 56 28.2000000  0  2G08G03                                          
  22369117.96149 117550507.52749        54.21949        49.000  
  23713508.86749 124615329.25049    -12327.34449        50.000  
 16 04 02 13 56 28.3000000  0  2G08G03                                          
  22369116.98449 117550502.40249        48.90649        49.000  
  23713743.50849 124616562.30149    -12333.62949        50.000  
 16 04 02 13 56 28.4000000  0  2G08G03                                          
  22369116.10249 117550497.78149        43.72349        49.000  
  23713978.27349 124617795.95749    -12339.73449        50.000  
 16 04 02 13 56 28.5000000  0  2G08G03                                          
  22369115.33649 117550493.67649        38.61749        49.000  
  23714213.14849 124619030.21549    -12345.74249        50.000  
 16 04 02 13 56 28.6000000  0  2G08G03                                          
  22369114.64149 117550490.02349        34.12949        49.000  
  23714448.12549 124620265.02749    -12351.21149        50.000  
 16 04 02 13 56 28.7000000  0  2G08G03                                          
  22369114.03949 117550486.85249        29.44949        49.000  
  23714683.20349 124621500.40249    -12356.75049        50.000  
 16 04 02 13 56 28.8000000  0  2G08G03                                          
  22369113.51649 117550484.12549        24.91049        49.000  
  23714918.39149 124622736.33249    -12362.27049        50.000  
 16 04 02 13 56 28.9000000  0  2G08G03                                          
  22369113.08649 117550481.87149        20.32449        49.000  
  23715153.68849 124623972.80949    -12367.75049        50.000  
 16 04 02 13 56 29.0000000  0  2G08G03                                          
  22369112.75849 117550480.11749        15.14849        49.000  
  23715389.10249 124625209.90249    -12374.07049        50.000  
 16 04 02 13 56 29.1000000  0  2G08G03                                          
  22369112.51649 117550478.86349         9.87549        49.000  
  23715624.61749 124626447.56649    -12379.92649        50.000  
 16 04 02 13 56 29.2000000  0  2G08G03                                          
  22369112.36749 117550478.05549         5.65649        49.000  
  23715860.24249 124627685.77749    -12385.24649        50.000  
 16 04 02 13 56 29.3000000  0  2G08G03                                          
  22369112.28949 117550477.69949         1.14849        49.000  
  23716095.96949 124628924.54349    -12390.85549        50.000  
 16 04 02 13 56 29.4000000  0  2G08G03                                          
  22369112.31249 117550477.80949        -3.32049        49.000  
  23716331.79749 124630163.85549    -12396.22349        50.000  
 16 04 02 13 56 29.5000000  0  2G08G03                                          
  22369112.42249 117550478.41449        -8.40649        49.000  
  23716567.75049 124631403.76649    -12402.11349        50.000  
 16 04 02 13 56 29.6000000  0  2G08G03                                          
  22369112.61749 117550479.44149       -12.68849        49.000  
  23716803.78949 124632644.18449    -12407.35549        50.000  
 16 04 02 13 56 29.7000000  0  2G08G03                                          
  22369112.90649 117550480.94549       -17.34449        49.000  
  23717039.93849 124633885.18049    -12413.04349        50.000  
 16 04 02 13 56 29.8000000  0  2G08G03                                          
  22369113.28949 117550482.96549       -22.67649        49.000  
  23717276.21149 124635126.77349    -12419.17249        50.000  
 16 04 02 13 56 29.9000000  0  2G08G03                                          
  22369113.76649 117550485.47349       -27.59849        49.000  
  23717512.59449 124636368.96149    -12425.02349        50.000  
 16 04 02 13 56 30.0000000  0  2G08G03                                          
  22369114.32849 117550488.45349       -32.16049        49.000  
  23717749.08649 124637611.70349    -12430.39849        50.000  
 16 04 02 13 56 30.1000000  0  2G08G03                                          
  22369114.96949 117550491.82849       -36.22749        49.000  
  23717985.66449 124638854.94949    -12435.65649        50.000  
 16 04 02 13 56 30.2000000  0  2G08G03                                          
  22369115.71949 117550495.74649       -41.30149        49.000  
  23718222.35949 124640098.81249    -12441.50849        50.000  
 16 04 02 13 56 30.3000000  0  2G08G03                                          
  22369116.55549 117550500.10249       -45.98449        49.000  
  23718459.16449 124641343.21949    -12447.28949        50.000  
 16 04 02 13 56 30.4000000  0  2G08G03                                          
  22369117.46949 117550504.91049       -50.34049        49.000  
  23718696.07849 124642588.17649    -12452.53149        50.000  
 16 04 02 13 56 30.5000000  0  2G08G03                                          
  22369118.48449 117550510.21549       -55.39149        49.000  
  23718933.09449 124643833.70749    -12458.48449        50.000  
 16 04 02 13 56 30.6000000  0  2G08G03                                          
  22369119.58649 117550515.99249       -60.04749        49.000  
  23719170.23449 124645079.81249    -12464.04749        50.000  
 16 04 02 13 56 30.7000000  0  2G08G03                                          
  22369120.78149 117550522.26649       -65.10949        49.000  
  23719407.46949 124646326.50049    -12469.87949        50.000  
 16 04 02 13 56 30.8000000  0  2G08G03                                          
  22369122.05549 117550528.98849       -69.61749        49.000  
  23719644.82049 124647573.74249    -12475.40649        50.000  
 16 04 02 13 56 30.9000000  0  2G08G03                                          
  22369123.40649 117550536.10949       -73.57449        49.000  
  23719882.25049 124648821.46549    -12480.31649        50.000  
 16 04 02 13 56 31.0000000  0  2G08G03                                          
  22369124.85949 117550543.73049       -78.43049        49.000  
  23720119.80549 124650069.78549    -12486.27749        50.000  
 16 04 02 13 56 31.1000000  0  2G08G03                                          
  22369126.39849 117550551.89149       -83.96149        49.000  
  23720357.46949 124651318.73849    -12492.53149        50.000  
 16 04 02 13 56 31.2000000  0  2G08G03                                          
  22369128.03149 117550560.46149       -88.24649        49.000  
  23720595.24249 124652568.19549    -12497.84449        50.000  
 16 04 02 13 56 31.3000000  0  2G08G03                                          
  22369129.75849 117550569.51249       -92.85549        49.000  
  23720833.10949 124653818.21949    -12503.34849        50.000  
 16 04 02 13 56 31.4000000  0  2G08G03                                          
  22369131.57849 117550579.07049       -98.11349        49.000  
  23721071.09449 124655068.85249    -12509.44149        50.000  
 16 04 02 13 56 31.5000000  0  2G08G03                                          
  22369133.48449 117550589.07849      -102.57049        49.000  
  23721309.18849 124656320.02049    -12514.94149        50.000  
 16 04 02 13 56 31.6000000  0  2G08G03                                          
  22369135.47749 117550599.55149      -107.17249        49.000  
  23721547.36749 124657571.75849    -12520.46149        50.000  
 16 04 02 13 56 31.7000000  0  2G08G03                                          
  22369137.56249 117550610.51649      -111.91049        49.000  
  23721785.68049 124658824.05949    -12526.16049        50.000  
 16 04 02 13 56 31.8000000  0  2G08G03                                          
  22369139.73449 117550621.93849      -116.58249        49.000  
  23722024.07849 124660076.92649    -12531.78149        50.000  
 16 04 02 13 56 31.9000000  0  2G08G03                                          
  22369142.00049 117550633.82449      -121.23849        49.000  
  23722262.59449 124661330.35949    -12537.43449        50.000  
 16 04 02 13 56 32.0000000  0  2G08G03                                          
  22369144.34449 117550646.14549      -125.43449        49.000  
  23722501.21149 124662584.28549    -12542.27049        50.000  
 16 04 02 13 56 32.1000000  0  2G08G03                                          
  22369146.77349 117550658.91049      -130.03549        49.000  
  23722739.93049 124663838.78149    -12548.05949        50.000  
 16 04 02 13 56 32.2000000  0  2G08G03                                          
  22369149.32049 117550672.27749      -136.07049        49.000  
  23722978.78149 124665093.95349    -12554.89149        50.000  
 16 04 02 13 56 32.3000000  0  2G08G03                                          
  22369151.93849 117550686.05949      -140.43049        49.000  
  23723217.73449 124666349.64849    -12560.20349        50.000  
 16 04 02 13 56 32.4000000  0  2G08G03                                          
  22369154.64149 117550700.28549      -144.78549        49.000  
  23723456.79749 124667605.85949    -12565.22749        50.000  
 16 04 02 13 56 32.5000000  0  2G08G03                                          
  22369157.44549 117550715.05549      -150.10949        49.000  
  23723695.96949 124668862.72349    -12571.82049        50.000  
 16 04 02 13 56 32.6000000  0  2G08G03                                          
  22369160.35249 117550730.30949      -155.02749        49.000  
  23723935.23449 124670120.16049    -12577.51249        50.000  
 16 04 02 13 56 32.7000000  0  2G08G03                                          
  22369163.32849 117550745.98449      -159.32049        49.000  
  23724174.61749 124671378.10949    -12582.68449        50.000  
 16 04 02 13 56 32.8000000  0  2G08G03                                          
  22369166.41449 117550762.19549      -164.50449        49.000  
  23724414.12549 124672636.69949    -12589.02749        50.000  
 16 04 02 13 56 32.9000000  0  2G08G03                                          
  22369169.58649 117550778.84449      -168.85949        49.000  
  23724653.71949 124673895.80149    -12594.17649        50.000  
 16 04 02 13 56 33.0000000  0  2G08G03                                          
  22369172.83649 117550795.92249      -173.02749        49.000  
  23724893.42249 124675155.42649    -12599.23049        50.000  
 16 04 02 13 56 33.1000000  0  2G08G03                                          
  22369176.18049 117550813.53549      -178.45749        49.000  
  23725133.24249 124676415.68449    -12605.67249        50.000  
 16 04 02 13 56 33.2000000  0  2G08G03                                          
  22369179.61749 117550831.57449      -182.66849        49.000  
  23725373.14849 124677676.46549    -12610.84449        50.000  
 16 04 02 13 56 33.3000000  0  2G08G03                                          
  22369183.14849 117550850.10549      -187.68449        49.000  
  23725613.17249 124678937.81249    -12616.58249        50.000  
 16 04 02 13 56 33.4000000  0  2G08G03                                          
  22369186.76649 117550869.13749      -192.85549        49.000  
  23725853.31249 124680199.77349    -12622.69549        50.000  
 16 04 02 13 56 33.5000000  0  2G08G03                                          
  22369190.46949 117550888.60949      -197.12949        49.000  
  23726093.55549 124681462.25449    -12627.87149        50.000  
 16 04 02 13 56 33.6000000  0  2G08G03                                          
  22369194.25849 117550908.50849      -201.34849        49.000  
  23726333.89149 124682725.25849    -12633.10549        50.000  
 16 04 02 13 56 33.7000000  0  2G08G03                                          
  22369198.14149 117550928.91449      -206.44149        49.000  
  23726574.35249 124683988.86749    -12639.22749        50.000  
 16 04 02 13 56 33.8000000  0  2G08G03                                          
  22369202.12549 117550949.83649      -211.64549        49.000  
  23726814.91449 124685253.06649    -12645.26249        50.000  
 16 04 02 13 56 33.9000000  0  2G08G03                                          
  22369206.18849 117550971.19949      -215.97349        49.000  
  23727055.59449 124686517.82049    -12650.56649        50.000  
 16 04 02 13 56 34.0000000  0  2G08G03                                          
  22369210.35249 117550993.05149      -220.91849        49.000  
  23727296.37549 124687783.13749    -12656.36349        50.000  
 16 04 02 13 56 34.1000000  0  2G08G03                                          
  22369214.59449 117551015.39849      -225.80549        49.000  
  23727537.27349 124689049.05149    -12662.12949        50.000  
 16 04 02 13 56 34.2000000  0  2G08G03                                          
  22369218.92249 117551038.16049      -230.14549        49.000  
  23727778.25849 124690315.47349    -12667.37949        50.000  
 16 04 02 13 56 34.3000000  0  2G08G03                                          
  22369223.35249 117551061.45749      -235.42649        49.000  
  23728019.36749 124691582.52349    -12673.55549        50.000  
 16 04 02 13 56 34.4000000  0  2G08G03                                          
  22369227.86749 117551085.18849      -239.63349        49.000  
  23728260.57049 124692850.09049    -12678.85949        50.000  
 16 04 02 13 56 34.5000000  0  2G08G03                                          
  22369232.46949 117551109.34049      -243.80149        49.000  
  23728501.87549 124694118.18049    -12683.80549        50.000  
 16 04 02 13 56 34.6000000  0  2G08G03                                          
  22369237.15649 117551133.98449      -248.89849        49.000  
  23728743.28949 124695386.84849    -12689.78549        50.000  
 16 04 02 13 56 34.7000000  0  2G08G03                                          
  22369241.93049 117551159.04749      -253.09049        49.000  
  23728984.80549 124696656.02749    -12694.97349        50.000  
 16 04 02 13 56 34.8000000  0  2G08G03                                          
  22369246.79749 117551184.63349      -258.13749        49.000  
  23729226.43849 124697925.82449    -12701.03149        50.000  
 16 04 02 13 56 34.9000000  0  2G08G03                                          
  22369251.75849 117551210.68049      -262.80149        49.000  
  23729468.18049 124699196.15649    -12706.46149        50.000  
 16 04 02 13 56 35.0000000  0  2G08G03                                          
  22369256.80549 117551237.19949      -267.66849        49.000  
  23729710.03149 124700467.09049    -12712.47349        50.000  
 16 04 02 13 56 35.1000000  0  2G08G03                                          
  22369261.93849 117551264.20749      -272.33249        49.000  
  23729951.98449 124701738.56249    -12717.85249        50.000  
 16 04 02 13 56 35.2000000  0  2G08G03                                          
  22369267.15649 117551291.61749      -276.55549        49.000  
  23730194.03149 124703010.55549    -12722.85549        50.000  
 16 04 02 13 56 35.3000000  0  2G08G03                                          
  22369272.46949 117551319.53949      -281.48449        49.000  
  23730436.19549 124704283.14849    -12728.85549        50.000  
 16 04 02 13 56 35.4000000  0  2G08G03                                          
  22369277.86749 117551347.91849      -286.31249        49.000  
  23730678.46149 124705556.28549    -12734.75049        50.000  
 16 04 02 13 56 35.5000000  0  2G08G03                                          
  22369283.35949 117551376.79349      -290.95749        49.000  
  23730920.83649 124706829.99649    -12740.09849        50.000  
 16 04 02 13 56 35.6000000  0  2G08G03                                          
  22369288.93849 117551406.10949      -295.81649        49.000  
  23731163.32849 124708104.27049    -12745.94949        50.000  
 16 04 02 13 56 35.7000000  0  2G08G03                                          
  22369294.62549 117551435.94149      -300.75049        49.000  
  23731405.92249 124709379.12549    -12751.74249        50.000  
 16 04 02 13 56 35.8000000  0  2G08G03                                          
  22369300.38349 117551466.22349      -305.22749        49.000  
  23731648.63349 124710654.53949    -12757.30949        50.000  
 16 04 02 13 56 35.9000000  0  2G08G03                                          
  22369306.23449 117551496.98449      -310.15649        49.000  
  23731891.44549 124711930.51649    -12762.98449        50.000  
 16 04 02 13 56 36.0000000  0  2G08G03                                          
  22369312.18849 117551528.25849      -315.09049        49.000  
  23732134.37549 124713207.10249    -12769.02349        50.000  
 16 04 02 13 56 36.1000000  0  2G08G03                                          
  22369318.21949 117551559.95749      -319.54349        49.000  
  23732377.39849 124714484.19149    -12774.06249        50.000  
