     2.10           OBSERVATION DATA    G (GPS)             RINEX VERSION / TYPE
Convert v1.8.0                          07-Jun-2016 18:55   PGM / RUN BY / DATE 
Signal Strength values S1,S2 are in dBHz                    COMMENT             
                                                            MARKER NAME         
                                                            MARKER NUMBER       
                                                            OBSERVER / AGENCY   
                    NovAtel GPSCard                         REC # / TYPE / VERS 
                                                            ANT # / TYPE        
0.0000        0.0000        0.0000                          APPROX POSITION XYZ 
        0.0000        0.0000        0.0000                  ANTENNA: DELTA H/E/N
     1     1                                                WAVELENGTH FACT L1/2
     1     1     5   G17   G18   G19   G24   G28            WAVELENGTH FACT L1/2
                                                            COMMENT             
                                                            COMMENT             
                                                            COMMENT             
                                                            COMMENT             
                                                            COMMENT             
                                                            COMMENT             
     8    C1    L1    D1    S1    P2    L2    D2    S2      # / TYPES OF OBSERV 
     0.100                                                  INTERVAL            
  2016    04    02    13    26     6.6000000    GPS         TIME OF FIRST OBS   
  2016    04    02    13    30    27.6000000    GPS         TIME OF LAST OBS    
Leap Seconds Unknown                                        COMMENT             
                                                            END OF HEADER       
 16 04 02 13 26  6.6000000  0  1G24                                             
  21215531.78149 111488371.08259      2883.21949        49.000  

 16 04 02 13 26  6.7000000  0  2G18G24                                          
  24936338.88349 131041345.13359     -2362.73049        48.000  

  21215476.97749 111488083.06649      2877.58249        49.000  

 16 04 02 13 26  6.8000000  0  3G17G18G24                                       
  22321524.28949 117300400.93459      2901.09449        49.000  

  24936383.88349 131041581.60249     -2366.60249        48.000  

  21215422.27349 111487795.62549      2871.66449        49.000  

 16 04 02 13 26  6.9000000  0  3G17G18G24                                       
  22321469.11749 117300111.03149      2897.39549        49.000  

  24936428.97749 131041818.50049     -2370.64549        48.000  

  21215367.69549 111487508.82849      2865.39549        49.000  

 16 04 02 13 26  7.0000000  0  3G17G18G24                                       
  22321414.01649 117299821.38749      2894.84449        49.000  

  24936474.10949 131042055.67249     -2373.48849        48.000  

  21215313.22749 111487222.51649      2860.46149        49.000  

 16 04 02 13 26  7.1000000  0  3G17G18G24                                       
  22321358.96949 117299532.12549      2891.00049        49.000  

  24936519.32049 131042293.25049     -2377.52349        48.000  

  21215258.86749 111486936.83649      2854.23849        49.000  

 16 04 02 13 26  7.2000000  0  3G17G18G24                                       
  22321303.99249 117299243.23849      2887.14549        49.000  

  24936564.60949 131042531.23449     -2381.58649        48.000  

  21215204.62549 111486651.76649      2847.99649        49.000  

 16 04 02 13 26  7.3000000  0  3G17G18G24                                       
  22321249.07049 117298954.62549      2884.32449        49.000  

  24936609.96149 131042769.52049     -2384.82449        48.000  

  21215150.47749 111486367.21949      2842.71949        49.000  

 16 04 02 13 26  7.4000000  0  3G17G18G24                                       
  22321194.21149 117298666.39849      2880.40649        49.000  

  24936655.38349 131043008.21949     -2388.82049        48.000  

  21215096.44549 111486083.29349      2836.51649        49.000  

 16 04 02 13 26  7.5000000  0  3G17G18G24                                       
  22321139.42249 117298378.47349      2877.72749        49.000  

  24936700.88349 131043247.25049     -2391.86349        48.000  

  21215042.52349 111485799.92649      2831.19549        49.000  

 16 04 02 13 26  7.6000000  0  3G17G18G24                                       
  22321084.68049 117298090.84449      2874.55549        49.000  

  24936746.43049 131043486.60249     -2395.40649        48.000  

  21214988.69549 111485517.08249      2825.71549        49.000  

 16 04 02 13 26  7.7000000  0  3G17G18G24                                       
  22321030.01649 117297803.59849      2870.61349        49.000  

  24936792.04749 131043726.37149     -2399.68449        48.000  

  21214934.99249 111485234.87949      2819.25049        49.000  

 16 04 02 13 26  7.8000000  0  3G17G18G24                                       
  22320975.43849 117297516.75449      2866.57049        49.000  

  24936837.75049 131043966.54749     -2403.68049        48.000  

  21214881.41449 111484953.30549      2812.87549        49.000  

 16 04 02 13 26  7.9000000  0  3G17G18G24                                       
  22320920.90649 117297230.22349      2863.47749        49.000  

  24936883.53149 131044207.09449     -2407.39849        48.000  

  21214827.93849 111484672.28949      2807.24249        49.000  

 16 04 02 13 26  8.0000000  0  3G17G18G24                                       
  22320866.45349 117296944.04349      2860.01649        50.000  

  24936929.37549 131044448.00049     -2410.98449        48.000  

  21214774.57049 111484391.86349      2801.46949        49.000  

 16 04 02 13 26  8.1000000  0  3G17G18G24                                       
  22320812.05549 117296658.21149      2856.52749        50.000  

  24936975.27349 131044689.27749     -2414.75449        48.000  

  21214721.32049 111484112.03949      2795.48449        49.000  

 16 04 02 13 26  8.2000000  0  3G17G18G24                                       
  22320757.72749 117296372.70749      2853.40249        50.000  

  24937021.25849 131044930.92249     -2418.19949        48.000  

  21214668.19549 111483832.78149      2789.90649        49.000  

 16 04 02 13 26  8.3000000  0  3G17G18G24                                       
  22320703.46149 117296087.55549      2849.92649        50.000  

  24937067.29749 131045172.94149     -2421.95349        48.000  

  21214615.16449 111483554.10249      2784.25049        49.000  

 16 04 02 13 26  8.4000000  0  3G17G18G24                                       
  22320649.26649 117295802.71549      2846.68449        50.000  

  24937113.41449 131045415.29749     -2425.35249        48.000  

  21214562.24249 111483276.00449      2778.34049        49.000  

 16 04 02 13 26  8.5000000  0  3G17G18G24                                       
  22320595.13349 117295518.24249      2842.91849        49.000  

  24937159.60949 131045658.04349     -2429.36349        48.000  

  21214509.43049 111482998.49249      2772.33249        49.000  

 16 04 02 13 26  8.6000000  0  3G17G18G24                                       
  22320541.07849 117295234.13349      2839.21949        50.000  

  24937205.88349 131045901.18449     -2433.24249        48.000  

  21214456.73449 111482721.59449      2766.15249        49.000  

 16 04 02 13 26  8.7000000  0  3G17G18G24                                       
  22320487.07849 117294950.34849      2836.13749        49.000  

  24937252.21149 131046144.68449     -2436.85549        48.000  

  21214404.15649 111482445.27049      2760.55949        49.000  

 16 04 02 13 26  8.8000000  0  3G17G18G24                                       
  22320433.13349 117294666.87549      2832.93449        49.000  

  24937298.60949 131046388.51649     -2440.19549        48.000  

  21214351.67249 111482169.49649      2754.94949        49.000  

 16 04 02 13 26  8.9000000  0  3G17G18G24                                       
  22320379.25849 117294383.75849      2829.64549        49.000  

  24937345.07049 131046632.73449     -2443.94949        48.000  

  21214299.31249 111481894.32049      2749.04749        49.000  

 16 04 02 13 26  9.0000000  0  3G17G18G24                                       
  22320325.43049 117294100.97749      2826.19149        49.000  

  24937391.60949 131046877.30949     -2447.42249        48.000  

  21214247.06249 111481619.72349      2743.29349        49.000  

 16 04 02 13 26  9.1000000  0  3G17G18G24                                       
  22320271.68049 117293818.50449      2822.98849        49.000  

  24937438.21949 131047122.22749     -2451.05149        48.000  

  21214194.90649 111481345.66049      2737.87549        49.000  

 16 04 02 13 26  9.2000000  0  3G17G18G24                                       
  22320217.98449 117293536.36349      2819.75449        49.000  

  24937484.89149 131047367.50049     -2454.54349        48.000  

  21214142.87549 111481072.19949      2732.02049        49.000  

 16 04 02 13 26  9.3000000  0  3G17G18G24                                       
  22320164.35949 117293254.57849      2816.24649        49.000  

  24937531.62549 131047613.14849     -2458.21549        48.000  

  21214090.94549 111480799.30949      2726.22749        49.000  

 16 04 02 13 26  9.4000000  0  3G17G18G24                                       
  22320110.82049 117292973.14149      2812.59449        49.000  

  24937578.44549 131047859.18449     -2462.21549        48.000  

  21214039.12549 111480527.03149      2720.03949        49.000  

 16 04 02 13 26  9.5000000  0  3G17G18G24                                       
  22320057.32849 117292692.03149      2809.40649        49.000  

  24937625.34449 131048105.56249     -2465.64549        48.000  

  21213987.42249 111480255.30949      2714.52349        49.000  

 16 04 02 13 26  9.6000000  0  3G17G18G24                                       
  22320003.89149 117292411.23849      2806.38349        49.000  

  24937672.29749 131048352.29349     -2468.91449        48.000  

  21213935.82049 111479984.16049      2708.92649        49.000  

 16 04 02 13 26  9.7000000  0  3G17G18G24                                       
  22319950.52349 117292130.80549      2802.68449        49.000  

  24937719.32849 131048599.41449     -2472.91049        48.000  

  21213884.32849 111479713.59849      2702.93849        49.000  

 16 04 02 13 26  9.8000000  0  3G17G18G24                                       
  22319897.24249 117291850.77049      2798.56249        49.000  

  24937766.43049 131048846.94549     -2477.25049        48.000  

  21213832.97749 111479443.68049      2696.43049        49.000  

 16 04 02 13 26  9.9000000  0  3G17G18G24                                       
  22319844.03149 117291571.12549      2794.50849        49.000  

  24937813.59449 131049094.90249     -2481.53949        48.000  

  21213781.73449 111479174.40649      2689.84049        49.000  

 16 04 02 13 26 10.0000000  0  3G17G18G24                                       
  22319790.87549 117291291.79749      2791.57049        49.000  

  24937860.84449 131049343.20349     -2484.77349        48.000  

  21213730.60249 111478905.68049      2684.50449        49.000  

 16 04 02 13 26 10.1000000  0  3G17G18G24                                       
  22319737.77349 117291012.76249      2788.56649        49.000  

  24937908.14849 131049591.81249     -2487.86349        48.000  

  21213679.56249 111478637.48449      2679.21149        49.000  

 16 04 02 13 26 10.2000000  0  3G17G18G24                                       
  22319684.75849 117290734.13349      2784.44149        49.000  

  24937955.54749 131049840.87549     -2492.43049        48.000  

  21213628.66449 111478369.94949      2672.63749        49.000  

 16 04 02 13 26 10.3000000  0  3G17G18G24                                       
  22319631.80549 117290455.86349      2780.86749        49.000  

  24938003.00049 131050090.33249     -2496.50049        48.000  

  21213577.86749 111478103.02349      2666.46949        49.000  

 16 04 02 13 26 10.4000000  0  3G17G18G24                                       
  22319578.92249 117290177.93849      2777.50449        50.000  

  24938050.53949 131050340.12549     -2499.78949        48.000  

  21213527.18049 111477836.65249      2660.91049        49.000  

 16 04 02 13 26 10.5000000  0  3G17G18G24                                       
  22319526.08649 117289900.30549      2774.44149        50.000  

  24938098.12549 131050590.25849     -2503.26249        48.000  

  21213476.60249 111477570.84849      2655.25049        49.000  

 16 04 02 13 26 10.6000000  0  3G17G18G24                                       
  22319473.32849 117289623.07449      2770.67249        50.000  

  24938145.80549 131050840.81249     -2507.19549        48.000  

  21213426.14149 111477305.67649      2649.08249        49.000  

 16 04 02 13 26 10.7000000  0  3G17G18G24                                       
  22319420.64149 117289346.20349      2766.67249        49.000  

  24938193.56249 131051091.77049     -2511.65649        48.000  

  21213375.79749 111477041.10949      2642.61749        49.000  

 16 04 02 13 26 10.8000000  0  3G17G18G24                                       
  22319368.03149 117289069.71149      2763.20749        49.000  

  24938241.39149 131051343.10549     -2515.27749        48.000  

  21213325.57849 111476777.15649      2636.80549        49.000  

 16 04 02 13 26 10.9000000  0  3G17G18G24                                       
  22319315.47749 117288793.54349      2759.73049        49.000  

  24938289.30549 131051594.82049     -2519.08249        48.000  

  21213275.46149 111476513.78149      2630.81249        49.000  

 16 04 02 13 26 11.0000000  0  3G17G18G24                                       
  22319262.98449 117288517.72749      2756.55949        50.000  

  24938337.27349 131051846.89849     -2522.64149        48.000  

  21213225.45349 111476250.99249      2625.26649        49.000  

 16 04 02 13 26 11.1000000  0  3G17G18G24                                       
  22319210.54749 117288242.15649      2753.87949        50.000  

  24938385.29749 131052099.25449     -2525.52049        48.000  

  21213175.53949 111475988.69149      2620.21149        49.000  

 16 04 02 13 26 11.2000000  0  3G17G18G24                                       
  22319158.18049 117287966.99649      2749.86749        49.000  

  24938433.39849 131052352.03949     -2529.71549        48.000  

  21213125.75049 111475727.04749      2613.69549        49.000  

 16 04 02 13 26 11.3000000  0  3G17G18G24                                       
  22319105.89149 117287692.18849      2746.40249        49.000  

  24938481.57849 131052605.20749     -2533.48849        48.000  

  21213076.07049 111475465.99249      2607.80949        49.000  

 16 04 02 13 26 11.4000000  0  3G17G18G24                                       
  22319053.64849 117287417.65649      2743.41049        49.000  

  24938529.82049 131052858.69149     -2536.76249        48.000  

  21213026.48449 111475205.46549      2602.50849        49.000  

 16 04 02 13 26 11.5000000  0  3G17G18G24                                       
  22319001.47749 117287143.48849      2740.07449        49.000  

  24938578.13349 131053112.55549     -2540.50049        48.000  

  21212977.02349 111474945.55549      2596.39849        49.000  

 16 04 02 13 26 11.6000000  0  3G17G18G24                                       
  22318949.38349 117286869.73049      2736.03549        49.000  

  24938626.51649 131053366.83249     -2544.47349        48.000  

  21212927.67249 111474686.26649      2590.15249        49.000  

 16 04 02 13 26 11.7000000  0  3G17G18G24                                       
  22318897.33649 117286596.24249      2733.16849        49.000  

  24938674.98449 131053621.43449     -2547.79749        48.000  

  21212878.43049 111474427.49649      2584.93449        49.000  

 16 04 02 13 26 11.8000000  0  3G17G18G24                                       
  22318845.36749 117286323.13749      2729.44949        49.000  

  24938723.50849 131053876.44549     -2551.85549        48.000  

  21212829.30549 111474169.36749      2578.70749        49.000  

 16 04 02 13 26 11.9000000  0  3G17G18G24                                       
  22318793.45349 117286050.32449      2726.35249        50.000  

  24938772.09449 131054131.75849     -2554.93449        48.000  

  21212780.28949 111473911.76649      2573.28549        49.000  

 16 04 02 13 26 12.0000000  0  3G17G18G24                                       
  22318741.60249 117285777.84049      2723.27349        50.000  

  24938820.75049 131054387.43849     -2558.48849        48.000  

  21212731.39149 111473654.73049      2567.73049        49.000  

 16 04 02 13 26 12.1000000  0  3G17G18G24                                       
  22318689.82849 117285505.76649      2718.80149        49.000  

  24938869.50049 131054643.56649     -2563.28149        48.000  

  21212682.60949 111473398.36749      2560.80149        49.000  

 16 04 02 13 26 12.2000000  0  3G17G18G24                                       
  22318638.13349 117285234.04349      2715.53149        50.000  

  24938918.31249 131054900.04749     -2566.65249        48.000  

  21212633.93049 111473142.57449      2555.15249        49.000  

 16 04 02 13 26 12.3000000  0  3G17G18G24                                       
  22318586.47749 117284962.59849      2712.66449        50.000  

  24938967.18049 131055156.85249     -2569.90649        48.000  

  21212585.35949 111472887.31249      2549.88749        49.000  

 16 04 02 13 26 12.4000000  0  3G17G18G24                                       
  22318534.89849 117284691.52049      2709.23849        50.000  

  24939016.12549 131055414.03949     -2573.60549        48.000  

  21212536.89149 111472632.66049      2544.04349        49.000  

 16 04 02 13 26 12.5000000  0  3G17G18G24                                       
  22318483.37549 117284420.79349      2705.55549        50.000  

  24939065.14149 131055671.60549     -2577.29749        48.000  

  21212488.54749 111472378.60549      2537.86349        49.000  

 16 04 02 13 26 12.6000000  0  3G17G18G24                                       
  22318431.93849 117284150.41449      2702.02749        50.000  

  24939114.22749 131055929.54749     -2581.16849        48.000  

  21212440.31249 111472125.12549      2532.05149        49.000  

 16 04 02 13 26 12.7000000  0  3G17G18G24                                       
  22318380.54749 117283880.35949      2698.84849        50.000  

  24939163.37549 131056187.85249     -2584.84049        48.000  

  21212392.19549 111471872.23449      2526.17649        49.000  

 16 04 02 13 26 12.8000000  0  3G17G18G24                                       
  22318329.21949 117283610.62549      2695.65649        49.000  

  24939212.59449 131056446.48449     -2588.11749        48.000  

  21212344.17249 111471619.89549      2520.64849        49.000  

 16 04 02 13 26 12.9000000  0  3G17G18G24                                       
  22318277.96149 117283341.26649      2691.73449        49.000  

  24939261.89149 131056705.53149     -2592.24249        48.000  

  21212296.27349 111471368.17249      2514.44149        49.000  

 16 04 02 13 26 13.0000000  0  3G17G18G24                                       
  22318226.77349 117283072.23049      2688.72349        49.000  

  24939311.25049 131056964.91449     -2595.50849        48.000  

  21212248.47749 111471117.01649      2508.91849        49.000  

 16 04 02 13 26 13.1000000  0  3G17G18G24                                       
  22318175.64149 117282803.53549      2685.02349        49.000  

  24939360.68049 131057224.68449     -2599.60249        48.000  

  21212200.79749 111470866.44149      2502.82449        49.000  

 16 04 02 13 26 13.2000000  0  3G17G18G24                                       
  22318124.59449 117282535.26649      2680.92649        49.000  

  24939410.19549 131057484.89849     -2603.94149        48.000  

  21212153.23449 111470616.54749      2496.28149        49.000  

 16 04 02 13 26 13.3000000  0  3G17G18G24                                       
  22318073.59449 117282267.25449      2678.39149        49.000  

  24939459.77349 131057745.39549     -2606.71949        48.000  

  21212105.77349 111470367.14149      2491.28149        49.000  

 16 04 02 13 26 13.4000000  0  3G17G18G24                                       
  22318022.66449 117281999.60249      2674.83649        49.000  

  24939509.42249 131058006.27049     -2610.54749        48.000  

  21212058.44549 111470118.34049      2485.33649        49.000  

 16 04 02 13 26 13.5000000  0  3G17G18G24                                       
  22317971.81249 117281732.34449      2670.78949        49.000  

  24939559.14849 131058267.57449     -2614.93049        48.000  

  21212011.21949 111469870.17249      2478.86349        49.000  

 16 04 02 13 26 13.6000000  0  3G17G18G24                                       
  22317921.00849 117281465.37149      2667.94949        49.000  

  24939608.93049 131058529.18849     -2617.99249        48.000  

  21211964.09449 111469622.53549      2473.55149        49.000  

 16 04 02 13 26 13.7000000  0  3G17G18G24                                       
  22317870.28149 117281198.78949      2663.98449        49.000  

  24939658.79749 131058791.22349     -2622.25849        48.000  

  21211917.09449 111469375.53949      2467.18849        49.000  

 16 04 02 13 26 13.8000000  0  3G17G18G24                                       
  22317819.61749 117280932.54349      2660.53149        49.000  

  24939708.72749 131059053.62149     -2625.98849        48.000  

  21211870.19549 111469129.11349      2461.28949        49.000  

 16 04 02 13 26 13.9000000  0  3G17G18G24                                       
  22317769.01649 117280666.64849      2657.16849        49.000  

  24939758.72749 131059316.39549     -2629.68049        48.000  

  21211823.41449 111468883.28549      2455.59049        49.000  

 16 04 02 13 26 14.0000000  0  3G17G18G24                                       
  22317718.47749 117280401.09849      2653.85549        49.000  

  24939808.80549 131059579.53149     -2633.13749        48.000  

  21211776.75849 111468638.04749      2449.65649        49.000  

 16 04 02 13 26 14.1000000  0  3G17G18G24                                       
  22317668.00849 117280135.85549      2650.69549        49.000  

  24939858.93849 131059843.00849     -2636.50049        48.000  

  21211730.19549 111468393.35549      2444.15249        49.000  

 16 04 02 13 26 14.2000000  0  3G17G18G24                                       
  22317617.59449 117279870.92649      2647.83649        49.000  

  24939909.14149 131060106.82049     -2639.72349        48.000  

  21211683.73449 111468149.22749      2438.67649        49.000  

 16 04 02 13 26 14.3000000  0  3G17G18G24                                       
  22317567.24249 117279606.34849      2643.87949        49.000  

  24939959.41449 131060371.02349     -2643.90649        48.000  

  21211637.39149 111467905.68049      2432.59049        49.000  

 16 04 02 13 26 14.4000000  0  3G17G18G24                                       
  22317516.97749 117279342.16049      2640.23449        49.000  

  24940009.76649 131060635.62549     -2647.85949        48.000  

  21211591.16449 111467662.77049      2426.35249        49.000  

 16 04 02 13 26 14.5000000  0  3G17G18G24                                       
  22317466.77349 117279078.30549      2636.73049        49.000  

  24940060.19549 131060900.59449     -2651.53949        48.000  

  21211545.04749 111467420.43449      2420.49249        49.000  

 16 04 02 13 26 14.6000000  0  3G17G18G24                                       
  22317416.64149 117278814.85949      2632.50049        49.000  

  24940110.70349 131061166.00449     -2656.05549        48.000  

  21211499.05549 111467178.75449      2413.90249        49.000  

 16 04 02 13 26 14.7000000  0  3G17G18G24                                       
  22317366.56249 117278551.69949      2629.83249        49.000  

  24940161.26649 131061431.71149     -2658.91049        48.000  

  21211453.16449 111466937.60549      2408.77049        49.000  

 16 04 02 13 26 14.8000000  0  3G17G18G24                                       
  22317316.54749 117278288.90649      2626.17249        49.000  

  24940211.90649 131061697.82049     -2662.87149        48.000  

  21211407.39849 111466697.05949      2402.71949        49.000  

 16 04 02 13 26 14.9000000  0  3G17G18G24                                       
  22317266.60249 117278026.44949      2622.96949        49.000  

  24940262.60949 131061964.29749     -2666.42649        48.000  

  21211361.73449 111466457.09849      2397.02749        49.000  

 16 04 02 13 26 15.0000000  0  3G17G18G24                                       
  22317216.72749 117277764.28549      2620.13349        49.000  

  24940313.38349 131062231.09049     -2669.57049        48.000  

  21211316.16449 111466217.66449      2391.70749        49.000  

 16 04 02 13 26 15.1000000  0  3G17G18G24                                       
  22317166.89849 117277502.45349      2616.68049        49.000  

  24940364.19549 131062498.23849     -2673.14549        48.000  

  21211270.71949 111465978.82049      2385.80149        49.000  

 16 04 02 13 26 15.2000000  0  3G17G18G24                                       
  22317117.14149 117277240.96149      2613.35949        49.000  

  24940415.10949 131062765.75849     -2676.85949        48.000  

  21211225.37549 111465740.54749      2380.07449        49.000  

 16 04 02 13 26 15.3000000  0  3G17G18G24                                       
  22317067.43849 117276979.77349      2610.30949        49.000  

  24940466.07049 131063033.60549     -2680.27049        48.000  

  21211180.13349 111465502.81649      2374.63349        49.000  

 16 04 02 13 26 15.4000000  0  3G17G18G24                                       
  22317017.81249 117276719.03149      2605.63349        49.000  

  24940517.13349 131063301.92249     -2685.01649        48.000  

  21211135.02349 111465265.79749      2367.46549        49.000  

 16 04 02 13 26 15.5000000  0  3G17G18G24                                       
  22316968.25049 117276458.62149      2602.26249        49.000  

  24940568.25849 131063570.60249     -2688.75449        48.000  

  21211090.02349 111465029.32049      2361.85249        49.000  

 16 04 02 13 26 15.6000000  0  3G17G18G24                                       
  22316918.76649 117276198.56649      2598.71949        49.000  

  24940619.46149 131063839.65249     -2692.42249        48.000  

  21211045.14849 111464793.46949      2355.75049        49.000  

 16 04 02 13 26 15.7000000  0  3G17G18G24                                       
  22316869.33649 117275938.80149      2596.07449        49.000  

  24940670.72749 131064109.02749     -2695.39549        48.000  

  21211000.36749 111464558.14149      2350.63749        49.000  

 16 04 02 13 26 15.8000000  0  3G17G18G24                                       
  22316819.96949 117275679.35949      2592.64849        49.000  

  24940722.05549 131064378.75849     -2699.09849        48.000  

  21210955.69549 111464323.37149      2344.96549        49.000  

 16 04 02 13 26 15.9000000  0  3G17G18G24                                       
  22316770.68049 117275420.33249      2588.59049        49.000  

  24940773.46949 131064648.91449     -2703.34449        48.000  

  21210911.14849 111464089.27349      2338.30549        49.000  

 16 04 02 13 26 16.0000000  0  3G17G18G24                                       
  22316721.43849 117275161.59049      2585.68849        49.000  

  24940824.93849 131064919.39549     -2706.69949        48.000  

  21210866.70349 111463855.69149      2333.05149        49.000  

 16 04 02 13 26 16.1000000  0  3G17G18G24                                       
  22316672.27349 117274903.21549      2582.02049        49.000  

  24940876.46949 131065190.25849     -2710.50449        48.000  

  21210822.36749 111463622.72749      2326.96549        49.000  

 16 04 02 13 26 16.2000000  0  3G17G18G24                                       
  22316623.18849 117274645.22749      2578.18449        49.000  

  24940928.09449 131065461.53549     -2714.50849        48.000  

  21210778.15649 111463390.39149      2320.65649        49.000  

 16 04 02 13 26 16.3000000  0  3G17G18G24                                       
  22316574.14849 117274387.53549      2575.16449        49.000  

  24940979.78149 131065733.14549     -2717.93849        48.000  

  21210734.04749 111463158.59049      2315.19149        49.000  

 16 04 02 13 26 16.4000000  0  3G17G18G24                                       
  22316525.17249 117274130.18049      2571.82849        49.000  

  24941031.53149 131066005.10949     -2721.48049        48.000  

  21210690.04749 111462927.37949      2309.39849        49.000  

 16 04 02 13 26 16.5000000  0  3G17G18G24                                       
  22316476.25849 117273873.15249      2568.46149        49.000  

  24941083.35249 131066277.43049     -2725.10249        48.000  

  21210646.15649 111462696.73049      2303.61349        49.000  

 16 04 02 13 26 16.6000000  0  3G17G18G24                                       
  22316427.43049 117273616.54349      2564.36749        49.000  

  24941135.25849 131066550.19149     -2729.48449        48.000  

  21210602.39149 111462466.75049      2297.04749        49.000  

 16 04 02 13 26 16.7000000  0  3G17G18G24                                       
  22316378.67249 117273360.28949      2560.68849        49.000  

  24941187.24249 131066823.33649     -2733.45749        48.000  

  21210558.73449 111462237.35249      2291.16849        49.000  

 16 04 02 13 26 16.8000000  0  3G17G18G24                                       
  22316329.96149 117273104.32449      2557.87949        49.000  

  24941239.28149 131067096.80549     -2736.47349        48.000  

  21210515.18849 111462008.50849      2285.70349        49.000  

 16 04 02 13 26 16.9000000  0  3G17G18G24                                       
  22316281.32049 117272848.70749      2554.49649        49.000  

  24941291.39149 131067370.62549     -2740.02049        48.000  

  21210471.75049 111461780.23849      2279.95349        49.000  

 16 04 02 13 26 17.0000000  0  3G17G18G24                                       
  22316232.73449 117272593.45349      2550.72749        49.000  

  24941343.57049 131067644.84849     -2744.11749        48.000  

  21210428.43049 111461552.57449      2273.88749        49.000  

 16 04 02 13 26 17.1000000  0  3G17G18G24                                       
  22316184.23449 117272338.56249      2547.16849        49.000  

  24941395.84449 131067919.46149     -2747.85249        48.000  

  21210385.22749 111461325.52049      2267.86749        49.000  

 16 04 02 13 26 17.2000000  0  3G17G18G24                                       
  22316135.78949 117272083.99249      2543.84449        49.000  

  24941448.16449 131068194.43049     -2751.53549        48.000  

  21210342.12549 111461099.04349      2261.91049        49.000  

 16 04 02 13 26 17.3000000  0  3G17G18G24                                       
  22316087.42249 117271829.83249      2539.89549        49.000  

  24941500.57049 131068469.82449     -2755.77049        48.000  

  21210299.14849 111460873.19949      2255.69149        49.000  

 16 04 02 13 26 17.4000000  0  3G17G18G24                                       
  22316039.12549 117271576.01249      2536.25849        49.000  

  24941553.04749 131068745.57449     -2759.52749        48.000  

  21210256.28949 111460647.95349      2249.50849        49.000  

 16 04 02 13 26 17.5000000  0  3G17G18G24                                       
  22315990.89849 117271322.55549      2532.66049        49.000  

  24941605.59449 131069021.74249     -2763.71949        48.000  

  21210213.53949 111460423.29349      2243.67249        49.000  

 16 04 02 13 26 17.6000000  0  3G17G18G24                                       
  22315942.71149 117271069.42249      2529.54349        49.000  

  24941658.21149 131069298.21949     -2766.77749        48.000  

  21210170.89149 111460199.23049      2237.92249        49.000  

 16 04 02 13 26 17.7000000  0  3G17G18G24                                       
  22315894.60949 117270816.61349      2526.53149        49.000  

  24941710.89849 131069575.06649     -2770.10949        48.000  

  21210128.35949 111459975.71549      2232.53149        49.000  

 16 04 02 13 26 17.8000000  0  3G17G18G24                                       
  22315846.54749 117270564.12149      2523.32049        49.000  

  24941763.64849 131069852.27749     -2773.69149        48.000  

  21210085.92249 111459752.76249      2226.87549        49.000  

 16 04 02 13 26 17.9000000  0  3G17G18G24                                       
  22315798.57049 117270311.98049      2519.61349        49.000  

  24941816.47749 131070129.83649     -2777.52349        48.000  

  21210043.60949 111459530.39849      2220.83649        49.000  

 16 04 02 13 26 18.0000000  0  3G17G18G24                                       
  22315750.66449 117270060.23049      2515.69149        49.000  

  24941869.37549 131070407.82449     -2781.69949        48.000  

  21210001.42249 111459308.68049      2214.43849        49.000  

 16 04 02 13 26 18.1000000  0  3G17G18G24                                       
  22315702.81249 117269808.80149      2512.45749        49.000  

  24941922.33649 131070686.16049     -2785.31649        48.000  

  21209959.33649 111459087.52049      2208.71949        49.000  

 16 04 02 13 26 18.2000000  0  3G17G18G24                                       
  22315655.03149 117269557.72749      2509.22349        49.000  

  24941975.36749 131070964.87549     -2788.68049        48.000  

  21209917.35249 111458866.96149      2203.03549        49.000  

 16 04 02 13 26 18.3000000  0  3G17G18G24                                       
  22315607.30549 117269306.93849      2506.20749        49.000  

  24942028.46949 131071243.90649     -2792.00849        48.000  

  21209875.47749 111458646.92649      2197.62949        49.000  

 16 04 02 13 26 18.4000000  0  3G17G18G24                                       
  22315559.64849 117269056.47749      2502.91849        49.000  

  24942081.63349 131071523.28549     -2795.57849        48.000  

  21209833.71949 111458427.46549      2191.96549        49.000  

 16 04 02 13 26 18.5000000  0  3G17G18G24                                       
  22315512.06249 117268806.42249      2498.86749        49.000  

  24942134.87549 131071803.09049     -2799.83649        48.000  

  21209792.07849 111458208.65249      2185.40249        49.000  

 16 04 02 13 26 18.6000000  0  3G17G18G24                                       
  22315464.53949 117268556.66849      2495.84449        49.000  

  24942188.18849 131072083.22349     -2803.19549        48.000  

  21209750.53949 111457990.37949      2180.00049        49.000  

 16 04 02 13 26 18.7000000  0  3G17G18G24                                       
  22315417.07049 117268307.21949      2492.77749        49.000  

  24942241.55549 131072363.68449     -2806.35949        48.000  

  21209709.10949 111457772.66849      2174.39549        49.000  

 16 04 02 13 26 18.8000000  0  3G17G18G24                                       
  22315369.67249 117268058.10549      2489.46949        49.000  

  24942295.00049 131072644.52749     -2810.01249        48.000  

  21209667.78949 111457555.50849      2168.98449        49.000  

 16 04 02 13 26 18.9000000  0  3G17G18G24                                       
  22315322.32849 117267809.34049      2485.91849        49.000  

  24942348.50049 131072925.72349     -2813.85949        48.000  

  21209626.58649 111457338.96949      2162.75849        49.000  

 16 04 02 13 26 19.0000000  0  3G17G18G24                                       
  22315275.04749 117267560.89549      2482.72749        49.000  

  24942402.07849 131073207.27349     -2817.21949        48.000  

  21209585.47749 111457122.98449      2157.12549        49.000  

 16 04 02 13 26 19.1000000  0  3G17G18G24                                       
  22315227.82849 117267312.72749      2479.94949        49.000  

  24942455.71149 131073489.12549     -2820.25449        48.000  

  21209544.47749 111456907.52049      2152.03149        49.000  

 16 04 02 13 26 19.2000000  0  3G17G18G24                                       
  22315180.68849 117267064.97749      2475.96549        49.000  

  24942509.43049 131073771.42649     -2824.70749        48.000  

  21209503.60249 111456692.70749      2145.53549        49.000  

 16 04 02 13 26 19.3000000  0  3G17G18G24                                       
  22315133.59449 117266817.51249      2472.84049        49.000  

  24942563.20349 131074054.03149     -2827.89549        48.000  

  21209462.82849 111456478.43449      2139.99249        49.000  

 16 04 02 13 26 19.4000000  0  3G17G18G24                                       
  22315086.57049 117266570.44549      2468.94549        49.000  

  24942617.05549 131074337.05549     -2831.93849        48.000  

  21209422.17249 111456264.80949      2133.53949        49.000  

 16 04 02 13 26 19.5000000  0  4G17G18G19G24                                    
  22315039.61749 117266323.69949      2465.63749        49.000  

  24942670.98449 131074620.43849     -2835.63349        48.000  

  22413180.46949 117782057.44559    -17222.19549        50.000  

  21209381.62549 111456051.72349      2128.00049        49.000  

 16 04 02 13 26 19.6000000  0  4G17G18G19G24                                    
  22314992.71949 117266077.27349      2462.53949        49.000  

  24942724.96949 131074904.15249     -2838.98049        48.000  

  22413508.21949 117783779.78949    -17224.80149        50.000  

  21209341.18849 111455839.22349      2122.28149        49.000  

 16 04 02 13 26 19.7000000  0  4G17G18G19G24                                    
  22314945.89149 117265831.18049      2459.21949        49.000  

  24942779.03949 131075188.23449     -2842.63349        48.000  

  22413836.02349 117785502.37949    -17227.45749        50.000  

  21209300.85949 111455627.28549      2116.62949        49.000  

 16 04 02 13 26 19.8000000  0  4G17G18G19G24                                    
  22314899.13349 117265585.43849      2455.85549        49.000  

  24942833.16449 131075472.68849     -2846.23049        48.000  

  22414163.88349 117787225.28549    -17230.28549        50.000  

  21209260.64149 111455415.95349      2110.69149        49.000  

 16 04 02 13 26 19.9000000  0  4G17G18G19G24                                    
  22314852.43049 117265340.02349      2452.42649        49.000  

  24942887.35949 131075757.50849     -2849.96949        48.000  

  22414491.77349 117788948.43449    -17232.90649        50.000  

  21209220.53949 111455205.18449      2104.95349        49.000  

 16 04 02 13 26 20.0000000  0  4G17G18G19G24                                    
  22314805.82049 117265095.05549      2447.76249        49.000  

  24942941.64849 131076042.78549     -2854.73049        48.000  

  22414819.75849 117790671.97749    -17237.04749        50.000  

  21209180.56249 111454995.10949      2097.86749        49.000  

 16 04 02 13 26 20.1000000  0  4G17G18G19G24                                    
  22314759.25049 117264850.34449      2445.50049        49.000  

  24942995.99249 131076328.35249     -2857.29749        48.000  

  22415147.78949 117792395.71149    -17238.63349        50.000  

  21209140.68049 111454785.52749      2093.19949        49.000  

 16 04 02 13 26 20.2000000  0  4G17G18G19G24                                    
  22314712.73449 117264605.88749      2442.98049        49.000  

  24943050.38349 131076614.19549     -2860.12949        48.000  

  22415475.84449 117794119.63749    -17240.50449        50.000  

  21209100.89849 111454576.44549      2088.24649        49.000  

 16 04 02 13 26 20.3000000  0  4G17G18G19G24                                    
  22314666.30549 117264361.91449      2438.14849        49.000  

  24943104.87549 131076900.54749     -2865.21949        48.000  

  22415803.97749 117795843.98449    -17244.77349        50.000  

  21209061.25049 111454368.10249      2080.84449        49.000  

 16 04 02 13 26 20.4000000  0  4G17G18G19G24                                    
  22314619.92249 117264118.21549      2435.01249        49.000  

  24943159.42249 131077187.20349     -2868.52749        48.000  

  22416132.14849 117797568.53549    -17247.16049        50.000  

  21209021.69549 111454160.25049      2075.54749        49.000  

 16 04 02 13 26 20.5000000  0  4G17G18G19G24                                    
  22314573.61749 117263874.88749      2431.57449        49.000  

  24943214.04749 131077474.24649     -2872.18849        48.000  

  22416460.39849 117799293.40249    -17249.95749        50.000  

  21208982.26649 111453953.04349      2069.44549        49.000  

 16 04 02 13 26 20.6000000  0  4G17G18G19G24                                    
  22314527.37549 117263631.85549      2428.61349        50.000  

  24943268.73449 131077761.62949     -2875.60949        48.000  

  22416788.67249 117801018.51649    -17252.45749        50.000  

  21208942.93849 111453746.36749      2064.00849        49.000  

 16 04 02 13 26 20.7000000  0  4G17G18G19G24                                    
  22314481.19549 117263389.19949      2424.85949        49.000  

  24943323.50049 131078049.39549     -2879.50049        48.000  

  22417117.00849 117802743.91849    -17255.43849        50.000  

  21208903.71949 111453540.29349      2057.97749        49.000  

 16 04 02 13 26 20.8000000  0  4G17G18G19G24                                    
  22314435.08649 117263146.87949      2421.41849        49.000  

  24943378.32849 131078337.53549     -2883.27049        48.000  

  22417445.39849 117804469.60949    -17258.34449        50.000  

  21208864.61749 111453334.81649      2052.02349        49.000  

 16 04 02 13 26 20.9000000  0  4G17G18G19G24                                    
  22314389.03949 117262904.92649      2417.95749        49.000  

  24943433.23449 131078626.05949     -2886.85949        48.000  

  22417773.85249 117806195.59849    -17261.16849        50.000  

  21208825.63349 111453129.94549      2046.09049        49.000  

 16 04 02 13 26 21.0000000  0  4G17G18G19G24                                    
  22314343.05549 117262663.27349      2414.64549        49.000  

  24943488.19549 131078914.91049     -2890.46549        48.000  

  22418102.34449 117807921.82849    -17263.94549        50.000  

  21208786.74249 111452925.61349      2040.47749        49.000  

 16 04 02 13 27  6.5000000  0  1G17                                             
  23623748.29749 124143634.25059       917.31649        50.000  

 16 04 02 13 27  6.6000000  0  1G17                                             
  23623730.89149 124143542.72349       913.73449        50.000  

 16 04 02 13 27  6.7000000  0  2G17G24                                          
  23623713.53149 124143451.48449       910.43449        50.000  

  22526271.12549 118376353.28559      -583.24649        50.000  

 16 04 02 13 27  6.8000000  0  2G17G24                                          
  23623696.24249 124143360.60249       907.16049        50.000  

  22526282.28149 118376411.89849      -588.94949        50.000  

 16 04 02 13 27  6.9000000  0  2G17G24                                          
  23623679.00849 124143270.00049       904.14849        50.000  

  22526293.53949 118376471.04749      -594.42249        50.000  

 16 04 02 13 27  7.0000000  0  3G17G24G18                                       
  23623661.83649 124143179.75449       900.71949        50.000  

  22526304.91449 118376530.79749      -600.43049        50.000  

  26299712.95349 138205923.46559     -4507.30549        48.000  

 16 04 02 13 27  7.1000000  0  3G17G24G18                                       
  23623644.71949 124143089.79749       897.78149        50.000  

  22526316.38349 118376591.07049      -605.67249        50.000  

  26299798.74249 138206374.31649     -4510.39849        48.000  

 16 04 02 13 27  7.2000000  0  3G17G24G18                                       
  23623627.66449 124143000.15649       894.77349        50.000  

  22526327.96149 118376651.91449      -611.12949        50.000  

  26299884.60249 138206825.50849     -4513.58649        48.000  

 16 04 02 13 27  7.3000000  0  3G17G24G18                                       
  23623610.66449 124142910.82449       891.45749        50.000  

  22526339.64849 118376713.32449      -617.05149        50.000  

  26299970.52349 138207277.03549     -4517.17649        48.000  

 16 04 02 13 27  7.4000000  0  3G17G24G18                                       
  23623593.71949 124142821.83649       887.97749        50.000  

  22526351.43849 118376775.30949      -622.92649        50.000  

  26300056.50849 138207728.91049     -4520.79349        48.000  

 16 04 02 13 27  7.5000000  0  3G17G24G18                                       
  23623576.85249 124142733.20749       884.52749        50.000  

  22526363.35249 118376837.90649      -628.88349        50.000  

  26300142.57049 138208181.16849     -4524.44149        48.000  

 16 04 02 13 27  7.6000000  0  3G17G24G18                                       
  23623560.03949 124142644.86749       881.64149        50.000  

  22526375.35949 118376901.03549      -634.24249        50.000  

  26300228.69549 138208633.73449     -4527.55549        48.000  

 16 04 02 13 27  7.7000000  0  3G17G24G18                                       
  23623543.29749 124142556.86349       878.19949        50.000  

  22526387.49249 118376964.74649      -640.03949        50.000  

  26300314.88349 138209086.65249     -4531.13749        48.000  

 16 04 02 13 27  7.8000000  0  3G17G24G18                                       
  23623526.60249 124142469.20749       874.63349        50.000  

  22526399.73449 118377029.05549      -646.12149        50.000  

  26300401.14149 138209539.94949     -4534.89149        48.000  

 16 04 02 13 27  7.9000000  0  3G17G24G18                                       
  23623509.98449 124142381.88349       871.37949        50.000  

  22526412.08649 118377093.93049      -651.80949        50.000  

  26300487.46149 138209993.59049     -4538.33249        48.000  

 16 04 02 13 27  8.0000000  0  3G17G24G18                                       
  23623493.41449 124142294.83249       868.73849        50.000  

  22526424.53949 118377159.34449      -657.09449        50.000  

  26300573.84449 138210447.52049     -4541.16449        48.000  

 16 04 02 13 27  8.1000000  0  3G17G24G18                                       
  23623476.92249 124142208.14549       865.04349        50.000  

  22526437.09449 118377225.35249      -663.03549        50.000  

  26300660.29749 138210901.84449     -4545.10949        48.000  

 16 04 02 13 27  8.2000000  0  3G17G24G18                                       
  23623460.47749 124142121.78549       861.81649        50.000  

  22526449.76649 118377291.93849      -668.80549        50.000  

  26300746.81249 138211356.48849     -4548.30149        48.000  

 16 04 02 13 27  8.3000000  0  3G17G24G18                                       
  23623444.09449 124142035.69149       859.33649        50.000  

  22526462.54749 118377359.03949      -673.82449        50.000  

  26300833.39149 138211811.44949     -4551.08649        49.000  

 16 04 02 13 27  8.4000000  0  3G17G24G18                                       
  23623427.78149 124141949.89149       856.19149        50.000  

  22526475.41449 118377426.68049      -679.27049        50.000  

  26300920.03149 138212266.71549     -4554.52349        48.000  

 16 04 02 13 27  8.5000000  0  3G17G24G18                                       
  23623411.51649 124141864.43449       852.75849        50.000  

  22526488.40649 118377494.90649      -685.19149        50.000  

  26301006.73449 138212722.32449     -4558.02749        48.000  

 16 04 02 13 27  8.6000000  0  3G17G24G18                                       
  23623395.31249 124141779.30949       849.54749        50.000  

  22526501.50049 118377563.70749      -690.88749        50.000  

  26301093.49249 138213178.30149     -4561.46149        48.000  

 16 04 02 13 27  8.7000000  0  3G17G24G18                                       
  23623379.17249 124141694.48849       846.25449        50.000  

  22526514.70349 118377633.06649      -696.62549        50.000  

  26301180.32049 138213634.59849     -4564.99249        48.000  

 16 04 02 13 27  8.8000000  0  3G17G24G18                                       
  23623363.10249 124141610.06649       842.34449        50.000  

  22526528.02349 118377703.06649      -702.94949        50.000  

  26301267.21949 138214091.31649     -4569.07849        48.000  

 16 04 02 13 27  8.9000000  0  3G17G24G18                                       
  23623347.09449 124141525.95349       839.32449        50.000  

  22526541.46149 118377773.62549      -708.52749        50.000  

  26301354.18849 138214548.35249     -4572.27049        48.000  

 16 04 02 13 27  9.0000000  0  3G17G24G18                                       
  23623331.14149 124141442.09849       837.05949        50.000  

  22526554.98449 118377844.68449      -713.20749        50.000  

  26301441.21149 138215005.67649     -4574.73849        48.000  

 16 04 02 13 27  9.1000000  0  3G17G24G18                                       
  23623315.25049 124141358.60549       833.21949        50.000  

  22526568.61749 118377916.36349      -719.55549        50.000  

  26301528.31249 138215463.38349     -4578.83649        48.000  

 16 04 02 13 27  9.2000000  0  3G17G24G18                                       
  23623299.42249 124141275.40649       830.06249        50.000  

  22526582.35949 118377988.56649      -725.18049        50.000  

  26301615.47749 138215921.38749     -4582.13349        48.000  

 16 04 02 13 27  9.3000000  0  3G17G24G18                                       
  23623283.66449 124141192.60249       826.28549        50.000  

  22526596.21949 118378061.41849      -731.50449        50.000  

  26301702.71149 138216379.80949     -4586.12149        48.000  

 16 04 02 13 27  9.4000000  0  3G17G24G18                                       
  23623267.96949 124141110.10549       823.30949        50.000  

  22526610.18849 118378134.82049      -736.81649        50.000  

  26301790.00849 138216838.55949     -4589.18849        48.000  

 16 04 02 13 27  9.5000000  0  3G17G24G18                                       
  23623252.31249 124141027.86749       820.37949        50.000  

  22526624.25049 118378208.73049      -742.17249        50.000  

  26301877.35949 138217297.59849     -4592.38349        48.000  

 16 04 02 13 27  9.6000000  0  3G17G24G18                                       
  23623236.75049 124140946.03149       816.64149        50.000  

  22526638.43849 118378283.28949      -748.45349        50.000  

  26301964.78949 138217757.05149     -4596.34449        48.000  

 16 04 02 13 27  9.7000000  0  3G17G24G18                                       
  23623221.22749 124140864.48049       813.59449        50.000  

  22526652.72749 118378358.37149      -753.93449        50.000  

  26302052.27349 138218216.79749     -4599.53549        48.000  

 16 04 02 13 27  9.8000000  0  3G17G24G18                                       
  23623205.75849 124140783.21949       811.02049        50.000  

  22526667.11749 118378433.99649      -758.99649        50.000  

  26302139.82849 138218676.85949     -4602.21549        48.000  

 16 04 02 13 27  9.9000000  0  3G17G24G18                                       
  23623190.35949 124140702.28549       807.57849        50.000  

  22526681.61749 118378510.19149      -764.76649        50.000  

  26302227.44549 138219137.26649     -4605.94949        48.000  

 16 04 02 13 27 10.0000000  0  3G17G24G18                                       
  23623175.01649 124140621.66849       804.50049        50.000  

  22526696.22749 118378586.94949      -770.34849        50.000  

  26302315.12549 138219598.01249     -4609.16049        49.000  

 16 04 02 13 27 10.1000000  0  3G17G24G18                                       
  23623159.74249 124140541.40249       800.84449        50.000  

  22526710.94549 118378664.31249      -776.54749        50.000  

  26302402.86749 138220059.12549     -4613.03949        49.000  

 16 04 02 13 27 10.2000000  0  3G17G24G18                                       
  23623144.51649 124140461.41449       798.14549        50.000  

  22526725.76649 118378742.19949      -781.88349        50.000  

  26302490.68049 138220520.53949     -4616.03149        49.000  

 16 04 02 13 27 10.3000000  0  3G17G24G18                                       
  23623129.36749 124140381.77749       794.68049        50.000  

  22526740.70349 118378820.67649      -787.73449        50.000  

  26302578.55549 138220982.32049     -4619.58649        49.000  

 16 04 02 13 27 10.4000000  0  3G17G24G18                                       
  23623114.27349 124140302.46149       791.41849        50.000  

  22526755.74249 118378899.71549      -793.28949        50.000  

  26302666.49249 138221444.43449     -4622.99249        48.000  

 16 04 02 13 27 10.5000000  0  3G17G24G18                                       
  23623099.23449 124140223.41049       788.69949        50.000  

  22526770.88349 118378979.27749      -798.54749        50.000  

  26302754.48449 138221906.84849     -4626.00449        48.000  

 16 04 02 13 27 10.6000000  0  3G17G24G18                                       
  23623084.25049 124140144.69149       785.55549        50.000  

  22526786.13349 118379059.41849      -804.19949        50.000  

  26302842.55549 138222369.60249     -4629.23849        49.000  

 16 04 02 13 27 10.7000000  0  3G17G24G18                                       
  23623069.33649 124140066.32049       781.96949        50.000  

  22526801.49249 118379140.14149      -810.17649        50.000  

  26302930.68849 138222832.72749     -4633.01249        48.000  

 16 04 02 13 27 10.8000000  0  3G17G24G18                                       
  23623054.47749 124139988.23449       778.90649        50.000  

  22526816.96149 118379221.41049      -815.61749        50.000  

  26303018.86749 138223296.14549     -4636.18449        48.000  

 16 04 02 13 27 10.9000000  0  3G17G24G18                                       
  23623039.70349 124139910.57849       774.82049        50.000  

  22526832.55549 118379303.34049      -822.25849        50.000  

  26303107.14149 138223760.02349     -4640.60249        48.000  

 16 04 02 13 27 11.0000000  0  3G17G24G18                                       
  23623025.00049 124139833.23049       771.64849        50.000  

  22526848.25049 118379385.83649      -827.84449        50.000  

  26303195.49249 138224224.21949     -4643.81649        48.000  

 16 04 02 13 27 11.1000000  0  3G17G24G18                                       
  23623010.32849 124139756.13749       769.26249        50.000  

  22526864.04749 118379468.82849      -832.77349        50.000  

  26303283.87549 138224688.68849     -4646.43849        49.000  

 16 04 02 13 27 11.2000000  0  3G17G24G18                                       
  23622995.74249 124139679.40649       765.52349        50.000  

  22526879.96149 118379552.43449      -838.97749        50.000  

  26303372.35249 138225153.55549     -4650.45349        49.000  

 16 04 02 13 27 11.3000000  0  3G17G24G18                                       
  23622981.20349 124139603.01249       762.08249        50.000  

  22526895.97749 118379636.60249      -844.77049        50.000  

  26303460.87549 138225618.75049     -4653.93049        48.000  

 16 04 02 13 27 11.4000000  0  3G17G24G18                                       
  23622966.72749 124139526.91449       759.14849        50.000  

  22526912.10249 118379721.34049      -850.25449        50.000  

  26303549.45349 138226084.28149     -4657.08649        49.000  

 16 04 02 13 27 11.5000000  0  3G17G24G18                                       
  23622952.29749 124139451.10549       756.56649        50.000  

  22526928.31249 118379806.59849      -855.31649        50.000  

  26303638.10249 138226550.11749     -4660.10249        49.000  

 16 04 02 13 27 11.6000000  0  3G17G24G18                                       
  23622937.94549 124139375.64149       752.86749        50.000  

  22526944.64849 118379892.44949      -861.39549        50.000  

  26303726.81249 138227016.30949     -4663.74649        49.000  

 16 04 02 13 27 11.7000000  0  3G17G24G18                                       
  23622923.64849 124139300.51649       749.62949        50.000  

  22526961.10249 118379978.89549      -867.16449        50.000  

  26303815.59449 138227482.86349     -4667.24649        49.000  

 16 04 02 13 27 11.8000000  0  3G17G24G18                                       
  23622909.43049 124139225.73449       746.01649        50.000  

  22526977.66449 118380065.91449      -873.21949        50.000  

  26303904.46949 138227949.77749     -4671.06249        48.000  

 16 04 02 13 27 11.9000000  0  3G17G24G18                                       
  23622895.24249 124139151.18849       743.82049        50.000  

  22526994.33649 118380153.43049      -877.94549        50.000  

  26303993.36749 138228416.95749     -4673.43049        48.000  

 16 04 02 13 27 12.0000000  0  3G17G24G18                                       
  23622881.12549 124139076.96549       740.64549        50.000  

  22527011.09449 118380241.50449      -883.46549        50.000  

  26304082.32849 138228884.44549     -4676.60549        48.000  

 16 04 02 13 27 12.1000000  0  3G17G24G18                                       
