     2.10           OBSERVATION DATA    G (GPS)             RINEX VERSION / TYPE
Convert v1.8.0                          07-Jun-2016 18:54   PGM / RUN BY / DATE 
Signal Strength values S1,S2 are in dBHz                    COMMENT             
                                                            MARKER NAME         
                                                            MARKER NUMBER       
                                                            OBSERVER / AGENCY   
                    NovAtel GPSCard                         REC # / TYPE / VERS 
                                                            ANT # / TYPE        
0.0000        0.0000        0.0000                          APPROX POSITION XYZ 
        0.0000        0.0000        0.0000                  ANTENNA: DELTA H/E/N
     1     1                                                WAVELENGTH FACT L1/2
     1     1     7   G01   G08   G10   G11   G14   G18   G21WAVELENGTH FACT L1/2
     1     1     3   G22   G27   G32                        WAVELENGTH FACT L1/2
                                                            COMMENT             
                                                            COMMENT             
                                                            COMMENT             
                                                            COMMENT             
                                                            COMMENT             
     8    C1    L1    D1    S1    P2    L2    D2    S2      # / TYPES OF OBSERV 
     0.100                                                  INTERVAL            
  2016    04    02    12    16     7.7000000    GPS         TIME OF FIRST OBS   
  2016    04    02    12    20    27.8000000    GPS         TIME OF LAST OBS    
Leap Seconds Unknown                                        COMMENT             
                                                            END OF HEADER       
 16 04 02 12 16  7.7000000  0  1G27                                             
  17965083.72749  94407151.52049      1803.05949        49.000  

 16 04 02 12 16  7.8000000  0  1G27                                             
  17965049.47749  94406971.51249      1797.43449        49.000  

 16 04 02 12 16  7.9000000  0  1G27                                             
  17965015.28949  94406791.90649      1793.20349        49.000  

 16 04 02 12 16  8.0000000  0  1G27                                             
  17964981.21149  94406612.81649      1788.36349        49.000  

 16 04 02 12 16  8.1000000  0  1G27                                             
  17964947.22749  94406434.24249      1782.86749        49.000  

 16 04 02 12 16  8.2000000  0  1G27                                             
  17964913.32849  94406256.11749      1778.69149        49.000  

 16 04 02 12 16  8.3000000  0  1G27                                             
  17964879.51649  94406078.41449      1774.37149        49.000  

 16 04 02 12 16  8.4000000  0  1G27                                             
  17964845.79749  94405901.22349      1769.30949        49.000  

 16 04 02 12 16  8.5000000  0  1G27                                             
  17964812.15649  94405724.52749      1764.09049        49.000  

 16 04 02 12 16  8.6000000  0  1G27                                             
  17964778.61749  94405548.28949      1759.73849        49.000  

 16 04 02 12 16  8.7000000  0  1G27                                             
  17964745.16449  94405372.53549      1754.80949        49.000  

 16 04 02 12 16  8.8000000  0  1G27                                             
  17964711.81249  94405197.27349      1750.14149        49.000  

 16 04 02 12 16  8.9000000  0  1G27                                             
  17964678.56249  94405022.46149      1745.30149        49.000  

 16 04 02 12 16  9.0000000  0  1G27                                             
  17964645.39149  94404848.11749      1740.61349        49.000  

 16 04 02 12 16  9.1000000  0  1G27                                             
  17964612.33649  94404674.28949      1735.39849        49.000  

 16 04 02 12 16  9.2000000  0  1G27                                             
  17964579.35249  94404500.98049      1730.55149        49.000  

 16 04 02 12 16  9.3000000  0  1G27                                             
  17964546.45349  94404328.16449      1725.49649        49.000  

 16 04 02 12 16  9.4000000  0  1G27                                             
  17964513.64849  94404155.75849      1721.25449        49.000  

 16 04 02 12 16  9.5000000  0  1G27                                             
  17964480.95349  94403983.84449      1716.71949        49.000  

 16 04 02 12 16  9.6000000  0  1G27                                             
  17964448.32849  94403812.39149      1711.92649        49.000  

 16 04 02 12 16  9.7000000  0  1G27                                             
  17964415.82849  94403641.42249      1706.81249        49.000  

 16 04 02 12 16  9.8000000  0  1G27                                             
  17964383.39849  94403471.02349      1701.23049        49.000  

 16 04 02 12 16  9.9000000  0  1G27                                             
  17964351.05549  94403301.06649      1696.72349        49.000  

 16 04 02 12 16 10.0000000  0  1G27                                             
  17964318.79749  94403131.56649      1692.36749        49.000  

 16 04 02 12 16 10.1000000  0  1G27                                             
  17964286.63349  94402962.55149      1687.50049        49.000  

 16 04 02 12 16 10.2000000  0  1G27                                             
  17964254.57849  94402794.07849      1681.87949        49.000  

 16 04 02 12 16 10.3000000  0  1G27                                             
  17964222.59449  94402626.04749      1677.50049        49.000  

 16 04 02 12 16 10.4000000  0  1G27                                             
  17964190.72749  94402458.57049      1672.32049        49.000  

 16 04 02 12 16 10.5000000  0  1G27                                             
  17964158.92249  94402291.48049      1668.27049        49.000  

 16 04 02 12 16 10.6000000  0  1G27                                             
  17964127.21949  94402124.87549      1663.72749        49.000  

 16 04 02 12 16 10.7000000  0  1G27                                             
  17964095.60949  94401958.76649      1658.18849        49.000  

 16 04 02 12 16 10.8000000  0  1G27                                             
  17964064.09449  94401793.17249      1653.34049        49.000  

 16 04 02 12 16 10.9000000  0  1G27                                             
  17964032.66449  94401627.99649      1649.16049        49.000  

 16 04 02 12 16 11.0000000  0  1G27                                             
  17964001.32049  94401463.31249      1644.20749        49.000  

 16 04 02 12 16 11.1000000  0  1G27                                             
  17963970.07049  94401299.09849      1639.59449        49.000  

 16 04 02 12 16 11.2000000  0  1G27                                             
  17963938.91449  94401135.35949      1634.58249        49.000  

 16 04 02 12 16 11.3000000  0  1G27                                             
  17963907.83649  94400972.12549      1629.66849        49.000  

 16 04 02 12 16 11.4000000  0  1G27                                             
  17963876.85249  94400809.32849      1625.25049        49.000  

 16 04 02 12 16 11.5000000  0  1G27                                             
  17963845.96149  94400647.01249      1620.48849        49.000  

 16 04 02 12 16 11.6000000  0  1G27                                             
  17963815.17249  94400485.20749      1615.50049        49.000  

 16 04 02 12 16 11.7000000  0  1G27                                             
  17963784.46949  94400323.80949      1611.37949        49.000  

 16 04 02 12 16 11.8000000  0  1G27                                             
  17963753.84449  94400162.87149      1606.73049        49.000  

 16 04 02 12 16 11.9000000  0  1G27                                             
  17963723.31249  94400002.49249      1601.11349        49.000  

 16 04 02 12 16 12.0000000  0  1G27                                             
  17963692.88349  94399842.57449      1596.27049        49.000  

 16 04 02 12 16 12.1000000  0  1G27                                             
  17963662.56249  94399683.15249      1591.49649        49.000  

 16 04 02 12 16 12.2000000  0  1G27                                             
  17963632.31249  94399524.21149      1586.59049        49.000  

 16 04 02 12 16 12.3000000  0  1G27                                             
  17963602.17249  94399365.76249      1581.76649        49.000  

 16 04 02 12 16 12.4000000  0  1G27                                             
  17963572.11749  94399207.82849      1576.80149        49.000  

 16 04 02 12 16 12.5000000  0  1G27                                             
  17963542.15649  94399050.28149      1572.77049        49.000  

 16 04 02 12 16 12.6000000  0  1G27                                             
  17963512.28149  94398893.30949      1567.02049        49.000  

 16 04 02 12 16 12.7000000  0  1G27                                             
  17963482.50849  94398736.79749      1562.45349        49.000  

 16 04 02 12 16 12.8000000  0  1G27                                             
  17963452.81249  94398580.73449      1557.87949        49.000  

 16 04 02 12 16 12.9000000  0  1G27                                             
  17963423.19549  94398425.16449      1553.36349        49.000  

 16 04 02 12 16 13.0000000  0  1G27                                             
  17963393.68049  94398270.05149      1548.52749        49.000    17963396.90641
  73557106.64151      1206.64541        20.000  
 16 04 02 12 16 13.1000000  0  1G27                                             
  17963364.28949  94398115.46549      1543.06249        49.000    17963367.48441
  73556986.15641      1202.38741        20.000  
 16 04 02 12 16 13.2000000  0  1G27                                             
  17963334.96949  94397961.38749      1538.17249        49.000    17963338.78941
  73556866.07041      1198.57441        20.000  
 16 04 02 12 16 13.3000000  0  1G27                                             
  17963305.73449  94397807.73449      1533.60249        49.000    17963309.54741
  73556746.31241      1195.01241        20.000  
 16 04 02 12 16 13.4000000  0  1G27                                             
  17963276.58649  94397654.55149      1529.21949        49.000    17963278.96941
  73556626.95741      1191.59841        20.000  
 16 04 02 12 16 13.5000000  0  1G27                                             
  17963247.50849  94397501.82449      1524.56649        49.000    17963249.91441
  73556507.96941      1187.97741        20.000  
 16 04 02 12 16 13.6000000  0  1G27                                             
  17963218.54749  94397349.64549      1519.04749        49.000    17963224.85941
  73556389.40241      1183.67641        20.000  
 16 04 02 12 16 13.7000000  0  1G27                                             
  17963189.70349  94397197.93449      1514.39549        49.000    17963195.99241
  73556271.20341      1180.04741        20.000  
 16 04 02 12 16 13.8000000  0  1G27                                             
  17963160.93049  94397046.69549      1509.85549        49.000    17963165.60241
  73556153.37541      1176.51241        20.000  
 16 04 02 12 16 13.9000000  0  1G27                                             
  17963132.22749  94396895.89849      1505.18449        49.000  

 16 04 02 12 16 14.0000000  0  1G27                                             
  17963103.62549  94396745.59449      1500.65649        49.000  

 16 04 02 12 16 14.1000000  0  1G27                                             
  17963075.10249  94396595.73849      1495.84849        49.000  

 16 04 02 12 16 14.2000000  0  1G27                                             
  17963046.68049  94396446.38749      1490.84449        49.000  

 16 04 02 12 16 14.3000000  0  1G27                                             
  17963018.36749  94396297.51649      1485.87149        49.000  

 16 04 02 12 16 14.4000000  0  1G27                                             
  17962990.13349  94396149.13349      1481.29749        49.000  

 16 04 02 12 16 14.5000000  0  1G27                                             
  17962961.99249  94396001.21949      1476.21549        49.000  

 16 04 02 12 16 14.6000000  0  1G27                                             
  17962933.94549  94395853.82049      1470.96949        49.000  

 16 04 02 12 16 14.7000000  0  1G27                                             
  17962906.00049  94395706.96149      1466.03949        49.000  

 16 04 02 12 16 14.8000000  0  1G27                                             
  17962878.14849  94395560.57449      1461.10949        49.000  

 16 04 02 12 16 14.9000000  0  1G27                                             
  17962850.38349  94395414.60549      1456.99649        49.000  

 16 04 02 12 16 15.0000000  0  1G27                                             
  17962822.70349  94395269.16449      1451.72749        49.000    17962822.87541
  73554755.47751      1131.21541        20.000  
 16 04 02 12 16 15.1000000  0  1G27                                             
  17962795.14149  94395124.25849      1446.21549        49.000    17962795.30541
  73554642.57041      1126.92241        20.000  
 16 04 02 12 16 15.2000000  0  1G27                                             
  17962767.64149  94394979.74249      1442.43449        49.000    17962771.71141
  73554529.96941      1123.97741        20.000  
 16 04 02 12 16 15.3000000  0  1G27                                             
  17962740.25849  94394835.75449      1437.23849        49.000    17962744.31241
  73554417.78141      1119.92641        22.000  
 16 04 02 12 16 15.4000000  0  1G27                                             
  17962712.94549  94394692.23449      1432.66449        49.000    17962716.14141
  73554305.93041      1116.36341        23.000  
 16 04 02 12 16 15.5000000  0  1G27                                             
  17962685.72749  94394549.16449      1428.16849        49.000    17962688.91441
  73554194.43041      1112.85941        20.000  
 16 04 02 12 16 15.6000000  0  1G27                                             
  17962658.60249  94394406.60249      1422.89849        49.000    17962663.61741
  73554083.32441      1108.75041        20.000  
 16 04 02 12 16 15.7000000  0  1G27                                             
  17962631.55549  94394264.52049      1418.25849        49.000    17962636.57041
  73553972.59041      1105.13741        20.000  
 16 04 02 12 16 15.8000000  0  1G27                                             
  17962604.60949  94394122.90649      1413.45749        49.000    17962612.93841
  73553862.22341      1101.39541        20.000  
 16 04 02 12 16 15.9000000  0  1G27                                             
  17962577.74249  94393981.75049      1408.87949        49.000  

 16 04 02 12 16 16.0000000  0  1G27                                             
  17962550.97749  94393841.10249      1404.03149        49.000  

 16 04 02 12 16 16.1000000  0  1G27                                             
  17962524.29749  94393700.89549      1399.24249        49.000  

 16 04 02 12 16 16.2000000  0  1G27                                             
  17962497.70349  94393561.15649      1394.80949        49.000  

 16 04 02 12 16 16.3000000  0  1G27                                             
  17962471.21949  94393421.96949      1389.12949        49.000  

 16 04 02 12 16 16.4000000  0  1G27                                             
  17962444.82049  94393283.25049      1384.67649        49.000  

 16 04 02 12 16 16.5000000  0  1G27                                             
  17962418.47749  94393144.87149      1381.24249        49.000  

 16 04 02 12 16 16.6000000  0  1G27                                             
  17962392.26649  94393007.10249      1374.83249        49.000  

 16 04 02 12 16 16.7000000  0  1G27                                             
  17962366.14149  94392869.76649      1370.52049        49.000  

 16 04 02 12 16 16.8000000  0  1G27                                             
  17962340.10249  94392732.91449      1365.70349        49.000  

 16 04 02 12 16 16.9000000  0  1G27                                             
  17962314.16449  94392596.60549      1360.50449        49.000  

 16 04 02 12 16 17.0000000  0  1G27                                             
  17962288.31249  94392460.74649      1355.55949        49.000  

 16 04 02 12 16 17.1000000  0  1G27                                             
  17962262.54749  94392325.36349      1351.03949        49.000  

 16 04 02 12 16 17.2000000  0  1G27                                             
  17962236.88349  94392190.50049      1346.00849        49.000  

 16 04 02 12 16 17.3000000  0  1G27                                             
  17962211.31249  94392056.09049      1341.48049        49.000  

 16 04 02 12 16 17.4000000  0  1G27                                             
  17962185.83649  94391922.18849      1336.40649        49.000  

 16 04 02 12 16 17.5000000  0  1G27                                             
  17962160.43049  94391788.69149      1332.15249        49.000  

 16 04 02 12 16 17.6000000  0  1G27                                             
  17962135.10949  94391655.66849      1327.72349        49.000  

 16 04 02 12 16 17.7000000  0  1G27                                             
  17962109.87549  94391523.09849      1323.10549        49.000  

 16 04 02 12 16 17.8000000  0  1G27                                             
  17962084.74249  94391391.00449      1318.46549        49.000  

 16 04 02 12 16 17.9000000  0  1G27                                             
  17962059.68049  94391259.37149      1313.56249        49.000  

 16 04 02 12 16 18.0000000  0  1G27                                             
  17962034.72749  94391128.23849      1308.71949        49.000  

 16 04 02 12 16 18.1000000  0  1G27                                             
  17962009.86749  94390997.55549      1304.19949        49.000  

 16 04 02 12 16 18.2000000  0  1G27                                             
  17961985.09449  94390867.41449      1298.51249        49.000  

 16 04 02 12 16 18.3000000  0  1G27                                             
  17961960.41449  94390737.75849      1293.54349        49.000  

 16 04 02 12 16 18.4000000  0  1G27                                             
  17961935.84449  94390608.62149      1288.69149        49.000  

 16 04 02 12 16 18.5000000  0  1G27                                             
  17961911.35249  94390479.91449      1284.53149        49.000  

 16 04 02 12 16 18.6000000  0  1G27                                             
  17961886.94549  94390351.68849      1279.44149        49.000  

 16 04 02 12 16 18.7000000  0  1G27                                             
  17961862.64149  94390223.96149      1274.65249        49.000  

 16 04 02 12 16 18.8000000  0  1G27                                             
  17961838.42249  94390096.69149      1270.16449        49.000  

 16 04 02 12 16 18.9000000  0  1G27                                             
  17961814.28949  94389969.86349      1265.77049        49.000  

 16 04 02 12 16 19.0000000  0  1G27                                             
  17961790.24249  94389843.48049      1261.12149        49.000  

 16 04 02 12 16 19.1000000  0  1G27                                             
  17961766.29749  94389717.60949      1255.97749        49.000  

 16 04 02 12 16 19.2000000  0  1G27                                             
  17961742.45349  94389592.29749      1250.57049        49.000  

 16 04 02 12 16 19.3000000  0  1G27                                             
  17961718.65649  94389467.34449      1246.59449        49.000  

 16 04 02 12 16 19.4000000  0  1G27                                             
  17961695.00049  94389342.99249      1240.84449        49.000  

 16 04 02 12 16 19.5000000  0  1G27                                             
  17961671.39849  94389219.04749      1236.73849        49.000  

 16 04 02 12 16 19.6000000  0  2G27G14                                          
  17961647.90649  94389095.58249      1232.09049        49.000  

  19318008.35949 101516818.42659     11206.73049        50.000  

 16 04 02 12 16 19.7000000  0  4G08G22G27G14                                    
  19090699.74249 100322304.17259    -15937.32849        49.000  

  20196506.70349 106133358.65259     11553.67249        50.000  

  17961624.50049  94388972.58649      1227.27749        49.000  

  19317795.15649 101515698.05149     11200.71949        50.000  

 16 04 02 12 16 19.8000000  0  4G08G22G27G14                                    
  19091003.07849 100323898.19149    -15942.16049        49.000  

  20196286.90649 106132203.60249     11547.98449        50.000  

  17961601.20349  94388850.16849      1221.44949        49.000  

  19317582.11749 101514578.37949     11193.61349        50.000  

 16 04 02 12 16 19.9000000  0  4G08G22G27G14                                    
  19091306.43849 100325492.52749    -15945.47349        49.000  

  20196067.18849 106131048.94949     11543.83649        50.000  

  17961577.98449  94388728.16849      1217.14149        49.000  

  19317369.15649 101513459.27049     11187.89149        49.000  

 16 04 02 12 16 20.0000000  0  4G08G22G27G14                                    
  19091609.91449 100327087.27749    -15949.50849        49.000  

  20195847.56249 106129894.81249     11538.77749        50.000  

  17961554.86749  94388606.68449      1212.01649        49.000  

  19317156.32049 101512340.80949     11181.51649        49.000  

 16 04 02 12 16 20.1000000  0  4G08G22G27G14                                    
  19091913.45349 100328682.33649    -15952.20349        49.000  

  20195627.99249 106128741.09849     11534.84849        50.000  

  17961531.81249  94388485.62949      1208.05949        49.000  

  19316943.58649 101511222.90249     11176.11749        49.000  

 16 04 02 12 16 20.2000000  0  4G08G22G27G14                                    
  19092217.06249 100330277.80149    -15956.46549        49.000  

  20195408.53949 106127587.86749     11529.74249        50.000  

  17961508.87549  94388365.06649      1202.80949        49.000  

  19316730.96149 101510105.63349     11169.55149        49.000  

 16 04 02 12 16 20.3000000  0  4G08G22G27G14                                    
  19092520.73449 100331873.69149    -15960.72349        49.000  

  20195189.19549 106126435.14149     11524.85549        50.000  

  17961486.03149  94388245.03949      1197.77349        49.000  

  19316518.47749 101508989.00849     11163.20749        49.000  

 16 04 02 12 16 20.4000000  0  4G08G22G27G14                                    
  19092824.48449 100333469.91049    -15964.24649        49.000  

  20194969.92249 106125282.86349     11520.09049        50.000  

  17961463.28149  94388125.45349      1193.10249        49.000  

  19316306.09449 101507872.98049     11157.09449        49.000  

 16 04 02 12 16 20.5000000  0  4G08G22G27G14                                    
  19093128.32049 100335066.50449    -15967.73449        49.000  

  20194750.72749 106124131.03949     11515.76649        50.000  

  17961440.60249  94388006.34849      1188.43449        49.000  

  19316093.82849 101506757.54749     11151.29749        49.000  

 16 04 02 12 16 20.6000000  0  4G08G22G27G14                                    
  19093432.21949 100336663.48849    -15971.69149        49.000  

  20194531.64149 106122979.72349     11510.73849        50.000  

  17961418.03149  94387887.74249      1183.35949        49.000  

  19315881.68849 101505642.75449     11144.84049        49.000  

 16 04 02 12 16 20.7000000  0  4G08G22G27G14                                    
  19093736.18049 100338260.89849    -15976.03549        49.000  

  20194312.66449 106121828.90249     11505.68049        50.000  

  17961395.56249  94387769.66049      1178.11749        49.000  

  19315669.67249 101504528.61349     11138.22749        49.000  

 16 04 02 12 16 20.8000000  0  4G08G22G27G14                                    
  19094040.22749 100339858.66849    -15979.70749        49.000  

  20194093.75849 106120678.55949     11500.94149        50.000  

  17961373.18049  94387652.03949      1173.45749        49.000  

  19315457.77349 101503415.07449     11132.14549        49.000  

 16 04 02 12 16 20.9000000  0  4G08G22G27G14                                    
  19094344.34449 100341456.75849    -15982.63349        49.000  

  20193874.93849 106119528.61349     11496.96949        50.000  

  17961350.89849  94387534.85249      1169.26649        49.000  

  19315245.97749 101502302.10249     11126.66449        49.000  

 16 04 02 12 16 21.0000000  0  4G08G22G27G14                                    
  19094648.52349 100343055.25449    -15986.68049        49.000  

  20193656.20349 106118379.17649     11491.98449        50.000  

  17961328.69549  94387418.17649      1164.18849        49.000  

  19315034.30549 101501189.76249     11120.35249        49.000  

 16 04 02 12 16 21.1000000  0  4G08G22G27G14                                    
  19094952.78949 100344654.11749    -15990.45749        49.000  

  20193437.57049 106117230.19949     11487.38349        50.000  

  17961306.58649  94387301.96549      1159.55549        49.000  

  19314822.75049 101500078.03149     11114.27049        49.000  

 16 04 02 12 16 21.2000000  0  4G08G22G27G14                                    
  19095257.10249 100346253.28949    -15993.62549        49.000  

  20193219.00849 106116081.63749     11483.14149        50.000  

  17961284.54749  94387186.18449      1155.15249        49.000  

  19314611.28149 101498966.85549     11108.67249        49.000  

 16 04 02 12 16 21.3000000  0  4G08G22G27G14                                    
  19095561.47749 100347852.84049    -15997.15249        49.000  

  20193000.53949 106114933.53149     11478.78949        50.000  

  17961262.60949  94387070.86749      1150.77049        49.000  

  19314399.94549 101497856.27749     11102.98049        49.000  

 16 04 02 12 16 21.4000000  0  4G08G22G27G14                                    
  19095865.92249 100349452.71549    -16000.55949        49.000  

  20192782.14149 106113785.85949     11474.21549        50.000  

  17961240.75849  94386956.00049      1146.01649        49.000  

  19314188.72749 101496746.28949     11096.84049        49.000  

 16 04 02 12 16 21.5000000  0  4G08G22G27G14                                    
  19096170.46149 100351053.00049    -16004.63349        49.000  

  20192563.83649 106112638.68849     11469.40649        50.000  

  17961219.00049  94386841.64149      1141.10249        49.000  

  19313977.62549 101495636.92249     11090.69149        49.000  

 16 04 02 12 16 21.6000000  0  4G08G22G27G14                                    
  19096475.03949 100352653.59849    -16007.81649        49.000  

  20192345.61749 106111491.92249     11465.21949        50.000  

  17961197.31249  94386727.69149      1136.83649        49.000  

  19313766.60249 101494528.12149     11084.95749        49.000  

 16 04 02 12 16 21.7000000  0  4G08G22G27G14                                    
  19096779.71149 100354254.61349    -16011.90649        49.000  

  20192127.49249 106110345.68049     11460.03149        50.000  

  17961175.73449  94386614.28549      1131.52349        49.000  

  19313555.72749 101493419.98449     11078.37949        49.000  

 16 04 02 12 16 21.8000000  0  4G08G22G27G14                                    
  19097084.45349 100355856.04749    -16016.41449        49.000  

  20191909.46949 106109199.94149     11454.62549        50.000  

  17961154.25049  94386501.38349      1126.13749        49.000  

  19313344.97749 101492312.48449     11071.64149        49.000  

 16 04 02 12 16 21.9000000  0  4G08G22G27G14                                    
  19097389.27349 100357457.82849    -16019.71949        49.000  

  20191691.50049 106108054.65649     11450.32449        50.000  

  17961132.85249  94386388.95349      1121.52749        49.000  

  19313134.34449 101491205.59049     11065.82449        49.000  

 16 04 02 12 16 22.0000000  0  4G08G22G27G14                                    
  19097694.15649 100359060.00049    -16023.48449        49.000  

  20191473.64849 106106909.84849     11445.65249        50.000  

  17961111.54749  94386277.00449      1116.95749        49.000  

  19312923.83649 101490099.31649     11059.66449        49.000  

 16 04 02 12 16 22.1000000  0  4G08G22G27G14                                    
  19097999.10249 100360662.52349    -16027.24249        49.000  

  20191255.91449 106105765.49249     11440.91449        50.000  

  17961090.31249  94386165.52049      1112.12149        49.000  

  19312713.43049 101488993.63349     11053.55549        49.000  

 16 04 02 12 16 22.2000000  0  4G08G22G27G14                                    
  19098304.12549 100362265.44549    -16031.15249        49.000  

  20191038.24249 106104621.63349     11435.96149        50.000  

  17961069.19549  94386054.53949      1106.91849        49.000  

  19312503.15649 101487888.58249     11047.29749        49.000  

 16 04 02 12 16 22.3000000  0  4G08G22G27G14                                    
  19098609.22749 100363868.78149    -16035.22749        49.000  

  20190820.68049 106103478.27749     11431.11349        50.000  

  17961048.18049  94385944.08249      1101.97749        49.000  

  19312292.99249 101486784.19149     11040.84449        49.000  

 16 04 02 12 16 22.4000000  0  4G08G22G27G14                                    
  19098914.40649 100365472.49249    -16039.17649        49.000  

  20190603.20349 106102335.40249     11426.04749        50.000  

  17961027.25049  94385834.10549      1096.87549        49.000  

  19312082.93849 101485680.42249     11034.48449        49.000  

 16 04 02 12 16 22.5000000  0  4G08G22G27G14                                    
  19099219.64849 100367076.56649    -16042.58649        49.000  

  20190385.81249 106101192.98049     11421.67249        50.000  

  17961006.40649  94385724.59049      1092.37949        49.000  

  19311873.00849 101484577.24249     11028.63349        49.000  

 16 04 02 12 16 22.6000000  0  4G08G22G27G14                                    
  19099524.96149 100368681.00449    -16046.10249        49.000  

  20190168.50849 106100051.02049     11417.25049        50.000  

  17960985.65649  94385615.55149      1087.89549        49.000  

  19311663.19549 101483474.67249     11022.80949        49.000  

 16 04 02 12 16 22.7000000  0  4G08G22G27G14                                    
  19099830.35249 100370285.89849    -16050.91849        49.000  

  20189951.32049 106098909.61349     11411.40249        50.000  

  17960965.00849  94385507.07449      1081.93049        49.000  

  19311453.50849 101482372.78949     11015.62149        49.000  

 16 04 02 12 16 22.8000000  0  4G08G22G27G14                                    
  19100135.82849 100371891.17249    -16054.77049        49.000  

  20189734.21149 106097768.68049     11406.65649        50.000  

  17960944.45349  94385399.08649      1077.10249        49.000  

  19311243.95349 101481271.53149     11009.41049        49.000  

 16 04 02 12 16 22.9000000  0  4G08G22G27G14                                    
  19100441.35949 100373496.73449    -16057.39549        49.000  

  20189517.17249 106096628.13749     11403.03149        50.000  

  17960923.97749  94385291.48849      1073.43449        49.000  

  19311034.49249 101480170.80549     11004.34849        49.000  

 16 04 02 12 16 23.0000000  0  4G08G22G27G14                                    
  19100746.96149 100375102.68049    -16061.36749        49.000  

  20189300.22749 106095488.06649     11398.04749        50.000  

  17960903.59449  94385184.37949      1068.32849        49.000  

  19310825.15649 101479070.69949     10997.90649        49.000  

 16 04 02 12 16 23.1000000  0  4G08G22G27G14                                    
  19101052.62549 100376709.01649    -16065.16849        49.000  

  20189083.35949 106094348.48849     11393.32449        50.000  

  17960883.30549  94385077.77049      1063.49249        49.000  

  19310615.93049 101477971.22349     10991.75449        49.000  

 16 04 02 12 16 23.2000000  0  4G08G22G27G14                                    
  19101358.37549 100378315.76249    -16069.32449        49.000  

  20188866.60249 106093209.41849     11388.21949        50.000  

  17960863.11749  94384971.68049      1058.20749        49.000  

  19310406.84449 101476872.39149     10985.23049        49.000  

 16 04 02 12 16 23.3000000  0  4G08G22G27G14                                    
  19101664.18049 100379922.85249    -16072.74249        49.000  

  20188649.93049 106092070.78949     11383.86349        50.000  

  17960843.02349  94384866.03549      1053.78949        49.000  

  19310197.85249 101475774.15649     10979.32049        49.000  

 16 04 02 12 16 23.4000000  0  4G08G22G27G14                                    
  19101970.07049 100381530.31249    -16076.43049        49.000  

  20188433.34449 106090932.62149     11379.29749        50.000  

  17960823.00849  94384760.86749      1049.07849        49.000  

  19309988.96949 101474676.50849     10973.45349        49.000  

 16 04 02 12 16 23.5000000  0  4G08G22G27G14                                    
  19102276.01649 100383138.07449    -16079.43849        49.000  

  20188216.84449 106089794.85549     11375.16449        50.000  

  17960803.07049  94384656.09849      1045.04349        49.000  

  19309780.20349 101473579.42249     10967.90649        49.000  

 16 04 02 12 16 23.6000000  0  4G08G22G27G14                                    
  19102582.05549 100384746.35549    -16084.78949        49.000  

  20188000.45349 106088657.71149     11368.86349        50.000  

  17960783.25849  94384551.97749      1038.53949        49.000  

  19309571.56249 101472483.08649     10960.16049        49.000  

 16 04 02 12 16 23.7000000  0  4G08G22G27G14                                    
  19102888.14849 100386354.92249    -16087.63749        49.000  

  20187784.13349 106087520.94149     11365.06649        50.000  

  17960763.52349  94384448.24249      1034.52049        49.000  

  19309363.03149 101471387.28149     10954.87549        49.000  

 16 04 02 12 16 23.8000000  0  4G08G22G27G14                                    
  19103194.32849 100387963.88349    -16091.47749        49.000  

  20187567.90649 106086384.66849     11360.25049        50.000  

  17960743.87549  94384344.99649      1029.79749        49.000  

  19309154.63349 101470292.10949     10948.65649        49.000  

 16 04 02 12 16 23.9000000  0  4G08G22G27G14                                    
  19103500.57849 100389573.23849    -16095.54749        49.000  

  20187351.77349 106085248.88749     11355.12949        50.000  

  17960724.32849  94384242.26649      1024.42249        49.000  

  19308946.34449 101469197.57049     10942.14849        49.000  

 16 04 02 12 16 24.0000000  0  4G08G22G27G14                                    
  19103806.90649 100391183.00449    -16099.58649        49.000  

  20187135.73449 106084113.60949     11350.21549        50.000  

  17960704.87549  94384140.03149      1019.62949        49.000  

  19308738.17249 101468103.68049     10935.78149        49.000  

 16 04 02 12 16 24.1000000  0  4G08G22G27G14                                    
  19104113.29749 100392793.07849    -16102.69949        49.000  

  20186919.78949 106082978.74249     11346.12949        50.000  

  17960685.51649  94384038.23449      1015.34449        49.000  

  19308530.12549 101467010.34849     10930.21149        50.000  

 16 04 02 12 16 24.2000000  0  4G08G22G27G14                                    
  19104419.75849 100394403.54349    -16106.25849        49.000  

  20186703.92249 106081844.36749     11341.47749        50.000  

  17960666.23449  94383936.93449      1010.55549        49.000  

  19308322.18849 101465917.63749     10924.20349        50.000  

 16 04 02 12 16 24.3000000  0  4G08G22G27G14                                    
  19104726.28949 100396014.36349    -16110.03149        49.000  

  20186488.16449 106080710.43849     11336.68849        50.000  

  17960647.03949  94383836.08249      1005.83649        49.000  

  19308114.36749 101464825.52049     10918.01649        50.000  

 16 04 02 12 16 24.4000000  0  4G08G22G27G14                                    
  19105032.89149 100397625.55549    -16113.68049        49.000  

  20186272.47749 106079576.98049     11332.14149        50.000  

  17960627.93849  94383735.70749      1001.12549        49.000  

  19307906.67249 101463734.02349     10911.90249        50.000  

 16 04 02 12 16 24.5000000  0  4G08G22G27G14                                    
  19105339.57049 100399237.12549    -16117.62149        49.000  

  20186056.89849 106078443.99649     11327.18449        50.000  

  17960608.93049  94383635.83249       996.02749        49.000  

  19307699.08649 101462643.14549     10905.60949        49.000  

 16 04 02 12 16 24.6000000  0  4G08G22G27G14                                    
  19105646.32049 100400849.12549    -16121.90649        49.000  

  20185841.39849 106077311.53549     11322.03549        50.000  

  17960590.02349  94383536.47749       990.88749        49.000  

  19307491.60249 101461552.91449     10899.12549        49.000  

 16 04 02 12 16 24.7000000  0  4G08G22G27G14                                    
  19105953.15649 100402461.49649    -16125.74249        49.000  

  20185626.00049 106076179.55549     11317.12949        50.000  

  17960571.21949  94383437.62549       985.70349        49.000  

  19307284.25849 101460463.32449     10892.74249        49.000  

 16 04 02 12 16 24.8000000  0  4G08G22G27G14                                    
  19106260.04749 100404074.21949    -16129.09849        49.000  

  20185410.67249 106075048.01649     11312.94149        50.000  

  17960552.48449  94383339.20349       981.50449        49.000  

  19307077.00049 101459374.30949     10887.05949        49.000  

 16 04 02 12 16 24.9000000  0  4G08G22G27G14                                    
  19106567.02349 100405687.34049    -16133.28549        49.000  

  20185195.44549 106073916.97749     11307.68049        50.000  

  17960533.85949  94383241.30149       976.11749        49.000  

  19306869.89149 101458285.94549     10880.38349        49.000  

 16 04 02 12 16 25.0000000  0  4G08G22G27G14                                    
  19106874.06249 100407300.83249    -16136.80549        49.000  

  20184980.30549 106072786.40649     11303.09049        50.000    20184989.04741
  82654155.22751      8807.60241        20.000  
  17960515.32049  94383143.88749       971.43449        49.000  

  19306662.89149 101457198.19549     10874.32849        49.000  

 16 04 02 12 16 25.1000000  0  4G08G22G27G14                                    
  19107181.14849 100408914.68849    -16140.30549        49.000  

  20184765.23449 106071656.29749     11298.64549        50.000    20184774.00041
  82653274.63341      8804.14141        22.000  
  17960496.85949  94383046.92249       966.98049        49.000  

  19306456.00849 101456111.02749     10868.55149        50.000  

 16 04 02 12 16 25.2000000  0  4G08G22G27G14                                    
  19107488.32849 100410528.91049    -16144.06249        49.000  

  20184550.27349 106070526.65249     11293.94549        50.000    20184561.52341
  82652394.39541      8800.47741        20.000  
  17960478.50849  94382950.44549       962.14549        49.000  

  19306249.24249 101455024.48849     10862.48849        49.000  

 16 04 02 12 16 25.3000000  0  4G08G22G27G14                                    
  19107795.55549 100412143.46549    -16147.23049        49.000  

  20184335.38349 106069397.44549     11289.76649        50.000    20184346.64841
  82651514.50041      8797.21941        20.000  
  17960460.22749  94382854.40649       957.77749        49.000  

  19306042.58649 101453938.52349     10856.70749        49.000  

 16 04 02 12 16 25.4000000  0  4G08G22G27G14                                    
  19108102.86749 100413758.41049    -16151.37549        49.000  

  20184120.59449 106068268.71949     11284.53149        50.000    20184133.83641
  82650634.94941      8793.14141        20.000  
  17960442.04749  94382758.85249       952.66449        49.000  

  19305836.05549 101452853.16849     10850.40249        50.000  

 16 04 02 12 16 25.5000000  0  4G08G22G27G14                                    
  19108410.25849 100415373.77749    -16155.33249        49.000  

  20183905.89149 106067140.51249     11279.68449        50.000    20183919.13341
  82649755.79741      8789.36341        20.000  
  17960423.96949  94382663.84449       947.72349        49.000  

  19305629.64849 101451768.48849     10843.91049        50.000  

 16 04 02 12 16 25.6000000  0  4G08G22G27G14                                    
  19108717.71949 100416989.48449    -16159.08649        49.000  

  20183691.28949 106066012.74649     11274.93449        50.000    20183701.54741
  82648876.99241      8785.66441        20.000  
  17960405.96949  94382569.27349       942.78949        49.000  

  19305423.34449 101450684.39549     10837.71549        50.000  

 16 04 02 12 16 25.7000000  0  4G08G22G27G14                                    
  19109025.25849 100418605.52749    -16162.23049        49.000  

  20183476.77349 106064885.42249     11270.73049        50.000    20183487.01641
  82647998.52741      8782.38741        20.000  
  17960388.06249  94382475.15249       938.61749        49.000  

  19305217.15649 101449600.87549     10832.16049        50.000  

 16 04 02 12 16 25.8000000  0  4G08G22G27G14                                    
  19109332.86749 100420222.03149    -16166.86349        49.000  

  20183262.35249 106063758.64149     11265.26649        50.000    20183275.93841
  82647120.48841      8778.12941        20.000  
  17960370.25849  94382381.58649       932.93849        49.000  

  19305011.08649 101448518.05949     10825.16049        50.000  

 16 04 02 12 16 25.9000000  0  4G08G22G27G14                                    
  19109640.51649 100421838.81649    -16169.71549        49.000  

  20183048.02349 106062632.25049     11261.41849        50.000  

  17960352.53149  94382288.42649       928.91449        49.000  

  19304805.13349 101447435.76249     10819.95349        50.000  

 16 04 02 12 16 26.0000000  0  4G08G22G27G14                                    
  19109948.26649 100423456.03949    -16174.07049        49.000  

  20182833.77349 106061506.39149     11255.98049        50.000  

  17960334.90649  94382195.79349       923.55949        49.000  

  19304599.31249 101446354.14549     10812.93449        49.000  

 16 04 02 12 16 26.1000000  0  4G08G22G27G14                                    
  19110256.08649 100425073.66849    -16178.34849        49.000  

  20182619.64849 106060381.05149     11250.66049        50.000  

  17960317.37549  94382103.68849       918.04749        49.000  

  19304393.61749 101445273.18049     10806.28149        49.000  

 16 04 02 12 16 26.2000000  0  4G08G22G27G14                                    
  19110563.98449 100426691.68049    -16181.65249        49.000  

  20182405.59449 106059256.18049     11246.61349        50.000  

  17960299.94549  94382012.08249       913.74649        49.000  

  19304188.03949 101444192.84449     10800.44549        50.000  

 16 04 02 12 16 26.3000000  0  4G08G22G27G14                                    
  19110871.93849 100428309.97349    -16184.87949        49.000  

  20182191.60949 106058131.67649     11242.29349        50.000  

  17960282.57049  94381920.82849       909.48449        49.000  

  19303982.54749 101443113.00049     10795.05549        50.000  

 16 04 02 12 16 26.4000000  0  4G08G22G27G14                                    
  19111179.97749 100429928.70349    -16189.06649        49.000  

  20181977.72749 106057007.72749     11237.10549        50.000  

  17960265.31249  94381830.14849       904.23849        49.000  

  19303777.19549 101442033.86749     10788.47349        50.000  

 16 04 02 12 16 26.5000000  0  4G08G22G27G14                                    
  19111488.07849 100431547.82849    -16193.27349        49.000  

  20181763.95349 106055884.27749     11231.84849        50.000  

  17960248.15649  94381739.97349       898.84449        49.000  

  19303571.96949 101440955.35949     10781.69949        50.000  

 16 04 02 12 16 26.6000000  0  4G08G22G27G14                                    
  19111796.25049 100433167.30549    -16196.62949        49.000  

  20181550.25049 106054761.26249     11227.60249        50.000  

  17960231.07849  94381650.25049       894.46149        49.000  

  19303366.85949 101439877.44949     10775.93849        49.000  

 16 04 02 12 16 26.7000000  0  4G08G22G27G14                                    
  19112104.48449 100434787.11749    -16199.94549        49.000  

  20181336.63349 106053638.69549     11223.17649        50.000  

  17960214.09449  94381560.95749       890.25049        49.000  

  19303161.84449 101438800.10549     10770.33649        49.000  

 16 04 02 12 16 26.8000000  0  4G08G22G27G14                                    
  19112412.79749 100436407.32449    -16203.91049        49.000  

  20181123.10949 106052516.60949     11218.37149        50.000  

  17960197.19549  94381472.18449       885.10949        49.000  

  19302956.96149 101437723.40649     10763.91449        49.000  

 16 04 02 12 16 26.9000000  0  4G08G22G27G14                                    
  19112721.18849 100438027.90649    -16207.74249        49.000  

  20180909.66449 106051395.00449     11213.55549        50.000  

  17960180.40649  94381383.89149       880.13749        49.000  

  19302752.18849 101436647.32449     10757.60949        49.000  

 16 04 02 12 16 27.0000000  0  4G08G22G27G14                                    
  19113029.64149 100439648.84449    -16211.23849        49.000  

  20180696.32049 106050273.86349     11208.93049        50.000  

  17960163.68849  94381296.05149       875.60949        49.000  

  19302547.53949 101435571.84049     10751.80549        49.000  

 16 04 02 12 16 27.1000000  0  4G08G22G27G14                                    
  19113338.17249 100441270.16449    -16215.07449        49.000  

  20180483.05549 106049153.19149     11204.15649        50.000  

  17960147.06249  94381208.72349       870.66049        49.000  

  19302343.00049 101434496.98049     10745.53149        50.000  

 16 04 02 12 16 27.2000000  0  4G08G22G27G14                                    
  19113646.76649 100442891.86749    -16218.85949        49.000  

  20180269.89149 106048033.01249     11199.27349        50.000  

  17960130.53149  94381121.86349       865.79749        49.000  

  19302138.57049 101433422.74649     10739.25449        49.000  

 16 04 02 12 16 27.3000000  0  4G08G22G27G14                                    
  19113955.45349 100444513.94949    -16222.75849        49.000  

  20180056.82849 106046913.30549     11194.41049        50.000  

  17960114.10249  94381035.50049       860.65649        49.000  

  19301934.26649 101432349.13349     10732.89549        49.000  

 16 04 02 12 16 27.4000000  0  4G08G22G27G14                                    
  19114264.20349 100446136.46949    -16226.93049        49.000  

  20179843.85949 106045794.13349     11189.30949        50.000  

  17960097.77349  94380949.68449       855.68849        49.000  

  19301730.10249 101431276.19149     10726.45349        49.000  

 16 04 02 12 16 27.5000000  0  4G08G22G27G14                                    
  19114573.03949 100447759.32849    -16230.64849        49.000  

  20179630.96949 106044675.39149     11184.71549        50.000  

  17960081.51649  94380864.29349       851.00049        49.000  

  19301526.03949 101430203.83649     10720.28549        49.000  

 16 04 02 12 16 27.6000000  0  4G08G22G27G14                                    
  19114881.93049 100449382.55549    -16234.29349        49.000  

  20179418.17249 106043557.13749     11179.91849        50.000  

  17960065.35949  94380779.39849       846.08249        49.000  

  19301322.09449 101429132.09849     10714.18049        49.000  

 16 04 02 12 16 27.7000000  0  4G08G22G27G14                                    
  19115190.89149 100451006.23449    -16238.61749        49.000  

  20179205.49249 106042439.43449     11174.57049        50.000  

  17960049.32049  94380695.07849       840.68849        49.000  

  19301118.28149 101428061.05549     10707.37949        49.000  

 16 04 02 12 16 27.8000000  0  4G08G22G27G14                                    
  19115499.92249 100452630.19949    -16241.54749        49.000  

  20178992.86749 106041322.10549     11170.69549        50.000  

  17960033.34449  94380611.12549       836.77049        49.000  

  19300914.57849 101426990.53149     10702.07449        49.000  

 16 04 02 12 16 27.9000000  0  4G08G22G27G14                                    
  19115809.00849 100454254.51249    -16244.68049        49.000  

  20178780.32049 106040205.23849     11166.48849        50.000  

  17960017.44549  94380527.63749       832.55149        49.000  

  19300710.97749 101425920.60549     10696.43449        49.000  

 16 04 02 12 16 28.0000000  0  4G08G22G27G14                                    
  19116118.17249 100455879.18449    -16248.56649        49.000  

  20178567.86749 106039088.79749     11161.82449        50.000  

  17960001.64149  94380444.60949       827.56249        49.000  

  19300507.49249 101424851.26249     10690.36749        49.000  

 16 04 02 12 16 28.1000000  0  4G08G22G27G14                                    
  19116427.39149 100457504.21949    -16252.23049        49.000  

  20178355.51649 106037972.85249     11156.96549        50.000  

  17959985.92249  94380362.06249       822.78949        49.000  

  19300304.12549 101423782.55149     10684.05549        49.000  

 16 04 02 12 16 28.2000000  0  4G08G22G27G14                                    
  19116736.70349 100459129.67249    -16256.38349        49.000  

  20178143.25049 106036857.41849     11151.81649        50.000  

  17959970.31249  94380280.04349       817.52749        49.000  

  19300100.86749 101422714.49249     10677.41849        49.000  

 16 04 02 12 16 28.3000000  0  4G08G22G27G14                                    
  19117046.07049 100460755.48849    -16260.05549        49.000  

  20177931.07049 106035742.44549     11147.17649        50.000  

  17959954.78949  94380198.49249       812.79349        49.000  

  19299897.73449 101421647.02749     10671.43449        49.000  

 16 04 02 12 16 28.4000000  0  4G08G22G27G14                                    
  19117355.51649 100462381.62549    -16263.28549        49.000  

  20177718.97749 106034627.88749     11142.94549        50.000  

  17959939.35249  94380117.36349       808.37549        49.000  

  19299694.71949 101420580.14149     10665.68849        49.000  

 16 04 02 12 16 28.5000000  0  4G08G22G27G14                                    
  19117665.03949 100464008.16449    -16267.00849        49.000  

  20177506.97749 106033513.84449     11138.16049        50.000  

  17959924.01649  94380036.75449       803.68449        49.000  

  19299491.82049 101419513.88749     10659.64849        49.000    19299487.81241
  79028175.67251      8306.21941        20.000  
 16 04 02 12 16 28.6000000  0  4G08G22G27G14                                    
  19117974.61749 100465634.98049    -16269.83649        49.000  

  20177295.05549 106032400.17249     11134.43449        50.000  

  17959908.75049  94379956.53149       799.82849        49.000  

  19299289.00849 101418448.16049     10654.36749        49.000    19299285.00841
  79027345.23041      8302.10241        20.000  
 16 04 02 12 16 28.7000000  0  4G08G22G27G14                                    
  19118284.27349 100467262.20349    -16274.12149        49.000  

  20177083.21949 106031287.00449     11129.11349        50.000  

  17959893.57849  94379876.80949       794.44949        49.000  

  19299086.32849 101417383.07449     10647.78149        49.000    19299085.04741
  79026515.28541      8296.97341        20.000  
 16 04 02 12 16 28.8000000  0  4G08G22G27G14                                    
  19118594.00849 100468889.86749    -16278.59449        49.000  

  20176871.50049 106030174.38749     11123.53549        50.000  

  17959878.51649  94379797.65649       788.72749        49.000  

  19298883.79749 101416318.69149     10640.65649        49.000    19298882.50041
  79025685.89141      8291.42241        20.000  
 16 04 02 12 16 28.9000000  0  4G08G22G27G14                                    
  19118903.81249 100470517.92649    -16282.41049        49.000  

  20176659.85949 106029062.25849     11118.79349        50.000  

  17959863.54749  94379718.99249       784.04349        49.000  

  19298681.36749 101415254.93449     10634.46549        49.000  

 16 04 02 12 16 29.0000000  0  4G08G22G27G14                                    
  19119213.68049 100472146.29749    -16285.70349        49.000  

  20176448.30549 106027950.54749     11114.40649        50.000  

  17959848.65649  94379640.75049       779.48849        49.000  

  19298479.04749 101414191.73449     10628.71549        49.000  

 16 04 02 12 16 29.1000000  0  4G08G22G27G14                                    
  19119523.61749 100473775.10249    -16289.77349        49.000  

  20176236.85949 106026839.36749     11109.35549        50.000  

  17959833.85249  94379563.05549       774.41449        49.000  

  19298276.85249 101413129.21149     10622.17649        49.000  

 16 04 02 12 16 29.2000000  0  4G08G22G27G14                                    
  19119833.64149 100475404.26649    -16293.55549        49.000  

  20176025.49249 106025728.64149     11104.65649        50.000  

  17959819.15649  94379485.82449       769.50849        49.000  

  19298074.78149 101412067.28549     10615.98849        49.000  

 16 04 02 12 16 29.3000000  0  4G08G22G27G14                                    
  19120143.73449 100477033.80149    -16297.21949        49.000  

  20175814.20349 106024618.40649     11099.74249        50.000  

  17959804.56249  94379409.07449       764.70349        49.000  

  19297872.82849 101411005.98449     10609.89849        49.000  

 16 04 02 12 16 29.4000000  0  4G08G22G27G14                                    
  19120453.89149 100478663.69949    -16300.64849        49.000  

  20175603.01649 106023508.60949     11095.52349        50.000  

  17959790.04749  94379332.78549       760.47349        49.000  

  19297670.96149 101409945.27349     10604.18049        49.000  

 16 04 02 12 16 29.5000000  0  4G08G22G27G14                                    
  19120764.10249 100480293.91449    -16303.99649        49.000  

  20175391.92249 106022399.25049     11091.10949        50.000    20175401.41441
  82614895.30151      8642.42641        20.000  
  17959775.60949  94379256.94949       755.80549        49.000  

  19297469.22749 101408885.14549     10598.22349        49.000  

 16 04 02 12 16 29.6000000  0  4G08G22G27G14                                    
  19121074.39849 100481924.52349    -16307.74249        49.000  

  20175180.91449 106021290.37549     11086.30949        50.000    20175191.18041
  82614031.23841      8638.68041        20.000  
  17959761.26649  94379181.58249       750.95349        49.000  

  19297267.60949 101407825.62549     10592.16049        49.000  

 16 04 02 12 16 29.7000000  0  4G08G22G27G14                                    
  19121384.76649 100483555.53949    -16312.07049        49.000  

  20174970.00849 106020182.01249     11081.03549        50.000    20174980.25841
  82613167.57041      8634.57441        20.000  
  17959747.02349  94379106.75049       745.60549        49.000  

  19297066.11749 101406766.78149     10585.34049        49.000  

 16 04 02 12 16 29.8000000  0  4G08G22G27G14                                    
  19121695.20349 100485186.90249    -16315.52749        49.000  

  20174759.18049 106019074.11749     11076.33249        50.000    20174771.60241
  82612304.27341      8630.90641        20.000  
  17959732.86749  94379032.37549       741.06649        49.000  

  19296864.71149 101405708.52049     10579.43849        49.000  

 16 04 02 12 16 29.9000000  0  4G08G22G27G14                                    
  19122005.71949 100486818.63749    -16319.09449        49.000  

  20174548.42249 106017966.65649     11072.05549        50.000  

  17959718.80549  94378958.47349       736.43049        49.000  

  19296663.45349 101404650.87149     10573.43849        49.000  

 16 04 02 12 16 30.0000000  0  4G08G22G27G14                                    
  19122316.29749 100488450.76249    -16323.10249        49.000  

  20174337.78149 106016859.71949     11066.87549        50.000  

  17959704.83649  94378885.07449       731.34449        49.000  

  19296462.30549 101403593.86749     10566.98049        49.000  

 16 04 02 12 16 30.1000000  0  4G08G22G27G14                                    
  19122626.96149 100490083.23049    -16326.60549        49.000  

  20174127.21949 106015753.20349     11062.59849        50.000  

  17959690.95349  94378812.10949       726.88349        49.000  

  19296261.26649 101402537.43449     10561.15649        49.000  

 16 04 02 12 16 30.2000000  0  4G08G22G27G14                                    
  19122937.67249 100491716.02349    -16329.70349        49.000  

  20173916.74249 106014647.14149     11058.18849        50.000  

  17959677.15649  94378739.61349       722.31649        49.000  

  19296060.35949 101401481.59049     10555.28949        49.000  

 16 04 02 12 16 30.3000000  0  4G08G22G27G14                                    
  19123248.46149 100493349.30949    -16334.63349        49.000  

