     2.10           OBSERVATION DATA    G (GPS)             RINEX VERSION / TYPE
Convert v1.8.0                          07-Jun-2016 18:56   PGM / RUN BY / DATE 
Signal Strength values S1,S2 are in dBHz                    COMMENT             
                                                            MARKER NAME         
                                                            MARKER NUMBER       
                                                            OBSERVER / AGENCY   
                    NovAtel GPSCard                         REC # / TYPE / VERS 
                                                            ANT # / TYPE        
0.0000        0.0000        0.0000                          APPROX POSITION XYZ 
        0.0000        0.0000        0.0000                  ANTENNA: DELTA H/E/N
     1     1                                                WAVELENGTH FACT L1/2
     1     1     7   G07   G08   G09   G16   G23   G26   G27WAVELENGTH FACT L1/2
     1     1     1   G31                                    WAVELENGTH FACT L1/2
                                                            COMMENT             
                                                            COMMENT             
                                                            COMMENT             
                                                            COMMENT             
                                                            COMMENT             
     8    C1    L1    D1    S1    P2    L2    D2    S2      # / TYPES OF OBSERV 
     0.100                                                  INTERVAL            
  2016    04    02    14    06     6.9000000    GPS         TIME OF FIRST OBS   
  2016    04    02    14    10    27.5000000    GPS         TIME OF LAST OBS    
Leap Seconds Unknown                                        COMMENT             
                                                            END OF HEADER       
 16 04 02 14 06  6.9000000  0  1G27                                             
  23070308.74249 121235289.75859     -5404.60549        49.000  

 16 04 02 14 06  7.0000000  0  1G27                                             
  23070411.63349 121235830.42249     -5408.70349        49.000  

 16 04 02 14 06  7.1000000  0  1G27                                             
  23070514.59449 121236371.48049     -5412.76649        49.000  

 16 04 02 14 06  7.2000000  0  1G27                                             
  23070617.63349 121236912.95749     -5416.82849        49.000  

 16 04 02 14 06  7.3000000  0  1G27                                             
  23070720.73449 121237454.75449     -5420.01249        49.000  

 16 04 02 14 06  7.4000000  0  1G27                                             
  23070823.91449 121237996.93849     -5424.03549        49.000  

 16 04 02 14 06  7.5000000  0  1G27                                             
  23070927.18049 121238539.62949     -5428.94949        49.000  

 16 04 02 14 06  7.6000000  0  1G27                                             
  23071030.51649 121239082.69149     -5432.82449        49.000  

 16 04 02 14 06  7.7000000  0  1G27                                             
  23071133.93049 121239626.10549     -5436.32849        49.000  

 16 04 02 14 06  7.8000000  0  1G27                                             
  23071237.41449 121240169.91849     -5440.22749        49.000  

 16 04 02 14 06  7.9000000  0  1G27                                             
  23071341.00049 121240714.21949     -5445.25449        49.000  

 16 04 02 14 06  8.0000000  0  1G27                                             
  23071444.64149 121241258.87149     -5448.73049        49.000  

 16 04 02 14 06  8.1000000  0  1G27                                             
  23071548.36749 121241803.95749     -5452.88349        49.000  

 16 04 02 14 06  8.2000000  0  1G27                                             
  23071652.15649 121242349.38349     -5456.43849        49.000  

 16 04 02 14 06  8.3000000  0  1G27                                             
  23071756.03149 121242895.25849     -5460.75049        49.000  

 16 04 02 14 06  8.4000000  0  1G27                                             
  23071859.96949 121243441.46149     -5464.13749        49.000  

 16 04 02 14 06  8.5000000  0  1G27                                             
  23071963.99249 121243988.08649     -5468.24649        49.000  

 16 04 02 14 06  8.6000000  0  1G27                                             
  23072068.09449 121244535.12949     -5472.66849        49.000  

 16 04 02 14 06  8.7000000  0  1G27                                             
  23072172.28149 121245082.59449     -5476.69549        49.000  

 16 04 02 14 06  8.8000000  0  1G27                                             
  23072276.53149 121245630.41449     -5480.46149        49.000  

 16 04 02 14 06  8.9000000  0  1G27                                             
  23072380.85949 121246178.67249     -5484.77749        49.000  

 16 04 02 14 06  9.0000000  0  1G27                                             
  23072485.25849 121246727.32449     -5488.77749        49.000  

 16 04 02 14 06  9.1000000  0  1G27                                             
  23072589.73449 121247276.35549     -5492.54349        49.000  

 16 04 02 14 06  9.2000000  0  1G27                                             
  23072694.29749 121247825.85949     -5497.22349        49.000  

 16 04 02 14 06  9.3000000  0  1G27                                             
  23072798.94549 121248375.77349     -5501.44149        49.000  

 16 04 02 14 06  9.4000000  0  1G27                                             
  23072903.65649 121248926.04749     -5504.99249        49.000  

 16 04 02 14 06  9.5000000  0  1G27                                             
  23073008.44549 121249476.74649     -5508.98449        49.000  

 16 04 02 14 06  9.6000000  0  1G27                                             
  23073113.31249 121250027.82449     -5512.90649        49.000  

 16 04 02 14 06  9.7000000  0  1G27                                             
  23073218.25849 121250579.35949     -5517.47749        49.000  

 16 04 02 14 06  9.8000000  0  1G27                                             
  23073323.28949 121251131.30549     -5521.74249        49.000  

 16 04 02 14 06  9.9000000  0  1G27                                             
  23073428.39849 121251683.64549     -5525.45349        49.000  

 16 04 02 14 06 10.0000000  0  1G27                                             
  23073533.57049 121252236.33249     -5529.03549        49.000  

 16 04 02 14 06 10.1000000  0  1G27                                             
  23073638.82849 121252789.45349     -5533.16849        49.000  

 16 04 02 14 06 10.2000000  0  1G27                                             
  23073744.15649 121253342.95349     -5537.11349        49.000  

 16 04 02 14 06 10.3000000  0  1G27                                             
  23073849.55549 121253896.81649     -5540.71149        49.000  

 16 04 02 14 06 10.4000000  0  1G27                                             
  23073955.02349 121254451.06249     -5544.56249        49.000  

 16 04 02 14 06 10.5000000  0  1G27                                             
  23074060.57049 121255005.74249     -5548.71149        49.000  

 16 04 02 14 06 10.6000000  0  1G27                                             
  23074166.18849 121255560.79349     -5552.67249        49.000  

 16 04 02 14 06 10.7000000  0  1G27                                             
  23074271.89849 121256116.31249     -5557.28149        49.000  

 16 04 02 14 06 10.8000000  0  1G27                                             
  23074377.67249 121256672.17649     -5560.97349        49.000  

 16 04 02 14 06 10.9000000  0  1G27                                             
  23074483.53149 121257228.44949     -5564.76249        49.000  

 16 04 02 14 06 11.0000000  0  1G27                                             
  23074589.45349 121257785.08649     -5568.30949        49.000  

 16 04 02 14 06 11.1000000  0  1G27                                             
  23074695.45349 121258342.15249     -5572.80149        49.000  

 16 04 02 14 06 11.2000000  0  1G27                                             
  23074801.53949 121258899.60549     -5576.46549        49.000  

 16 04 02 14 06 11.3000000  0  1G27                                             
  23074907.68049 121259457.42649     -5580.30549        49.000  

 16 04 02 14 06 11.4000000  0  1G27                                             
  23075013.91449 121260015.70349     -5584.87949        49.000  

 16 04 02 14 06 11.5000000  0  1G27                                             
  23075120.22749 121260574.37549     -5589.08649        49.000  

 16 04 02 14 06 11.6000000  0  1G27                                             
  23075226.61749 121261133.45349     -5592.63349        50.000  

 16 04 02 14 06 11.7000000  0  1G27                                             
  23075333.07849 121261692.95749     -5597.09049        49.000  

 16 04 02 14 06 11.8000000  0  1G27                                             
  23075439.62549 121262252.86349     -5601.19949        49.000  

 16 04 02 14 06 11.9000000  0  1G27                                             
  23075546.26649 121262813.20349     -5605.63349        49.000  

 16 04 02 14 06 12.0000000  0  1G27                                             
  23075652.96149 121263373.92249     -5609.21549        49.000  

 16 04 02 14 06 12.1000000  0  1G27                                             
  23075759.72749 121263934.97349     -5612.59049        49.000  

 16 04 02 14 06 12.2000000  0  1G27                                             
  23075866.57849 121264496.45749     -5616.92649        49.000  

 16 04 02 14 06 12.3000000  0  1G27                                             
  23075973.51649 121265058.39149     -5621.39149        49.000  

 16 04 02 14 06 12.4000000  0  1G27                                             
  23076080.51649 121265620.68449     -5625.05949        49.000  

 16 04 02 14 06 12.5000000  0  1G27                                             
  23076187.59449 121266183.39549     -5629.18049        49.000  

 16 04 02 14 06 12.6000000  0  1G27                                             
  23076294.74249 121266746.46549     -5632.84049        49.000  

 16 04 02 14 06 12.7000000  0  1G27                                             
  23076401.98449 121267309.98049     -5637.37949        49.000  

 16 04 02 14 06 12.8000000  0  1G27                                             
  23076509.28949 121267873.88349     -5641.13349        49.000  

 16 04 02 14 06 12.9000000  0  1G27                                             
  23076616.67249 121268438.21549     -5645.38349        49.000  

 16 04 02 14 06 13.0000000  0  1G27                                             
  23076724.12549 121269002.85549     -5648.32849        49.000  

 16 04 02 14 06 13.1000000  0  1G27                                             
  23076831.63349 121269567.85249     -5652.02749        49.000  

 16 04 02 14 06 13.2000000  0  1G27                                             
  23076939.24249 121270133.33649     -5656.99649        49.000  

 16 04 02 14 06 13.3000000  0  1G27                                             
  23077046.90649 121270699.17649     -5660.38749        49.000  

 16 04 02 14 06 13.4000000  0  1G27                                             
  23077154.66449 121271265.44549     -5664.94549        49.000  

 16 04 02 14 06 13.5000000  0  1G27                                             
  23077262.50049 121271832.13749     -5669.03149        49.000  

 16 04 02 14 06 13.6000000  0  1G27                                             
  23077370.41449 121272399.22749     -5673.21549        49.000  

 16 04 02 14 06 13.7000000  0  1G27                                             
  23077478.41449 121272966.74249     -5677.37949        49.000  

 16 04 02 14 06 13.8000000  0  1G27                                             
  23077586.47749 121273534.63749     -5681.23049        50.000  

 16 04 02 14 06 13.9000000  0  1G27                                             
  23077694.60249 121274102.93849     -5684.97349        50.000  

 16 04 02 14 06 14.0000000  0  1G27                                             
  23077802.80549 121274671.56649     -5688.53149        49.000  

 16 04 02 14 06 14.1000000  0  1G27                                             
  23077911.09449 121275240.64849     -5692.68049        49.000  

 16 04 02 14 06 14.2000000  0  1G27                                             
  23078019.46949 121275810.16049     -5697.56249        49.000  

 16 04 02 14 06 14.3000000  0  1G27                                             
  23078127.91449 121276380.05549     -5701.07449        49.000  

 16 04 02 14 06 14.4000000  0  1G27                                             
  23078236.43849 121276950.33249     -5704.96149        49.000  

 16 04 02 14 06 14.5000000  0  1G27                                             
  23078345.03149 121277521.03949     -5709.09849        49.000  

 16 04 02 14 06 14.6000000  0  1G27                                             
  23078453.71149 121278092.15249     -5713.08649        49.000  

 16 04 02 14 06 14.7000000  0  1G27                                             
  23078562.44549 121278663.60249     -5716.81249        49.000  

 16 04 02 14 06 14.8000000  0  1G27                                             
  23078671.26649 121279235.46949     -5720.75049        49.000  

 16 04 02 14 06 14.9000000  0  1G27                                             
  23078780.16449 121279807.73849     -5725.07049        49.000  

 16 04 02 14 06 15.0000000  0  1G27                                             
  23078889.14149 121280380.42649     -5729.03149        49.000  

 16 04 02 14 06 15.1000000  0  1G27                                             
  23078998.20349 121280953.48849     -5732.58249        49.000  

 16 04 02 14 06 15.2000000  0  1G27                                             
  23079107.32049 121281526.93849     -5736.64849        49.000  

 16 04 02 14 06 15.3000000  0  1G27                                             
  23079216.53149 121282100.83249     -5741.04349        49.000  

 16 04 02 14 06 15.4000000  0  1G27                                             
  23079325.81249 121282675.11749     -5745.18449        49.000  

 16 04 02 14 06 15.5000000  0  1G27                                             
  23079435.17249 121283249.80949     -5749.04349        49.000  

 16 04 02 14 06 15.6000000  0  1G27                                             
  23079544.59449 121283824.84049     -5752.34449        49.000  

 16 04 02 14 06 15.7000000  0  1G27                                             
  23079654.09449 121284400.25849     -5756.12549        49.000  

 16 04 02 14 06 15.8000000  0  1G27                                             
  23079763.68049 121284976.12549     -5760.69149        49.000  

 16 04 02 14 06 15.9000000  0  1G27                                             
  23079873.32849 121285552.34049     -5764.49649        49.000  

 16 04 02 14 06 16.0000000  0  1G27                                             
  23079983.07049 121286129.02349     -5768.86349        49.000  

 16 04 02 14 06 16.1000000  0  1G27                                             
  23080092.86749 121286706.06249     -5772.68849        49.000  

 16 04 02 14 06 16.2000000  0  1G27                                             
  23080202.74249 121287283.46549     -5775.95349        49.000  

 16 04 02 14 06 16.3000000  0  1G27                                             
  23080312.69549 121287861.24249     -5779.80949        49.000  

 16 04 02 14 06 16.4000000  0  1G27                                             
  23080422.73449 121288439.50449     -5784.73849        49.000  

 16 04 02 14 06 16.5000000  0  1G27                                             
  23080532.85949 121289018.12949     -5788.22349        49.000  

 16 04 02 14 06 16.6000000  0  1G27                                             
  23080643.03949 121289597.12549     -5792.07449        49.000  

 16 04 02 14 06 16.7000000  0  1G27                                             
  23080753.30549 121290176.53949     -5796.18849        49.000  

 16 04 02 14 06 16.8000000  0  1G27                                             
  23080863.62549 121290756.30549     -5799.75449        49.000  

 16 04 02 14 06 16.9000000  0  1G27                                             
  23080974.04749 121291336.56249     -5804.92249        49.000  

 16 04 02 14 06 17.0000000  0  1G27                                             
  23081084.53949 121291917.19149     -5808.49249        49.000  

 16 04 02 14 06 17.1000000  0  1G27                                             
  23081195.10249 121292498.16449     -5811.74649        49.000  

 16 04 02 14 06 17.2000000  0  1G27                                             
  23081305.73449 121293079.56649     -5815.82449        49.000  

 16 04 02 14 06 17.3000000  0  1G27                                             
  23081416.43049 121293661.30549     -5819.63349        49.000  

 16 04 02 14 06 17.4000000  0  1G27                                             
  23081527.21949 121294243.48449     -5823.93849        49.000  

 16 04 02 14 06 17.5000000  0  1G27                                             
  23081638.07849 121294826.05149     -5827.82049        49.000  

 16 04 02 14 06 17.6000000  0  1G27                                             
  23081749.02349 121295409.05549     -5832.05949        49.000  

 16 04 02 14 06 17.7000000  0  1G27                                             
  23081860.02349 121295992.40249     -5835.80949        49.000  

 16 04 02 14 06 17.8000000  0  1G27                                             
  23081971.12549 121296576.22749     -5840.38349        49.000  

 16 04 02 14 06 17.9000000  0  1G27                                             
  23082082.28149 121297160.39549     -5843.79749        49.000  

 16 04 02 14 06 18.0000000  0  1G27                                             
  23082193.52349 121297744.98849     -5848.02349        49.000  

 16 04 02 14 06 18.1000000  0  1G27                                             
  23082304.85249 121298329.99249     -5852.24249        49.000  

 16 04 02 14 06 18.2000000  0  1G27                                             
  23082416.24249 121298915.35549     -5855.64849        49.000  

 16 04 02 14 06 18.3000000  0  1G27                                             
  23082527.69549 121299501.07449     -5859.09049        49.000  

 16 04 02 14 06 18.4000000  0  1G27                                             
  23082639.23449 121300087.20749     -5863.35549        49.000  

 16 04 02 14 06 18.5000000  0  1G27                                             
  23082750.85249 121300673.78149     -5867.61749        49.000  

 16 04 02 14 06 18.6000000  0  1G27                                             
  23082862.53949 121301260.71949     -5871.58249        49.000  

 16 04 02 14 06 18.7000000  0  1G27                                             
  23082974.30549 121301848.03949     -5875.39849        49.000  

 16 04 02 14 06 18.8000000  0  1G27                                             
  23083086.14849 121302435.80949     -5879.73449        49.000  

 16 04 02 14 06 18.9000000  0  1G27                                             
  23083198.07049 121303023.98849     -5883.96949        49.000  

 16 04 02 14 06 19.0000000  0  1G27                                             
  23083310.07049 121303612.54749     -5887.64549        49.000  

 16 04 02 14 06 19.1000000  0  1G27                                             
  23083422.14149 121304201.48049     -5891.35249        49.000  

 16 04 02 14 06 19.2000000  0  1G27                                             
  23083534.29749 121304790.86749     -5896.03549        49.000  

 16 04 02 14 06 19.3000000  0  1G27                                             
  23083646.53949 121305380.66049     -5899.96549        49.000  

 16 04 02 14 06 19.4000000  0  1G27                                             
  23083758.85249 121305970.83249     -5903.83649        49.000  

 16 04 02 14 06 19.5000000  0  1G27                                             
  23083871.23449 121306561.46549     -5908.60249        49.000  

 16 04 02 14 06 19.6000000  0  1G27                                             
  23083983.69549 121307152.47749     -5912.23449        49.000  

 16 04 02 14 06 19.7000000  0  1G27                                             
  23084096.23449 121307743.85549     -5915.68849        49.000  

 16 04 02 14 06 19.8000000  0  1G27                                             
  23084208.83649 121308335.55949     -5918.89849        49.000  

 16 04 02 14 06 19.9000000  0  1G27                                             
  23084321.50049 121308927.63749     -5922.88749        49.000  

 16 04 02 14 06 20.0000000  0  1G27                                             
  23084434.26649 121309520.19549     -5927.75049        49.000  

 16 04 02 14 06 20.1000000  0  1G27                                             
  23084547.09449 121310113.13749     -5931.74649        49.000  

 16 04 02 14 06 20.2000000  0  1G27                                             
  23084660.00049 121310706.44149     -5934.96149        49.000  

 16 04 02 14 06 20.3000000  0  1G27                                             
  23084772.97749 121311300.15649     -5939.32449        49.000  

 16 04 02 14 06 20.4000000  0  1G27                                             
  23084886.04749 121311894.32449     -5943.98449        49.000  

 16 04 02 14 06 20.5000000  0  1G27                                             
  23084999.18849 121312488.88749     -5947.71549        49.000  

 16 04 02 14 06 20.6000000  0  1G27                                             
  23085112.38349 121313083.76649     -5950.91049        49.000  

 16 04 02 14 06 20.7000000  0  1G27                                             
  23085225.68049 121313679.14549     -5956.14849        49.000  

 16 04 02 14 06 20.8000000  0  1G27                                             
  23085339.06249 121314274.94949     -5960.19149        49.000  

 16 04 02 14 06 20.9000000  0  1G27                                             
  23085452.49249 121314871.06649     -5963.22349        49.000  

 16 04 02 14 06 21.0000000  0  1G27                                             
  23085566.00049 121315467.55549     -5966.68449        49.000  

 16 04 02 14 06 21.1000000  0  1G27                                             
  23085679.57849 121316064.43449     -5971.03149        49.000  

 16 04 02 14 06 21.2000000  0  1G27                                             
  23085793.24249 121316661.75449     -5975.29349        49.000  

 16 04 02 14 06 21.3000000  0  1G27                                             
  23085906.98449 121317259.43849     -5978.88749        49.000  

 16 04 02 14 06 21.4000000  0  1G27                                             
  23086020.78149 121317857.46549     -5982.48849        49.000  

 16 04 02 14 06 21.5000000  0  1G27                                             
  23086134.67249 121318455.97749     -5987.36749        49.000  

 16 04 02 14 06 21.6000000  0  1G27                                             
  23086248.64149 121319054.89149     -5991.28149        49.000  

 16 04 02 14 06 21.7000000  0  1G27                                             
  23086362.68049 121319654.13749     -5994.36749        49.000  

 16 04 02 14 06 21.8000000  0  1G27                                             
  23086476.79749 121320253.83249     -5998.99249        49.000  

 16 04 02 14 06 21.9000000  0  1G27                                             
  23086591.00049 121320853.92649     -6002.85549        49.000  

 16 04 02 14 06 22.0000000  0  1G27                                             
  23086705.26649 121321454.39149     -6006.96549        49.000  

 16 04 02 14 06 22.1000000  0  1G27                                             
  23086819.61749 121322055.31649     -6011.27049        49.000  

 16 04 02 14 06 22.2000000  0  1G27                                             
  23086934.03949 121322656.60549     -6015.16449        49.000  

 16 04 02 14 06 22.3000000  0  1G27                                             
  23087048.53949 121323258.28949     -6019.05149        49.000  

 16 04 02 14 06 22.4000000  0  1G27                                             
  23087163.11749 121323860.41049     -6023.28549        49.000  

 16 04 02 14 06 22.5000000  0  1G27                                             
  23087277.77349 121324462.91049     -6027.09049        49.000  

 16 04 02 14 06 22.6000000  0  1G27                                             
  23087392.49249 121325065.76249     -6030.62549        49.000  

 16 04 02 14 06 22.7000000  0  1G27                                             
  23087507.28949 121325669.04749     -6034.77049        49.000  

 16 04 02 14 06 22.8000000  0  1G27                                             
  23087622.17249 121326272.74249     -6038.95349        49.000  

 16 04 02 14 06 22.9000000  0  1G27                                             
  23087737.11749 121326876.78949     -6042.58649        49.000  

 16 04 02 14 06 23.0000000  0  1G27                                             
  23087852.13349 121327481.21549     -6046.20349        49.000  

 16 04 02 14 06 23.1000000  0  1G27                                             
  23087967.23449 121328086.04749     -6050.48049        49.000  

 16 04 02 14 06 23.2000000  0  1G27                                             
  23088082.41449 121328691.30949     -6054.69949        49.000  

 16 04 02 14 06 23.3000000  0  1G27                                             
  23088197.67249 121329296.96949     -6058.68849        49.000  

 16 04 02 14 06 23.4000000  0  1G27                                             
  23088312.99249 121329903.00049     -6062.24649        49.000  

 16 04 02 14 06 23.5000000  0  1G27                                             
  23088428.39149 121330509.43449     -6066.48049        49.000  

 16 04 02 14 06 23.6000000  0  1G27                                             
  23088543.86749 121331116.27349     -6070.39549        49.000  

 16 04 02 14 06 23.7000000  0  1G27                                             
  23088659.41449 121331723.48449     -6074.30949        49.000  

 16 04 02 14 06 23.8000000  0  1G27                                             
  23088775.03149 121332331.06649     -6077.94949        49.000  

 16 04 02 14 06 23.9000000  0  1G27                                             
  23088890.74249 121332939.10549     -6082.40249        49.000  

 16 04 02 14 06 24.0000000  0  1G27                                             
  23089006.53149 121333547.57449     -6086.96949        49.000  

 16 04 02 14 06 24.1000000  0  1G27                                             
  23089122.39149 121334156.41849     -6090.54349        49.000  

 16 04 02 14 06 24.2000000  0  1G27                                             
  23089238.32049 121334765.64849     -6094.46549        49.000  

 16 04 02 14 06 24.3000000  0  1G27                                             
  23089354.32049 121335375.23049     -6097.73049        49.000  

 16 04 02 14 06 24.4000000  0  1G27                                             
  23089470.39849 121335985.23049     -6101.98049        49.000  

 16 04 02 14 06 24.5000000  0  1G27                                             
  23089586.54749 121336595.60949     -6105.76249        49.000  

 16 04 02 14 06 24.6000000  0  1G27                                             
  23089702.76649 121337206.35249     -6109.53549        49.000  

 16 04 02 14 06 24.7000000  0  1G27                                             
  23089819.07049 121337817.52049     -6113.60949        49.000  

 16 04 02 14 06 24.8000000  0  1G27                                             
  23089935.43849 121338429.06649     -6117.53149        49.000  

 16 04 02 14 06 24.9000000  0  1G27                                             
  23090051.88349 121339041.00049     -6121.70349        49.000  

 16 04 02 14 06 25.0000000  0  1G27                                             
  23090168.42249 121339653.43849     -6126.51249        49.000  

 16 04 02 14 06 25.1000000  0  1G27                                             
  23090285.04749 121340266.25849     -6130.39149        49.000  

 16 04 02 14 06 25.2000000  0  1G27                                             
  23090401.72749 121340879.39549     -6133.28149        49.000  

 16 04 02 14 06 25.3000000  0  1G27                                             
  23090518.48449 121341492.94549     -6137.68449        49.000  

 16 04 02 14 06 25.4000000  0  1G27                                             
  23090635.31249 121342106.88349     -6141.44949        49.000  

 16 04 02 14 06 25.5000000  0  1G27                                             
  23090752.21949 121342721.23849     -6145.41849        49.000  

 16 04 02 14 06 25.6000000  0  1G27                                             
  23090869.19549 121343335.93049     -6148.91049        49.000  

 16 04 02 14 06 25.7000000  0  1G27                                             
  23090986.23449 121343951.03549     -6153.17249        49.000  

 16 04 02 14 06 25.8000000  0  1G27                                             
  23091103.36749 121344566.58249     -6157.65249        49.000  

 16 04 02 14 06 25.9000000  0  1G27                                             
  23091220.58649 121345182.55149     -6162.01249        49.000  

 16 04 02 14 06 26.0000000  0  1G27                                             
  23091337.86749 121345798.85949     -6165.26649        49.000  

 16 04 02 14 06 26.1000000  0  1G27                                             
  23091455.21949 121346415.53949     -6168.96149        49.000  

 16 04 02 14 06 26.2000000  0  1G27                                             
  23091572.64149 121347032.59849     -6172.68049        49.000  

 16 04 02 14 06 26.3000000  0  1G27                                             
  23091690.14149 121347650.07049     -6176.75449        49.000  

 16 04 02 14 06 26.4000000  0  1G27                                             
  23091807.71149 121348267.91849     -6180.53949        49.000  

 16 04 02 14 06 26.5000000  0  1G27                                             
  23091925.36749 121348886.21149     -6185.05149        49.000  

 16 04 02 14 06 26.6000000  0  1G27                                             
  23092043.10249 121349504.89149     -6188.93049        49.000  

 16 04 02 14 06 26.7000000  0  1G27                                             
  23092160.91449 121350123.98849     -6193.00849        49.000  

 16 04 02 14 06 26.8000000  0  1G27                                             
  23092278.80549 121350743.50449     -6197.46149        49.000  

 16 04 02 14 06 26.9000000  0  1G27                                             
  23092396.76649 121351363.39549     -6201.03549        49.000  

 16 04 02 14 06 27.0000000  0  1G27                                             
  23092514.79749 121351983.64149     -6204.62549        49.000  

 16 04 02 14 06 27.1000000  0  1G27                                             
  23092632.91449 121352604.34849     -6209.14149        49.000  

 16 04 02 14 06 27.2000000  0  1G27                                             
  23092751.09449 121353225.40249     -6212.62149        49.000  

 16 04 02 14 06 27.3000000  0  1G27                                             
  23092869.35249 121353846.83649     -6216.52749        49.000  

 16 04 02 14 06 27.4000000  0  1G27                                             
  23092987.68849 121354468.70349     -6220.74249        49.000  

 16 04 02 14 06 27.5000000  0  1G27                                             
  23093106.09449 121355090.93049     -6224.44549        49.000  

 16 04 02 14 06 27.6000000  0  1G27                                             
  23093224.57849 121355713.57449     -6228.71149        49.000  

 16 04 02 14 06 27.7000000  0  1G27                                             
  23093343.14849 121356336.65249     -6233.01249        49.000  

 16 04 02 14 06 27.8000000  0  1G27                                             
  23093461.78949 121356960.11749     -6236.81249        49.000  

 16 04 02 14 06 27.9000000  0  1G27                                             
  23093580.48449 121357583.93449     -6240.22349        49.000  

 16 04 02 14 06 28.0000000  0  1G27                                             
  23093699.27349 121358208.16849     -6244.36749        49.000  

 16 04 02 14 06 28.1000000  0  1G27                                             
  23093818.12549 121358832.75449     -6248.04349        49.000  

 16 04 02 14 06 28.2000000  0  1G27                                             
  23093937.07049 121359457.81649     -6252.52049        49.000  

 16 04 02 14 06 28.3000000  0  1G27                                             
  23094056.07849 121360083.21149     -6256.22749        49.000  

 16 04 02 14 06 28.4000000  0  1G27                                             
  23094175.16449 121360709.04749     -6260.51249        49.000  

 16 04 02 14 06 28.5000000  0  1G27                                             
  23094294.34449 121361335.31249     -6264.91449        49.000  

 16 04 02 14 06 28.6000000  0  1G27                                             
  23094413.58649 121361961.94549     -6268.44149        49.000  

 16 04 02 14 06 28.7000000  0  1G27                                             
  23094532.90649 121362588.96949     -6272.38349        49.000  

 16 04 02 14 06 28.8000000  0  1G27                                             
  23094652.29749 121363216.40649     -6276.60549        49.000  

 16 04 02 14 06 28.9000000  0  1G27                                             
  23094771.78149 121363844.29349     -6281.06249        49.000  

 16 04 02 14 06 29.0000000  0  1G27                                             
  23094891.33649 121364472.56249     -6284.96149        49.000  

 16 04 02 14 06 29.1000000  0  1G27                                             
  23095010.99249 121365101.30949     -6289.48449        49.000  

 16 04 02 14 06 29.2000000  0  1G27                                             
  23095130.69549 121365730.35949     -6292.61349        49.000  

 16 04 02 14 06 29.3000000  0  1G27                                             
  23095250.47749 121366359.80949     -6296.32049        49.000  

 16 04 02 14 06 29.4000000  0  1G27                                             
  23095370.32049 121366989.60249     -6300.01649        49.000  

 16 04 02 14 06 29.5000000  0  1G27                                             
  23095490.25049 121367619.81649     -6304.19549        49.000  

 16 04 02 14 06 29.6000000  0  1G27                                             
  23095610.25049 121368250.39149     -6307.94549        49.000  

 16 04 02 14 06 29.7000000  0  1G27                                             
  23095730.31249 121368881.39549     -6312.09449        49.000  

 16 04 02 14 06 29.8000000  0  1G27                                             
  23095850.46149 121369512.78549     -6315.98449        49.000  

 16 04 02 14 06 29.9000000  0  1G27                                             
  23095970.69549 121370144.59449     -6320.14549        49.000  

 16 04 02 14 06 30.0000000  0  1G27                                             
  23096091.00049 121370776.78949     -6324.06649        49.000  

 16 04 02 14 06 30.1000000  0  1G27                                             
  23096211.38349 121371409.42249     -6328.46949        49.000  

 16 04 02 14 06 30.2000000  0  1G27                                             
  23096331.82849 121372042.39149     -6331.73849        49.000  

 16 04 02 14 06 30.3000000  0  1G27                                             
  23096452.35949 121372675.77049     -6335.82849        49.000  

 16 04 02 14 06 30.4000000  0  1G27                                             
  23096572.96949 121373309.57049     -6340.03549        49.000  

 16 04 02 14 06 30.5000000  0  1G27                                             
  23096693.63349 121373943.71949     -6343.55949        49.000  

 16 04 02 14 06 30.6000000  0  1G27                                             
  23096814.39149 121374578.31649     -6348.30949        49.000  

 16 04 02 14 06 30.7000000  0  1G27                                             
  23096935.24249 121375213.37949     -6352.77349        49.000  

 16 04 02 14 06 30.8000000  0  1G27                                             
  23097056.14849 121375848.75449     -6355.65649        49.000  

 16 04 02 14 06 30.9000000  0  1G27                                             
  23097177.12549 121376484.49249     -6359.47749        49.000  

 16 04 02 14 06 31.0000000  0  1G27                                             
  23097298.18049 121377120.62949     -6363.21949        49.000  

 16 04 02 14 06 31.1000000  0  1G27                                             
  23097419.30549 121377757.18449     -6367.61749        49.000  

 16 04 02 14 06 31.2000000  0  1G27                                             
  23097540.50849 121378394.11749     -6371.50049        49.000  

 16 04 02 14 06 31.3000000  0  1G27                                             
  23097661.78949 121379031.44949     -6375.33649        49.000  

 16 04 02 14 06 31.4000000  0  1G27                                             
  23097783.15649 121379669.20749     -6379.67249        49.000  

 16 04 02 14 06 31.5000000  0  1G27                                             
  23097904.57049 121380307.29349     -6382.85549        49.000  

 16 04 02 14 06 31.6000000  0  1G27                                             
  23098026.07849 121380945.80949     -6387.30549        49.000  

 16 04 02 14 06 31.7000000  0  1G27                                             
  23098147.64849 121381584.64849     -6390.43049        49.000  

 16 04 02 14 06 31.8000000  0  1G27                                             
  23098269.29749 121382223.92249     -6394.92249        49.000  

 16 04 02 14 06 31.9000000  0  1G27                                             
  23098391.03949 121382863.67249     -6399.69949        49.000  

 16 04 02 14 06 32.0000000  0  1G27                                             
  23098512.85949 121383503.78949     -6403.29749        49.000  

 16 04 02 14 06 32.1000000  0  1G27                                             
  23098634.75049 121384144.32049     -6407.47349        49.000  

 16 04 02 14 06 32.2000000  0  1G27                                             
  23098756.71949 121384785.25849     -6411.30149        49.000  

 16 04 02 14 06 32.3000000  0  1G27                                             
  23098878.75049 121385426.53949     -6414.90649        49.000  

 16 04 02 14 06 32.4000000  0  1G27                                             
  23099000.85249 121386068.21149     -6418.85949        49.000  

 16 04 02 14 06 32.5000000  0  1G27                                             
  23099123.03949 121386710.29349     -6422.75849        49.000  

 16 04 02 14 06 32.6000000  0  1G27                                             
  23099245.29749 121387352.74249     -6426.60549        49.000  

 16 04 02 14 06 32.7000000  0  1G27                                             
  23099367.63349 121387995.59049     -6430.71549        49.000  

 16 04 02 14 06 32.8000000  0  1G27                                             
  23099490.04749 121388638.87149     -6434.75449        49.000  

 16 04 02 14 06 32.9000000  0  1G27                                             
  23099612.52349 121389282.45749     -6438.03149        49.000  

 16 04 02 14 06 33.0000000  0  1G27                                             
  23099735.07849 121389926.52749     -6442.82049        49.000  

 16 04 02 14 06 33.1000000  0  1G27                                             
  23099857.71149 121390570.92249     -6446.08249        49.000  

 16 04 02 14 06 33.2000000  0  1G27                                             
  23099980.41449 121391215.74649     -6450.32449        49.000  

 16 04 02 14 06 33.3000000  0  1G27                                             
  23100103.20349 121391860.99649     -6454.56649        49.000  

 16 04 02 14 06 33.4000000  0  1G27                                             
  23100226.06249 121392506.60549     -6458.10549        49.000  

 16 04 02 14 06 33.5000000  0  1G27                                             
  23100348.99249 121393152.62149     -6462.30549        49.000  

 16 04 02 14 06 33.6000000  0  1G27                                             
  23100472.00049 121393799.01649     -6466.03949        49.000  

 16 04 02 14 06 33.7000000  0  1G27                                             
  23100595.08649 121394445.84849     -6470.30949        49.000  

 16 04 02 14 06 33.8000000  0  1G27                                             
  23100718.24249 121395093.05549     -6474.34849        49.000  

 16 04 02 14 06 33.9000000  0  1G27                                             
  23100841.47749 121395740.66449     -6478.19149        49.000  

 16 04 02 14 06 34.0000000  0  1G27                                             
  23100964.79749 121396388.71549     -6482.74249        49.000  

 16 04 02 14 06 34.1000000  0  1G27                                             
  23101088.19549 121397037.16449     -6486.73049        49.000  

 16 04 02 14 06 34.2000000  0  1G27                                             
  23101211.66449 121397686.01249     -6490.59849        49.000  

 16 04 02 14 06 34.3000000  0  1G27                                             
  23101335.21149 121398335.21549     -6493.93849        49.000  

 16 04 02 14 06 34.4000000  0  1G27                                             
  23101458.82049 121398984.80949     -6498.12549        49.000  

 16 04 02 14 06 34.5000000  0  1G27                                             
  23101582.51649 121399634.82049     -6502.01649        49.000  

 16 04 02 14 06 34.6000000  0  1G27                                             
  23101706.28949 121400285.21949     -6506.31649        49.000  

 16 04 02 14 06 34.7000000  0  1G27                                             
  23101830.13349 121400936.01249     -6510.04349        49.000  

 16 04 02 14 06 34.8000000  0  1G27                                             
  23101954.06249 121401587.27749     -6514.91049        49.000  

 16 04 02 14 06 34.9000000  0  1G27                                             
  23102078.05549 121402238.89849     -6518.27349        49.000  

 16 04 02 14 06 35.0000000  0  1G27                                             
  23102202.13349 121402890.92249     -6522.12949        49.000  

 16 04 02 14 06 35.1000000  0  1G27                                             
  23102326.25849 121403543.23049     -6525.03149        49.000  

 16 04 02 14 06 35.2000000  0  1G27                                             
  23102450.46149 121404195.91449     -6528.77749        49.000  

 16 04 02 14 06 35.3000000  0  1G27                                             
  23102574.75049 121404849.04749     -6533.30549        49.000  

 16 04 02 14 06 35.4000000  0  1G27                                             
  23102699.11749 121405502.58649     -6537.68049        49.000  

 16 04 02 14 06 35.5000000  0  1G27                                             
  23102823.53949 121406156.44149     -6540.90249        49.000  

 16 04 02 14 06 35.6000000  0  1G27                                             
  23102948.05549 121406810.80149     -6545.68049        49.000  

 16 04 02 14 06 35.7000000  0  1G27                                             
  23103072.63349 121407465.48849     -6548.99249        49.000  

 16 04 02 14 06 35.8000000  0  1G27                                             
  23103197.30549 121408120.64149     -6553.56249        49.000  

 16 04 02 14 06 35.9000000  0  1G27                                             
  23103322.05549 121408776.19549     -6557.89149        49.000  

 16 04 02 14 06 36.0000000  0  1G27                                             
  23103446.85949 121409432.05149     -6560.61349        49.000  

 16 04 02 14 06 36.1000000  0  1G27                                             
  23103571.74249 121410088.30149     -6564.44549        49.000  

 16 04 02 14 06 36.2000000  0  1G27                                             
  23103696.71149 121410745.00049     -6569.27349        49.000  

 16 04 02 14 06 36.3000000  0  1G27                                             
  23103821.74249 121411402.09449     -6573.10949        49.000  

 16 04 02 14 06 36.4000000  0  1G27                                             
  23103946.85949 121412059.56649     -6576.81249        49.000  

 16 04 02 14 06 36.5000000  0  1G27                                             
  23104072.03949 121412717.41449     -6580.78949        49.000  

 16 04 02 14 06 36.6000000  0  1G27                                             
  23104197.30549 121413375.65249     -6584.59849        49.000  

 16 04 02 14 06 36.7000000  0  1G27                                             
  23104322.64849 121414034.32449     -6588.77749        49.000  

 16 04 02 14 06 36.8000000  0  1G27                                             
  23104448.06249 121414693.38349     -6592.82049        49.000  

 16 04 02 14 06 36.9000000  0  1G27                                             
  23104573.55549 121415352.86349     -6596.85949        49.000  

 16 04 02 14 06 37.0000000  0  1G27                                             
  23104699.10949 121416012.64849     -6600.00449        49.000  

 16 04 02 14 06 37.1000000  0  1G27                                             
  23104824.75849 121416672.92649     -6604.88349        49.000  

 16 04 02 14 06 37.2000000  0  1G27                                             
  23104950.47749 121417333.58249     -6608.51249        49.000  

 16 04 02 14 06 37.3000000  0  1G27                                             
  23105076.26649 121417994.62149     -6612.61749        49.000  

 16 04 02 14 06 37.4000000  0  1G27                                             
  23105202.14149 121418656.09449     -6616.72749        49.000  

 16 04 02 14 06 37.5000000  0  1G27                                             
  23105328.07849 121419317.92649     -6620.37549        49.000  

 16 04 02 14 06 37.6000000  0  1G27                                             
  23105454.09449 121419980.13349     -6624.32049        49.000  

 16 04 02 14 06 37.7000000  0  1G27                                             
  23105580.18849 121420642.76649     -6628.23049        49.000  

 16 04 02 14 06 37.8000000  0  1G27                                             
  23105706.35949 121421305.78949     -6632.49649        49.000  

 16 04 02 14 06 37.9000000  0  1G27                                             
  23105832.60249 121421969.18849     -6636.01249        49.000  

 16 04 02 14 06 38.0000000  0  1G27                                             
  23105958.91449 121422632.96149     -6639.82449        49.000  

 16 04 02 14 06 38.1000000  0  1G27                                             
  23106085.30549 121423297.16849     -6644.20749        49.000  

 16 04 02 14 06 38.2000000  0  1G27                                             
  23106211.78149 121423961.78949     -6648.25449        49.000  

 16 04 02 14 06 38.3000000  0  1G27                                             
  23106338.32849 121424626.75849     -6651.68849        49.000  

 16 04 02 14 06 38.4000000  0  1G27                                             
  23106464.93849 121425292.13349     -6655.92249        49.000  

 16 04 02 14 06 38.5000000  0  1G27                                             
  23106591.64149 121425957.89549     -6659.72349        49.000  

 16 04 02 14 06 38.6000000  0  1G27                                             
  23106718.39849 121426624.02349     -6663.17649        49.000  

 16 04 02 14 06 38.7000000  0  1G27                                             
  23106845.22749 121427290.53149     -6667.24649        49.000  

 16 04 02 14 06 38.8000000  0  1G27                                             
  23106972.14849 121427957.50449     -6672.05549        49.000  

 16 04 02 14 06 38.9000000  0  1G27                                             
  23107099.15649 121428624.89149     -6675.83249        49.000  

 16 04 02 14 06 39.0000000  0  1G27                                             
  23107226.21949 121429292.61749     -6679.43449        49.000  

 16 04 02 14 06 39.1000000  0  1G27                                             
  23107353.35949 121429960.76249     -6683.32449        49.000  

 16 04 02 14 06 39.2000000  0  1G27                                             
  23107480.58649 121430629.32849     -6687.93049        49.000  

 16 04 02 14 06 39.3000000  0  1G27                                             
  23107607.89149 121431298.29749     -6691.63749        49.000  

 16 04 02 14 06 39.4000000  0  1G27                                             
  23107735.25849 121431967.64149     -6695.41849        49.000  

 16 04 02 14 06 39.5000000  0  1G27                                             
  23107862.70349 121432637.34449     -6699.10549        49.000  

 16 04 02 14 06 39.6000000  0  1G27                                             
  23107990.21949 121433307.46549     -6703.27349        49.000  

 16 04 02 14 06 39.7000000  0  1G27                                             
  23108117.82849 121433978.02349     -6707.70349        49.000  

 16 04 02 14 06 39.8000000  0  1G27                                             
  23108245.51649 121434649.01249     -6711.99649        49.000  

 16 04 02 14 06 39.9000000  0  1G27                                             
  23108373.25849 121435320.30149     -6715.07049        49.000  

 16 04 02 14 06 40.0000000  0  1G27                                             
  23108501.08649 121435992.03549     -6719.40649        49.000  

 16 04 02 14 06 40.1000000  0  1G27                                             
  23108628.98449 121436664.15649     -6723.41049        49.000  

 16 04 02 14 06 40.2000000  0  1G27                                             
  23108756.98449 121437336.75449     -6728.16049        49.000  

 16 04 02 14 06 40.3000000  0  1G27                                             
  23108885.02349 121438009.64149     -6731.05149        49.000  

 16 04 02 14 06 40.4000000  0  1G27                                             
  23109013.14849 121438682.93049     -6734.77049        49.000  

 16 04 02 14 06 40.5000000  0  1G27                                             
  23109141.33649 121439356.57049     -6738.52749        49.000  

 16 04 02 14 06 40.6000000  0  1G27                                             
  23109269.61749 121440030.68049     -6743.38349        49.000  

 16 04 02 14 06 40.7000000  0  1G27                                             
  23109397.96949 121440705.18449     -6747.08249        49.000  

 16 04 02 14 06 40.8000000  0  1G27                                             
  23109526.39849 121441380.08249     -6751.05949        49.000  

 16 04 02 14 06 40.9000000  0  1G27                                             
  23109654.89849 121442055.35249     -6754.57449        49.000  

 16 04 02 14 06 41.0000000  0  1G27                                             
  23109783.46949 121442730.97749     -6758.36749        49.000  

 16 04 02 14 06 41.1000000  0  1G27                                             
  23109912.11749 121443407.05149     -6762.88349        49.000  

 16 04 02 14 06 41.2000000  0  1G27                                             
  23110040.85949 121444083.54349     -6766.91049        49.000  

 16 04 02 14 06 41.3000000  0  1G27                                             
  23110169.65649 121444760.37149     -6770.47349        49.000  

 16 04 02 14 06 41.4000000  0  1G27                                             
  23110298.53149 121445437.59449     -6774.30949        49.000  

 16 04 02 14 06 41.5000000  0  1G27                                             
  23110427.46949 121446115.18049     -6777.92249        49.000  

 16 04 02 14 06 41.6000000  0  1G27                                             
  23110556.49249 121446793.18049     -6782.01249        49.000  

 16 04 02 14 06 41.7000000  0  1G27                                             
  23110685.58649 121447471.58249     -6786.18049        49.000  

 16 04 02 14 06 41.8000000  0  1G27                                             
  23110814.75849 121448150.38749     -6790.16049        49.000  

 16 04 02 14 06 41.9000000  0  1G27                                             
  23110944.00049 121448829.54349     -6793.41449        49.000  

 16 04 02 14 06 42.0000000  0  1G27                                             
  23111073.32849 121449509.14549     -6798.07449        49.000  

 16 04 02 14 06 42.1000000  0  1G27                                             
  23111202.71149 121450189.06249     -6801.30149        49.000  

 16 04 02 14 06 42.2000000  0  1G27                                             
  23111332.17249 121450869.41849     -6805.53549        49.000  

 16 04 02 14 06 42.3000000  0  1G27                                             
  23111461.72749 121451550.19149     -6809.98849        49.000  

 16 04 02 14 06 42.4000000  0  1G27                                             
  23111591.34449 121452231.33649     -6813.39849        49.000  

 16 04 02 14 06 42.5000000  0  1G27                                             
  23111721.03949 121452912.86749     -6817.39149        49.000  

 16 04 02 14 06 42.6000000  0  1G27                                             
  23111850.79749 121453594.72749     -6820.70749        49.000  

 16 04 02 14 06 42.7000000  0  1G27                                             
  23111980.64849 121454277.09449     -6825.64849        49.000  

 16 04 02 14 06 42.8000000  0  1G27                                             
  23112110.56249 121454959.80549     -6829.21949        49.000  

 16 04 02 14 06 42.9000000  0  1G27                                             
  23112240.55549 121455642.93449     -6833.50049        49.000  

 16 04 02 14 06 43.0000000  0  1G27                                             
  23112370.62549 121456326.46149     -6837.45749        49.000  

 16 04 02 14 06 43.1000000  0  1G27                                             
  23112500.76649 121457010.33649     -6840.78949        49.000  

 16 04 02 14 06 43.2000000  0  1G27                                             
  23112630.96949 121457694.56249     -6844.38749        49.000  

 16 04 02 14 06 43.3000000  0  1G27                                             
  23112761.25849 121458379.25049     -6848.87149        49.000  

 16 04 02 14 06 43.4000000  0  1G27                                             
  23112891.62549 121459064.31249     -6852.93449        49.000  

 16 04 02 14 06 43.5000000  0  1G27                                             
  23113022.07049 121459749.79749     -6857.07449        49.000  

 16 04 02 14 06 43.6000000  0  1G27                                             
  23113152.59449 121460435.71949     -6861.51649        49.000  

 16 04 02 14 06 43.7000000  0  1G27                                             
  23113283.19549 121461122.03949     -6865.08649        49.000  

 16 04 02 14 06 43.8000000  0  1G27                                             
  23113413.84449 121461808.61349     -6867.88349        49.000  

 16 04 02 14 06 43.9000000  0  1G27                                             
  23113544.59449 121462495.70749     -6872.82449        49.000  

 16 04 02 14 06 44.0000000  0  1G27                                             
  23113675.41449 121463183.15249     -6876.62949        49.000  

 16 04 02 14 06 44.1000000  0  1G27                                             
  23113806.30549 121463871.00849     -6880.73049        49.000  

 16 04 02 14 06 44.2000000  0  1G27                                             
  23113937.28149 121464559.27049     -6884.62949        49.000  

 16 04 02 14 06 44.3000000  0  1G27                                             
  23114068.31249 121465247.85249     -6887.95349        49.000  

 16 04 02 14 06 44.4000000  0  1G27                                             
  23114199.42249 121465936.85949     -6892.20749        49.000  

 16 04 02 14 06 44.5000000  0  1G27                                             
  23114330.60949 121466626.25449     -6895.57449        49.000  

 16 04 02 14 06 44.6000000  0  1G27                                             
  23114461.86749 121467316.02349     -6899.95749        49.000  

 16 04 02 14 06 44.7000000  0  1G27                                             
  23114593.21149 121468006.23449     -6904.12949        49.000  

 16 04 02 14 06 44.8000000  0  1G27                                             
  23114724.61749 121468696.77049     -6907.43449        49.000  

 16 04 02 14 06 44.9000000  0  1G27                                             
  23114856.10949 121469387.77049     -6911.98849        49.000  

 16 04 02 14 06 45.0000000  0  1G27                                             
  23114987.68049 121470079.17249     -6916.12549        49.000  

 16 04 02 14 06 45.1000000  0  1G27                                             
  23115119.32049 121470770.91449     -6919.53149        49.000  

 16 04 02 14 06 45.2000000  0  1G27                                             
  23115251.03149 121471463.06249     -6923.42649        49.000  

 16 04 02 14 06 45.3000000  0  1G27                                             
  23115382.82049 121472155.60949     -6927.60549        49.000  

 16 04 02 14 06 45.4000000  0  1G27                                             
  23115514.67249 121472848.52349     -6931.10549        49.000  

 16 04 02 14 06 45.5000000  0  1G27                                             
