     2.10           OBSERVATION DATA    G (GPS)             RINEX VERSION / TYPE
Convert v1.8.0                          07-Jun-2016 18:55   PGM / RUN BY / DATE 
Signal Strength values S1,S2 are in dBHz                    COMMENT             
                                                            MARKER NAME         
                                                            MARKER NUMBER       
                                                            OBSERVER / AGENCY   
                    NovAtel GPSCard                         REC # / TYPE / VERS 
                                                            ANT # / TYPE        
0.0000        0.0000        0.0000                          APPROX POSITION XYZ 
        0.0000        0.0000        0.0000                  ANTENNA: DELTA H/E/N
     1     1                                                WAVELENGTH FACT L1/2
     1     1     3   G09   G25   G29                        WAVELENGTH FACT L1/2
                                                            COMMENT             
                                                            COMMENT             
                                                            COMMENT             
                                                            COMMENT             
                                                            COMMENT             
                                                            COMMENT             
     8    C1    L1    D1    S1    P2    L2    D2    S2      # / TYPES OF OBSERV 
     0.100                                                  INTERVAL            
  2016    04    02    12    46    37.1000000    GPS         TIME OF FIRST OBS   
  2016    04    02    12    50    27.6000000    GPS         TIME OF LAST OBS    
Leap Seconds Unknown                                        COMMENT             
                                                            END OF HEADER       
 16 04 02 12 46 37.1000000  0  1G09                                             
  22443781.36749 117942866.54749      8302.30549        50.000  

 16 04 02 12 46 37.2000000  0  2G29G09                                          
  21105332.78949 110909272.15259      5302.21549        50.000  

  22443623.42249 117942036.52349      8297.73449        50.000  

 16 04 02 12 46 37.3000000  0  2G29G09                                          
  21105231.93049 110908742.13749      5298.58249        50.000  

  22443465.57049 117941207.04349      8292.13749        50.000  

 16 04 02 12 46 37.4000000  0  2G29G09                                          
  21105131.14849 110908212.51249      5294.78949        50.000  

  22443307.83649 117940378.14149      8286.48849        50.000  

 16 04 02 12 46 37.5000000  0  2G29G09                                          
  21105030.43049 110907683.25049      5290.82049        50.000  

  22443150.19549 117939549.75449      8280.87549        50.000  

 16 04 02 12 46 37.6000000  0  2G29G09                                          
  21104929.79749 110907154.33649      5287.39849        50.000  

  22442992.66449 117938721.91449      8275.73849        50.000  

 16 04 02 12 46 37.7000000  0  2G29G09                                          
  21104829.21149 110906625.74249      5284.41849        50.000  

  22442835.21949 117937894.57449      8270.85249        50.000  

 16 04 02 12 46 37.8000000  0  2G29G09                                          
  21104728.69549 110906097.51649      5280.64149        50.000  

  22442677.89149 117937067.78149      8265.15649        50.000  

 16 04 02 12 46 37.9000000  0  2G29G09                                          
  21104628.24249 110905569.62549      5277.23849        50.000  

  22442520.64149 117936241.47349      8260.41849        50.000  

 16 04 02 12 46 38.0000000  0  2G29G09                                          
  21104527.86749 110905042.18049      5272.60949        50.000  

  22442363.53149 117935415.82449      8253.60249        50.000  

 16 04 02 12 46 38.1000000  0  2G29G09                                          
  21104427.53949 110904514.96549      5270.45349        50.000  

  22442206.49249 117934590.56649      8249.88349        50.000  

 16 04 02 12 46 38.2000000  0  2G29G09                                          
  21104327.28949 110903988.13349      5266.89849        50.000  

  22442049.55549 117933765.87149      8244.54349        50.000  

 16 04 02 12 46 38.3000000  0  2G29G09                                          
  21104227.09449 110903461.59849      5263.71949        50.000  

  22441892.71149 117932941.65649      8239.39849        50.000  

 16 04 02 12 46 38.4000000  0  2G29G09                                          
  21104126.98449 110902935.50049      5259.46949        50.000  

  22441735.97749 117932118.05149      8233.59049        50.000  

 16 04 02 12 46 38.5000000  0  2G29G09                                          
  21104026.92249 110902409.66849      5256.49249        50.000  

  22441579.35249 117931294.90649      8228.50449        50.000  

 16 04 02 12 46 38.6000000  0  2G29G09                                          
  21103926.93849 110901884.23049      5252.98049        50.000  

  22441422.81249 117930472.30949      8223.49249        50.000  

 16 04 02 12 46 38.7000000  0  2G29G09                                          
  21103827.01649 110901359.11749      5249.43449        50.000  

  22441266.38349 117929650.23049      8218.06249        50.000  

 16 04 02 12 46 38.8000000  0  2G29G09                                          
  21103727.15649 110900834.41849      5245.44149        50.000  

  22441110.05549 117928828.73849      8212.31649        50.000  

 16 04 02 12 46 38.9000000  0  2G29G09                                          
  21103627.36749 110900309.98849      5242.67249        50.000  

  22440953.82849 117928007.70349      8207.75449        50.000  

 16 04 02 12 46 39.0000000  0  2G29G09                                          
  21103527.64849 110899785.94549      5238.87949        50.000  

  22440797.69549 117927187.22349      8202.18449        50.000  

 16 04 02 12 46 39.1000000  0  2G29G09                                          
  21103428.00049 110899262.27749      5235.02349        50.000  

  22440641.66449 117926367.31249      8196.39849        50.000  

 16 04 02 12 46 39.2000000  0  2G29G09                                          
  21103328.42249 110898738.96949      5231.35949        50.000  

  22440485.74249 117925547.92249      8190.98849        50.000  

 16 04 02 12 46 39.3000000  0  2G29G09                                          
  21103228.91449 110898216.05949      5227.54749        50.000  

  22440329.92249 117924729.11349      8185.43849        50.000  

 16 04 02 12 46 39.4000000  0  2G29G09                                          
  21103129.47749 110897693.48049      5224.14149        50.000  

  22440174.20349 117923910.82449      8180.12949        50.000  

 16 04 02 12 46 39.5000000  0  2G29G09                                          
  21103030.10949 110897171.28149      5220.50049        50.000  

  22440018.58649 117923093.07449      8174.87949        50.000  

 16 04 02 12 46 39.6000000  0  2G29G09                                          
  21102930.80549 110896649.41049      5216.96949        50.000  

  22439863.07049 117922275.84449      8169.52349        50.000  

 16 04 02 12 46 39.7000000  0  2G29G09                                          
  21102831.57049 110896127.96149      5212.73849        50.000  

  22439707.68849 117921459.21549      8163.43849        50.000  

 16 04 02 12 46 39.8000000  0  2G29G09                                          
  21102732.40649 110895606.86349      5209.25049        50.000  

  22439552.38349 117920643.10949      8158.27349        50.000  

 16 04 02 12 46 39.9000000  0  2G29G09                                          
  21102633.30549 110895086.06249      5206.27049        50.000  

  22439397.17249 117919827.48849      8153.46149        50.000  

 16 04 02 12 46 40.0000000  0  2G29G09                                          
  21102534.26649 110894565.64849      5202.51649        50.000  

  22439242.07049 117919012.42649      8147.97349        50.000  

 16 04 02 12 46 40.1000000  0  2G29G09                                          
  21102435.29749 110894045.55949      5199.19949        50.000  

  22439087.06249 117918197.86749      8142.82849        50.000  

 16 04 02 12 46 40.2000000  0  2G29G09                                          
  21102336.39849 110893525.83249      5195.61749        50.000  

  22438932.15649 117917383.85949      8137.31249        50.000  

 16 04 02 12 46 40.3000000  0  2G29G09                                          
  21102237.57049 110893006.48449      5191.86349        50.000  

  22438777.35249 117916570.39849      8131.85549        50.000  

 16 04 02 12 46 40.4000000  0  2G29G09                                          
  21102138.81249 110892487.46149      5188.72749        50.000  

  22438622.65649 117915757.43449      8127.10549        50.000  

 16 04 02 12 46 40.5000000  0  2G29G09                                          
  21102040.10949 110891968.78149      5185.12949        50.000  

  22438468.05549 117914945.01249      8121.52349        50.000  

 16 04 02 12 46 40.6000000  0  2G29G09                                          
  21101941.48449 110891450.50849      5181.21549        50.000  

  22438313.57049 117914133.15649      8116.02049        50.000  

 16 04 02 12 46 40.7000000  0  2G29G09                                          
  21101842.91449 110890932.53949      5177.91449        50.000  

  22438159.17249 117913321.79749      8110.66049        50.000  

 16 04 02 12 46 40.8000000  0  2G29G09                                          
  21101744.43049 110890414.94549      5174.33249        50.000  

  22438004.88349 117912510.98049      8105.50049        50.000  

 16 04 02 12 46 40.9000000  0  2G29G09                                          
  21101646.00049 110889897.68849      5171.02749        50.000  

  22437850.68849 117911700.68849      8100.49249        50.000  

 16 04 02 12 46 41.0000000  0  2G29G09                                          
  21101547.62549 110889380.73049      5168.04749        50.000  

  22437696.58649 117910890.87149      8095.60549        50.000  

 16 04 02 12 46 41.1000000  0  2G29G09                                          
  21101449.33649 110888864.22749      5163.37549        50.000  

  22437542.60949 117910081.69149      8089.01249        50.000  

 16 04 02 12 46 41.2000000  0  2G29G09                                          
  21101351.12549 110888348.09049      5159.47749        50.000  

  22437388.72749 117909273.05549      8083.39849        50.000  

 16 04 02 12 46 41.3000000  0  2G29G09                                          
  21101252.96149 110887832.25849      5156.64849        50.000  

  22437234.94549 117908464.89549      8078.71949        50.000  

 16 04 02 12 46 41.4000000  0  2G29G09                                          
  21101154.87549 110887316.81249      5152.93449        50.000  

  22437081.26649 117907657.30549      8073.38749        50.000  

 16 04 02 12 46 41.5000000  0  2G29G09                                          
  21101056.85249 110886801.68049      5149.63349        50.000  

  22436927.68049 117906850.20749      8068.23449        50.000  

 16 04 02 12 46 41.6000000  0  2G29G09                                          
  21100958.89149 110886286.89849      5146.25049        50.000  

  22436774.19549 117906043.64549      8063.07849        50.000  

 16 04 02 12 46 41.7000000  0  2G29G09                                          
  21100861.00049 110885772.50049      5142.28149        50.000  

  22436620.80549 117905237.63349      8057.33649        50.000  

 16 04 02 12 46 41.8000000  0  2G29G09                                          
  21100763.18849 110885258.47349      5138.45749        50.000  

  22436467.53149 117904432.18049      8051.66849        50.000  

 16 04 02 12 46 41.9000000  0  2G29G09                                          
  21100665.44549 110884744.82849      5134.82049        50.000  

  22436314.36749 117903627.28949      8046.21149        50.000  

 16 04 02 12 46 42.0000000  0  2G29G09                                          
  21100567.75849 110884231.46149      5132.09449        50.000  

  22436161.28949 117902822.84849      8041.84049        50.000  

 16 04 02 12 46 42.1000000  0  2G29G09                                          
  21100470.12549 110883718.38749      5129.17649        50.000  

  22436008.29749 117902018.87949      8037.10949        50.000  

 16 04 02 12 46 42.2000000  0  2G29G09                                          
  21100372.58649 110883205.75849      5124.70349        50.000  

  22435855.43049 117901215.53549      8030.81249        50.000  

 16 04 02 12 46 42.3000000  0  2G29G09                                          
  21100275.10249 110882693.48849      5120.88349        50.000  

  22435702.66449 117900412.73849      8025.15249        50.000  

 16 04 02 12 46 42.4000000  0  2G29G09                                          
  21100177.68849 110882181.56249      5117.57049        50.000  

  22435550.00049 117899610.45749      8020.01649        50.000  

 16 04 02 12 46 42.5000000  0  2G29G09                                          
  21100080.34449 110881670.00849      5113.81249        50.000  

  22435397.43849 117898808.72749      8014.49649        50.000  

 16 04 02 12 46 42.6000000  0  2G29G09                                          
  21099983.07849 110881158.84049      5110.05949        50.000  

  22435244.98449 117898007.56249      8008.98849        50.000  

 16 04 02 12 46 42.7000000  0  2G29G09                                          
  21099885.85949 110880647.96949      5107.06249        50.000  

  22435092.61749 117897206.87149      8004.20749        50.000  

 16 04 02 12 46 42.8000000  0  2G29G09                                          
  21099788.71149 110880137.41849      5104.00049        50.000  

  22434940.34449 117896406.68849      7999.36749        50.000  

 16 04 02 12 46 42.9000000  0  2G29G09                                          
  21099691.62549 110879627.24249      5100.12149        50.000  

  22434788.18049 117895607.04749      7993.68849        50.000  

 16 04 02 12 46 43.0000000  0  2G29G09                                          
  21099594.63349 110879117.46949      5096.00449        50.000  

  22434636.12549 117894808.00049      7987.60249        50.000  

 16 04 02 12 46 43.1000000  0  2G29G09                                          
  21099497.69549 110878608.03949      5092.65649        50.000  

  22434484.16449 117894009.47749      7982.55149        50.000  

 16 04 02 12 46 43.2000000  0  2G29G09                                          
  21099400.81249 110878098.93449      5089.30149        50.000  

  22434332.30549 117893211.43449      7977.52049        50.000  

 16 04 02 12 46 43.3000000  0  2G29G09                                          
  21099304.00849 110877590.19549      5085.74249        50.000  

  22434180.54749 117892413.95349      7972.13349        50.000  

 16 04 02 12 46 43.4000000  0  2G29G09                                          
  21099207.25849 110877081.79749      5082.41049        50.000  

  22434028.89149 117891616.99649      7966.98049        50.000  

 16 04 02 12 46 43.5000000  0  2G29G09                                          
  21099110.57849 110876573.73449      5079.06649        50.000  

  22433877.32849 117890820.54749      7961.87949        50.000  

 16 04 02 12 46 43.6000000  0  2G29G09                                          
  21099013.96949 110876066.06649      5075.17249        50.000  

  22433725.87549 117890024.67649      7956.15249        50.000  

 16 04 02 12 46 43.7000000  0  2G29G09                                          
  21098917.42249 110875558.69949      5072.05149        50.000  

  22433574.52349 117889229.28949      7951.19949        50.000  

 16 04 02 12 46 43.8000000  0  2G29G09                                          
  21098820.93849 110875051.67649      5068.66049        50.000  

  22433423.25849 117888434.41449      7946.04749        50.000  

 16 04 02 12 46 43.9000000  0  2G29G09                                          
  21098724.53149 110874545.06249      5064.46149        50.000  

  22433272.11749 117887640.13749      7940.00049        50.000  

 16 04 02 12 46 44.0000000  0  2G29G09                                          
  21098628.18849 110874038.76649      5061.18449        50.000  

  22433121.06249 117886846.34449      7934.99249        50.000  

 16 04 02 12 46 44.1000000  0  2G29G09                                          
  21098531.92249 110873532.85949      5057.55949        50.000  

  22432970.12549 117886053.13349      7929.55149        50.000  

 16 04 02 12 46 44.2000000  0  2G29G09                                          
  21098435.70349 110873027.22349      5054.84849        50.000  

  22432819.26649 117885260.36349      7925.09049        50.000  

 16 04 02 12 46 44.3000000  0  2G29G09                                          
  21098339.55549 110872521.98049      5050.78149        50.000  

  22432668.50849 117884468.16849      7919.18449        50.000  

 16 04 02 12 46 44.4000000  0  2G29G09                                          
  21098243.47749 110872017.11749      5046.97749        50.000  

  22432517.86749 117883676.53149      7913.61349        50.000  

 16 04 02 12 46 44.5000000  0  2G29G09                                          
  21098147.46149 110871512.53949      5044.21149        50.000  

  22432367.31249 117882885.36749      7909.02049        50.000  

 16 04 02 12 46 44.6000000  0  2G29G09                                          
  21098051.50849 110871008.34849      5040.37949        50.000  

  22432216.86749 117882094.76249      7903.36749        50.000  

 16 04 02 12 46 44.7000000  0  2G29G09                                          
  21097955.64149 110870504.53549      5036.52349        50.000  

  22432066.51649 117881304.71149      7897.82849        50.000  

 16 04 02 12 46 44.8000000  0  2G29G09                                          
  21097859.82049 110870001.03149      5033.40249        50.000  

  22431916.26649 117880515.15249      7892.96949        50.000  

 16 04 02 12 46 44.9000000  0  2G29G09                                          
  21097764.08649 110869497.93049      5029.34849        50.000  

  22431766.12549 117879726.17249      7887.12549        50.000  

 16 04 02 12 46 45.0000000  0  2G29G09                                          
  21097668.42249 110868995.18849      5025.61349        50.000  

  22431616.09449 117878937.73849      7881.46549        50.000  

 16 04 02 12 46 45.1000000  0  2G29G09                                          
  21097572.82049 110868492.79349      5022.34449        50.000  

  22431466.14849 117878149.82449      7876.47749        50.000  

 16 04 02 12 46 45.2000000  0  2G29G09                                          
  21097477.28949 110867990.75049      5018.78149        50.000  

  22431316.31249 117877362.44949      7871.05949        50.000  

 16 04 02 12 46 45.3000000  0  2G29G09                                          
  21097381.81249 110867489.00049      5016.07849        50.000  

  22431166.56249 117876575.53949      7866.55549        50.000  

 16 04 02 12 46 45.4000000  0  2G29G09                                          
  21097286.40649 110866987.61749      5012.32449        50.000  

  22431016.92249 117875789.17649      7860.94949        50.000  

 16 04 02 12 46 45.5000000  0  2G29G09                                          
  21097191.07849 110866486.63349      5008.17649        50.000  

  22430867.39149 117875003.38749      7855.11349        50.000  

 16 04 02 12 46 45.6000000  0  2G29G09                                          
  21097095.79749 110865985.93849      5005.31249        50.000  

  22430717.94549 117874218.07849      7850.50049        50.000  

 16 04 02 12 46 45.7000000  0  2G29G09                                          
  21097000.58649 110865485.60549      5001.64549        50.000  

  22430568.60249 117873433.30549      7844.96949        50.000  

 16 04 02 12 46 45.8000000  0  2G29G09                                          
  21096905.44549 110864985.63749      4998.08649        50.000  

  22430419.36749 117872649.07449      7839.64849        50.000  

 16 04 02 12 46 45.9000000  0  2G29G09                                          
  21096810.35949 110864485.98849      4994.84449        50.000  

  22430270.22749 117871865.34449      7834.59449        50.000  

 16 04 02 12 46 46.0000000  0  2G29G09                                          
  21096715.34449 110863986.68849      4991.37549        50.000  

  22430121.19549 117871082.14849      7829.23449        50.000  

 16 04 02 12 46 46.1000000  0  2G29G09                                          
  21096620.40649 110863487.78149      4987.44149        50.000  

  22429972.25849 117870299.52349      7823.57849        50.000  

 16 04 02 12 46 46.2000000  0  2G29G09                                          
  21096525.53149 110862989.21949      4983.96549        50.000  

  22429823.43049 117869517.41049      7818.41449        50.000  

 16 04 02 12 46 46.3000000  0  2G29G09                                          
  21096430.72749 110862491.00449      4980.51249        50.000  

  22429674.69549 117868735.83649      7813.04349        50.000  

 16 04 02 12 46 46.4000000  0  2G29G09                                          
  21096335.98449 110861993.13749      4977.14549        50.000  

  22429526.07049 117867954.77749      7808.01649        50.000  

 16 04 02 12 46 46.5000000  0  2G29G09                                          
  21096241.31249 110861495.62949      4973.30149        50.000  

  22429377.53949 117867174.26249      7802.30549        50.000  

 16 04 02 12 46 46.6000000  0  2G29G09                                          
  21096146.71149 110860998.50049      4969.63749        50.000  

  22429229.11749 117866394.30949      7796.81649        50.000  

 16 04 02 12 46 46.7000000  0  2G29G09                                          
  21096052.18049 110860501.73849      4965.83249        50.000  

  22429080.79749 117865614.90249      7791.21149        50.000  

 16 04 02 12 46 46.8000000  0  2G29G09                                          
  21095957.71149 110860005.29749      4962.77349        50.000  

  22428932.57849 117864836.00049      7786.37549        50.000  

 16 04 02 12 46 46.9000000  0  2G29G09                                          
  21095863.31249 110859509.21549      4959.28949        50.000  

  22428784.45349 117864057.62949      7781.13349        50.000  

 16 04 02 12 46 47.0000000  0  2G29G09                                          
  21095768.97749 110859013.46949      4955.92649        50.000  

  22428636.43049 117863279.78149      7775.90649        50.000  

 16 04 02 12 46 47.1000000  0  2G29G09                                          
  21095674.70349 110858518.07049      4952.34849        50.000  

  22428488.51649 117862502.45749      7770.42249        50.000  

 16 04 02 12 46 47.2000000  0  2G29G09                                          
  21095580.50049 110858023.06249      4948.53549        50.000  

  22428340.70349 117861725.69149      7765.02049        50.000  

 16 04 02 12 46 47.3000000  0  2G29G09                                          
  21095486.38349 110857528.43449      4944.62549        50.000  

  22428192.99249 117860949.50449      7759.24649        50.000  

 16 04 02 12 46 47.4000000  0  2G29G09                                          
  21095392.30549 110857034.03949      4942.32049        50.000  

  22428045.36749 117860173.72349      7755.00049        50.000  

 16 04 02 12 46 47.5000000  0  2G29G09                                          
  21095298.30549 110856540.07049      4938.25049        50.000  

  22427897.85949 117859398.54349      7749.19949        50.000  

 16 04 02 12 46 47.6000000  0  2G29G09                                          
  21095204.36749 110856046.46149      4934.50449        50.000  

  22427750.45349 117858623.90249      7743.69149        50.000  

 16 04 02 12 46 47.7000000  0  2G29G09                                          
  21095110.50049 110855553.19949      4931.01649        50.000  

  22427603.14849 117857849.78949      7738.45349        50.000  

 16 04 02 12 46 47.8000000  0  2G29G09                                          
  21095016.70349 110855060.29749      4927.33649        50.000  

  22427455.93849 117857076.21949      7732.98049        50.000  

 16 04 02 12 46 47.9000000  0  2G29G09                                          
  21094922.96949 110854567.70749      4924.28949        50.000  

  22427308.82049 117856303.14149      7728.16449        50.000  

 16 04 02 12 46 48.0000000  0  2G29G09                                          
  21094829.30549 110854075.48449      4920.62549        50.000  

  22427161.81249 117855530.60949      7722.57449        50.000  

 16 04 02 12 46 48.1000000  0  2G29G09                                          
  21094735.70349 110853583.61749      4916.90649        50.000  

  22427014.90649 117854758.60549      7717.23049        50.000  

 16 04 02 12 46 48.2000000  0  2G29G09                                          
  21094642.17249 110853092.08249      4913.77049        50.000  

  22426868.10249 117853987.12949      7712.18449        50.000  

 16 04 02 12 46 48.3000000  0  2G29G09                                          
  21094548.71149 110852600.92249      4909.95349        50.000  

  22426721.40649 117853216.19549      7706.57449        50.000  

 16 04 02 12 46 48.4000000  0  2G29G09                                          
  21094455.31249 110852110.09849      4906.47349        50.000  

  22426574.79749 117852445.77349      7701.39149        50.000  

 16 04 02 12 46 48.5000000  0  2G29G09                                          
  21094361.98449 110851619.63349      4903.06249        50.000  

  22426428.28949 117851675.90249      7696.02749        50.000  

 16 04 02 12 46 48.6000000  0  2G29G09                                          
  21094268.71949 110851129.53949      4899.25849        50.000  

  22426281.89149 117850906.57449      7690.54349        50.000  

 16 04 02 12 46 48.7000000  0  2G29G09                                          
  21094175.52349 110850639.81249      4895.60249        50.000  

  22426135.60249 117850137.79749      7685.09049        50.000  

 16 04 02 12 46 48.8000000  0  2G29G09                                          
  21094082.39849 110850150.41849      4892.11749        50.000  

  22425989.40649 117849369.53149      7679.73049        50.000  

 16 04 02 12 46 48.9000000  0  2G29G09                                          
  21093989.33649 110849661.37149      4889.06649        50.000  

  22425843.30549 117848601.79349      7674.94149        50.000  

 16 04 02 12 46 49.0000000  0  2G29G09                                          
  21093896.33649 110849172.62549      4885.97349        50.000  

  22425697.29749 117847834.53549      7670.02749        50.000  

 16 04 02 12 46 49.1000000  0  2G29G09                                          
  21093803.39849 110848684.23449      4882.31249        50.000  

  22425551.39149 117847067.81249      7664.45349        50.000  

 16 04 02 12 46 49.2000000  0  2G29G09                                          
  21093710.53149 110848196.21549      4878.64549        50.000  

  22425405.59449 117846301.63749      7659.11749        50.000  

 16 04 02 12 46 49.3000000  0  2G29G09                                          
  21093617.72749 110847708.53149      4875.16049        50.000  

  22425259.89149 117845535.97749      7653.92249        50.000  

 16 04 02 12 46 49.4000000  0  2G29G09                                          
  21093524.98449 110847221.15249      4872.26649        50.000  

  22425114.28949 117844770.81249      7649.12949        50.000  

 16 04 02 12 46 49.5000000  0  2G29G09                                          
  21093432.31249 110846734.13749      4868.40649        50.000  

  22424968.78949 117844006.18049      7643.44949        50.000  

 16 04 02 12 46 49.6000000  0  2G29G09                                          
  21093339.71149 110846247.47349      4865.09449        50.000  

  22424823.38349 117843242.08649      7638.37949        50.000  

 16 04 02 12 46 49.7000000  0  2G29G09                                          
  21093247.17249 110845761.16849      4861.49649        50.000  

  22424678.08649 117842478.53149      7632.91849        50.000  

 16 04 02 12 46 49.8000000  0  2G29G09                                          
  21093154.68049 110845275.16049      4858.52049        50.000  

  22424532.87549 117841715.44949      7628.14549        50.000  

 16 04 02 12 46 49.9000000  0  2G29G09                                          
  21093062.28149 110844789.59449      4854.09049        50.000  

  22424387.78149 117840952.98049      7622.08649        50.000  

 16 04 02 12 46 50.0000000  0  2G29G09                                          
  21092969.95349 110844304.34849      4850.56649        50.000  

  22424242.78149 117840191.03149      7616.56649        50.000  

 16 04 02 12 46 50.1000000  0  2G29G09                                          
  21092877.68849 110843819.48849      4846.88749        50.000  

  22424097.89149 117839429.62949      7611.28949        50.000  

 16 04 02 12 46 50.2000000  0  2G29G09                                          
  21092785.48449 110843334.94949      4843.75049        50.000  

  22423953.10249 117838668.74649      7606.16449        50.000  

 16 04 02 12 46 50.3000000  0  2G29G09                                          
  21092693.35949 110842850.80549      4839.82049        50.000  

  22423808.42249 117837908.42249      7600.57049        50.000  

 16 04 02 12 46 50.4000000  0  2G29G09                                          
  21092601.28149 110842366.94149      4837.09849        50.000  

  22423663.82849 117837148.57449      7595.98449        50.000  

 16 04 02 12 46 50.5000000  0  2G29G09                                          
  21092509.28149 110841883.47349      4833.05149        50.000  

  22423519.34449 117836389.28549      7590.16049        50.000  

 16 04 02 12 46 50.6000000  0  2G29G09                                          
  21092417.35249 110841400.39149      4829.20349        50.000  

  22423374.96149 117835630.57849      7584.36749        50.000  

 16 04 02 12 46 50.7000000  0  2G29G09                                          
  21092325.48449 110840917.65249      4825.53149        50.000  

  22423230.68049 117834872.37949      7579.13349        50.000  

 16 04 02 12 46 50.8000000  0  2G29G09                                          
  21092233.70349 110840435.28149      4822.07449        50.000  

  22423086.50049 117834114.73849      7573.71149        50.000  

 16 04 02 12 46 50.9000000  0  2G29G09                                          
  21092141.97749 110839953.28549      4818.26649        50.000  

  22422942.43849 117833357.65249      7568.15249        50.000  

 16 04 02 12 46 51.0000000  0  2G29G09                                          
  21092050.32049 110839471.64149      4814.75449        50.000  

  22422798.46949 117832601.09049      7562.89149        50.000  

 16 04 02 12 46 51.1000000  0  2G29G09                                          
  21091958.72749 110838990.30949      4811.63349        50.000  

  22422654.60249 117831845.03149      7557.92249        50.000  

 16 04 02 12 46 51.2000000  0  2G29G09                                          
  21091867.20349 110838509.37949      4807.53149        50.000  

  22422510.83649 117831089.54749      7551.94149        50.000  

 16 04 02 12 46 51.3000000  0  2G29G09                                          
  21091775.75049 110838028.78149      4804.41049        50.000  

  22422367.16449 117830334.58249      7546.96149        50.000  

 16 04 02 12 46 51.4000000  0  2G29G09                                          
  21091684.36749 110837548.59049      4800.19149        50.000  

  22422223.60949 117829580.19149      7541.00049        50.000  

 16 04 02 12 46 51.5000000  0  2G29G09                                          
  21091593.04749 110837068.67249      4797.44149        50.000  

  22422080.14149 117828826.26649      7536.45349        50.000  

 16 04 02 12 46 51.6000000  0  2G29G09                                          
  21091501.78949 110836589.09449      4794.32849        50.000  

  22421936.77349 117828072.84849      7531.70749        50.000  

 16 04 02 12 46 51.7000000  0  2G29G09                                          
  21091410.60249 110836109.91449      4790.23049        50.000  

  22421793.51649 117827320.02349      7525.57449        50.000  

 16 04 02 12 46 51.8000000  0  2G29G09                                          
  21091319.48449 110835631.09449      4786.57449        50.000  

  22421650.35949 117826567.72749      7520.21149        50.000  

 16 04 02 12 46 51.9000000  0  2G29G09                                          
  21091228.43049 110835152.59449      4783.27749        50.000  

  22421507.28949 117825815.93449      7515.13749        50.000  

 16 04 02 12 46 52.0000000  0  2G29G09                                          
  21091137.45349 110834674.50449      4779.12149        50.000  

  22421364.34449 117825064.73449      7509.19549        50.000  

 16 04 02 12 46 52.1000000  0  2G29G09                                          
  21091046.53949 110834196.72349      4776.12149        50.000  

  22421221.47749 117824314.02049      7504.43049        50.000  

 16 04 02 12 46 52.2000000  0  2G29G09                                          
  21090955.68849 110833719.26649      4772.95749        50.000  

  22421078.71949 117823563.82049      7499.30549        50.000  

 16 04 02 12 46 52.3000000  0  2G29G09                                          
  21090864.90649 110833242.21949      4768.97349        50.000  

  22420936.07049 117822814.20349      7493.54349        50.000  

 16 04 02 12 46 52.4000000  0  2G29G09                                          
  21090774.18849 110832765.48049      4765.75049        50.000  

  22420793.51649 117822065.07049      7488.57049        50.000  

 16 04 02 12 46 52.5000000  0  2G29G09                                          
  21090683.53949 110832289.11349      4762.09849        50.000  

  22420651.07049 117821316.49649      7483.11349        50.000  

 16 04 02 12 46 52.6000000  0  2G29G09                                          
  21090592.93849 110831813.04749      4759.11349        50.000  

  22420508.71149 117820568.39549      7478.41049        50.000  

 16 04 02 12 46 52.7000000  0  2G29G09                                          
  21090502.42249 110831337.39149      4754.84849        50.000  

  22420366.46949 117819820.90249      7472.11349        50.000  

 16 04 02 12 46 52.8000000  0  2G29G09                                          
  21090411.97749 110830862.10949      4751.25449        50.000  

  22420224.32849 117819073.94549      7466.88349        50.000  

 16 04 02 12 46 52.9000000  0  2G29G09                                          
  21090321.58649 110830387.10249      4748.50449        50.000  

  22420082.27349 117818327.46149      7462.19949        50.000  

 16 04 02 12 46 53.0000000  0  2G29G09                                          
  21090231.27349 110829912.48049      4744.65249        50.000  

  22419940.32849 117817581.52049      7456.78149        50.000  

 16 04 02 12 46 53.1000000  0  2G29G09                                          
  21090141.01649 110829438.17649      4741.37949        50.000  

  22419798.47749 117816836.08649      7451.60549        50.000  

 16 04 02 12 46 53.2000000  0  2G29G09                                          
  21090050.83649 110828964.26649      4737.37949        50.000  

  22419656.73449 117816091.23049      7445.73449        50.000  

 16 04 02 12 46 53.3000000  0  2G29G09                                          
  21089960.71949 110828490.70349      4733.99249        50.000  

  22419515.09449 117815346.89549      7440.73849        50.000  

 16 04 02 12 46 53.4000000  0  2G29G09                                          
  21089870.66449 110828017.44149      4730.93049        50.000  

  22419373.54749 117814603.05149      7435.77749        50.000  

 16 04 02 12 46 53.5000000  0  2G29G09                                          
  21089780.67249 110827544.53549      4727.41049        50.000  

  22419232.10249 117813859.74649      7430.28549        50.000  

 16 04 02 12 46 53.6000000  0  2G29G09                                          
  21089690.75049 110827071.99649      4723.73849        50.000  

  22419090.75849 117813116.97349      7424.98849        50.000  

 16 04 02 12 46 53.7000000  0  2G29G09                                          
  21089600.89149 110826599.80949      4720.18449        50.000  

  22418949.50849 117812374.73449      7419.66849        50.000  

 16 04 02 12 46 53.8000000  0  2G29G09                                          
  21089511.09449 110826127.93449      4717.13349        50.000  

  22418808.35949 117811633.00049      7414.70349        50.000  

 16 04 02 12 46 53.9000000  0  2G29G09                                          
  21089421.38349 110825656.48049      4712.85549        50.000  

  22418667.32849 117810891.85949      7408.73849        50.000  

 16 04 02 12 46 54.0000000  0  2G29G09                                          
  21089331.72749 110825185.32449      4709.75449        50.000  

  22418526.38349 117810151.19949      7403.64549        50.000  

 16 04 02 12 46 54.1000000  0  2G29G09                                          
  21089242.14849 110824714.58649      4705.63349        50.000  

  22418385.55549 117809411.14149      7397.84849        50.000  

 16 04 02 12 46 54.2000000  0  2G29G09                                          
  21089152.62549 110824244.16049      4702.66449        50.000  

  22418244.81249 117808671.57049      7393.14149        50.000  

 16 04 02 12 46 54.3000000  0  2G29G09                                          
  21089063.18049 110823774.11349      4698.83649        50.000  

  22418104.18849 117807932.56249      7387.47749        50.000  

 16 04 02 12 46 54.4000000  0  2G29G09                                          
  21088973.79749 110823304.41449      4695.36349        50.000  

  22417963.65649 117807194.09049      7382.03549        50.000  

 16 04 02 12 46 54.5000000  0  2G29G09                                          
  21088884.48449 110822835.05149      4691.97749        50.000  

  22417823.22749 117806456.10949      7377.03949        50.000  

 16 04 02 12 46 54.6000000  0  2G29G09                                          
  21088795.23449 110822366.07049      4688.16449        50.000  

  22417682.90649 117805718.71949      7371.30149        50.000  

 16 04 02 12 46 54.7000000  0  2G29G09                                          
  21088706.05549 110821897.41449      4684.90249        50.000  

  22417542.68049 117804981.82049      7366.29749        50.000  

 16 04 02 12 46 54.8000000  0  2G29G09                                          
  21088616.93849 110821429.05949      4681.87949        50.000  

  22417402.53949 117804245.41049      7361.33249        50.000  

 16 04 02 12 46 54.9000000  0  2G29G09                                          
  21088527.89149 110820961.10249      4678.00049        50.000  

  22417262.50849 117803509.57049      7355.74249        50.000  

 16 04 02 12 46 55.0000000  0  2G29G09                                          
  21088438.89849 110820493.46149      4674.67649        50.000  

  22417122.57849 117802774.23449      7350.53149        50.000  

 16 04 02 12 46 55.1000000  0  2G29G09                                          
  21088349.97749 110820026.15249      4671.48849        50.000  

  22416982.75049 117802039.41049      7345.52349        50.000  

 16 04 02 12 46 55.2000000  0  2G29G09                                          
  21088261.11749 110819559.21149      4667.94549        50.000  

  22416843.02349 117801305.12949      7340.15649        50.000  

 16 04 02 12 46 55.3000000  0  2G29G09                                          
  21088172.32049 110819092.55549      4665.14149        50.000  

  22416703.37549 117800571.32049      7335.55549        50.000  

 16 04 02 12 46 55.4000000  0  2G29G09                                          
  21088083.58649 110818626.28949      4661.14849        50.000  

  22416563.84449 117799838.06649      7329.85549        50.000  

 16 04 02 12 46 55.5000000  0  2G29G09                                          
  21087994.93849 110818160.43849      4656.78549        50.000  

  22416424.42249 117799105.41849      7323.69949        50.000  

 16 04 02 12 46 55.6000000  0  2G29G09                                          
  21087906.35949 110817694.91049      4653.39149        50.000  

  22416285.10249 117798373.28149      7318.41049        50.000  

 16 04 02 12 46 55.7000000  0  2G29G09                                          
  21087817.84449 110817229.75049      4650.03949        50.000  

  22416145.89149 117797641.69149      7313.15249        50.000  

 16 04 02 12 46 55.8000000  0  2G29G09                                          
  21087729.39149 110816764.96149      4646.25049        50.000  

  22416006.77349 117796910.64149      7307.78549        50.000  

 16 04 02 12 46 55.9000000  0  2G29G09                                          
  21087641.01649 110816300.52349      4642.66849        50.000  

  22415867.76649 117796180.12949      7302.32849        50.000  

 16 04 02 12 46 56.0000000  0  2G29G09                                          
  21087552.71149 110815836.43849      4639.14149        50.000  

  22415728.85249 117795450.16049      7296.90249        50.000  

 16 04 02 12 46 56.1000000  0  2G29G09                                          
  21087464.45349 110815372.64549      4636.22349        50.000  

  22415590.03949 117794720.65249      7292.23449        50.000  

 16 04 02 12 46 56.2000000  0  2G29G09                                          
  21087376.26649 110814909.22749      4632.80949        50.000  

  22415451.32049 117793991.69549      7287.11749        50.000  

 16 04 02 12 46 56.3000000  0  2G29G09                                          
  21087288.14149 110814446.10949      4629.56249        50.000  

  22415312.69549 117793263.24249      7281.92649        50.000  

 16 04 02 12 46 56.4000000  0  2G29G09                                          
  21087200.10249 110813983.43849      4625.02749        50.000  

  22415174.18849 117792535.39549      7275.61349        50.000  

 16 04 02 12 46 56.5000000  0  2G29G09                                          
  21087112.10949 110813521.05949      4622.17249        50.000  

  22415035.77349 117791808.03149      7270.95349        50.000  

 16 04 02 12 46 56.6000000  0  2G29G09                                          
  21087024.19549 110813059.06249      4618.32449        50.000  

  22414897.46949 117791081.21949      7265.37949        50.000  

 16 04 02 12 46 56.7000000  0  2G29G09                                          
  21086936.34449 110812597.39149      4615.09849        50.000  

  22414759.25849 117790354.92249      7260.21549        50.000  

 16 04 02 12 46 56.8000000  0  2G29G09                                          
  21086848.56249 110812136.08249      4611.54349        50.000  

  22414621.14849 117789629.17249      7254.87949        50.000  

 16 04 02 12 46 56.9000000  0  2G29G09                                          
  21086760.85949 110811675.19149      4607.25849        50.000  

  22414483.15649 117788904.01249      7248.87549        50.000  

 16 04 02 12 46 57.0000000  0  2G29G09                                          
  21086673.20349 110811214.58249      4604.41449        50.000  

  22414345.25849 117788179.32049      7244.21149        50.000  

 16 04 02 12 46 57.1000000  0  2G29G09                                          
  21086585.62549 110810754.35949      4600.69549        50.000  

  22414207.46149 117787455.19549      7238.71149        50.000  

 16 04 02 12 46 57.2000000  0  2G29G09                                          
  21086498.12549 110810294.51649      4596.67649        50.000  

  22414069.76649 117786731.62949      7232.78549        50.000  

 16 04 02 12 46 57.3000000  0  2G29G09                                          
  21086410.68849 110809835.03949      4593.07449        50.000  

  22413932.18049 117786008.60549      7227.49649        50.000  

 16 04 02 12 46 57.4000000  0  2G29G09                                          
  21086323.29749 110809375.80949      4590.65249        50.000  

  22413794.68049 117785286.02049      7223.21949        50.000  

 16 04 02 12 46 57.5000000  0  2G29G09                                          
  21086235.98449 110808916.98049      4586.71949        50.000  

  22413657.28149 117784564.00849      7217.37549        50.000  

 16 04 02 12 46 57.6000000  0  2G29G09                                          
  21086148.72749 110808458.42649      4584.02749        50.000  

  22413519.97749 117783842.45349      7213.00449        50.000  

 16 04 02 12 46 57.7000000  0  2G29G09                                          
  21086061.52349 110808000.19949      4580.83249        50.000  

  22413382.76649 117783121.41049      7207.96549        50.000  

 16 04 02 12 46 57.8000000  0  2G29G09                                          
  21085974.40649 110807542.35949      4576.90249        50.000  

  22413245.66449 117782400.93849      7202.11349        50.000  

 16 04 02 12 46 57.9000000  0  2G29G09                                          
  21085887.35949 110807084.91049      4572.72749        50.000  

  22413108.67249 117781681.03149      7196.18049        50.000  

 16 04 02 12 46 58.0000000  0  2G29G09                                          
  21085800.37549 110806627.84849      4568.89549        50.000  

  22412971.78149 117780961.69549      7190.50849        50.000  

 16 04 02 12 46 58.1000000  0  2G29G09                                          
  21085713.46149 110806171.14149      4565.23449        50.000  

  22412835.00049 117780242.88749      7185.15249        50.000  

 16 04 02 12 46 58.2000000  0  2G29G09                                          
  21085626.60249 110805714.69549      4562.84449        50.000  

  22412698.29749 117779524.53149      7180.91449        50.000  

 16 04 02 12 46 58.3000000  0  2G29G09                                          
  21085539.82049 110805258.64549      4558.93849        50.000  

  22412561.70349 117778806.73849      7175.25849        50.000  

 16 04 02 12 46 58.4000000  0  2G29G09                                          
  21085453.10949 110804802.98449      4554.95349        50.000  

  22412425.22749 117778089.54349      7169.32049        50.000  

 16 04 02 12 46 58.5000000  0  2G29G09                                          
  21085366.46949 110804347.68049      4551.39849        50.000  

  22412288.84449 117777372.86749      7164.01249        50.000  

 16 04 02 12 46 58.6000000  0  2G29G09                                          
  21085279.88349 110803892.70349      4548.14849        50.000  

  22412152.56249 117776656.69149      7158.97349        50.000  

 16 04 02 12 46 58.7000000  0  2G29G09                                          
  21085193.35949 110803438.03949      4545.17649        50.000  

  22412016.38349 117775941.03149      7154.09849        50.000  

 16 04 02 12 46 58.8000000  0  2G29G09                                          
  21085106.91449 110802983.73849      4541.46549        50.000  

  22411880.29749 117775225.89149      7148.75049        50.000  

 16 04 02 12 46 58.9000000  0  2G29G09                                          
  21085020.53949 110802529.83649      4537.24249        50.000  

  22411744.32049 117774511.35549      7142.50449        50.000  

 16 04 02 12 46 59.0000000  0  2G29G09                                          
  21084934.21949 110802076.24649      4534.34049        50.000  

  22411608.43849 117773797.29749      7137.85549        50.000  

 16 04 02 12 46 59.1000000  0  2G29G09                                          
  21084847.96949 110801623.00449      4530.98049        50.000  

  22411472.65649 117773083.76249      7132.82049        50.000  

 16 04 02 12 46 59.2000000  0  2G29G09                                          
  21084761.78149 110801170.08649      4527.62149        50.000  

  22411336.97749 117772370.74649      7127.53949        50.000  

 16 04 02 12 46 59.3000000  0  2G29G09                                          
  21084675.66449 110800717.52349      4523.94549        50.000  

  22411201.39149 117771658.26249      7122.05149        50.000  

 16 04 02 12 46 59.4000000  0  2G29G09                                          
  21084589.61749 110800265.33249      4520.34449        50.000  

  22411065.92249 117770946.33649      7116.59049        50.000  

 16 04 02 12 46 59.5000000  0  2G29G09                                          
  21084503.64149 110799813.53549      4516.39849        50.000  

  22410930.54749 117770234.96949      7111.03549        50.000  

 16 04 02 12 46 59.6000000  0  2G29G09                                          
  21084417.71949 110799362.02349      4513.33649        50.000  

  22410795.26649 117769524.08249      7106.02049        50.000  

 16 04 02 12 46 59.7000000  0  2G29G09                                          
  21084331.87549 110798910.89149      4509.73849        50.000  

  22410660.09449 117768813.74649      7100.68849        50.000  

 16 04 02 12 46 59.8000000  0  2G29G09                                          
  21084246.09449 110798460.10549      4506.29749        50.000  

  22410525.02349 117768103.95349      7095.27749        50.000  

 16 04 02 12 46 59.9000000  0  2G29G09                                          
  21084160.37549 110798009.65249      4502.96549        50.000  

  22410390.04749 117767394.66449      7090.19949        50.000  

 16 04 02 12 47  0.0000000  0  2G29G09                                          
  21084074.71949 110797559.57049      4499.25849        50.000  

  22410255.18049 117766685.93049      7084.69549        50.000  

 16 04 02 12 47  0.1000000  0  2G29G09                                          
  21083989.13349 110797109.82449      4495.80949        50.000  

  22410120.40649 117765977.70349      7079.49649        50.000  

 16 04 02 12 47  0.2000000  0  2G29G09                                          
  21083903.61749 110796660.41849      4492.56249        50.000  

  22409985.74249 117765270.00849      7074.33649        50.000  

 16 04 02 12 47  0.3000000  0  2G29G09                                          
  21083818.16449 110796211.35549      4489.12149        50.000  

  22409851.17249 117764562.84449      7068.98849        50.000  

 16 04 02 12 47  0.4000000  0  2G29G09                                          
  21083732.78149 110795762.68449      4485.11349        50.000  

  22409716.71149 117763856.23449      7063.36349        50.000  

 16 04 02 12 47  0.5000000  0  2G29G09                                          
  21083647.45349 110795314.28549      4482.47349        50.000  

  22409582.33649 117763150.08649      7058.87549        50.000  

 16 04 02 12 47  0.6000000  0  2G29G09                                          
  21083562.18849 110794866.25449      4478.69549        50.000  

  22409448.06249 117762444.48849      7053.34049        50.000  

 16 04 02 12 47  0.7000000  0  2G29G09                                          
  21083477.00849 110794418.64149      4474.39549        50.000  

  22409313.90649 117761739.49249      7047.04349        50.000  

 16 04 02 12 47  0.8000000  0  2G29G09                                          
  21083391.89849 110793971.37549      4470.93449        50.000  

  22409179.84449 117761035.02049      7041.94549        50.000  

 16 04 02 12 47  0.9000000  0  2G29G09                                          
  21083306.84449 110793524.43449      4467.66849        50.000  

  22409045.88349 117760331.05549      7036.89849        50.000  

 16 04 02 12 47  1.0000000  0  2G29G09                                          
  21083221.86749 110793077.87149      4464.02049        50.000  

  22408912.03149 117759627.65649      7031.47749        50.000  

 16 04 02 12 47  1.1000000  0  2G29G09                                          
  21083136.96149 110792631.69949      4460.05149        50.000  

  22408778.28949 117758924.82849      7025.50449        50.000  

 16 04 02 12 47  1.2000000  0  2G29G09                                          
  21083052.12549 110792185.88349      4456.49649        50.000  

  22408644.64149 117758222.52049      7020.30549        50.000  

 16 04 02 12 47  1.3000000  0  2G29G09                                          
  21082967.35249 110791740.38349      4453.33249        50.000  

  22408511.09449 117757520.73049      7015.31249        50.000  

 16 04 02 12 47  1.4000000  0  2G29G09                                          
  21082882.64149 110791295.23849      4449.76649        50.000  

  22408377.64849 117756819.46549      7009.87949        50.000  

 16 04 02 12 47  1.5000000  0  2G29G09                                          
  21082798.00049 110790850.44949      4446.18849        50.000  

  22408244.30549 117756118.74649      7004.37149        50.000  

 16 04 02 12 47  1.6000000  0  2G29G09                                          
  21082713.42249 110790405.98849      4443.08649        50.000  

  22408111.05549 117755418.53549      6999.48849        50.000  

 16 04 02 12 47  1.7000000  0  2G29G09                                          
  21082628.91449 110789961.89849      4439.39149        50.000  

  22407977.91449 117754718.86349      6994.07849        50.000  

 16 04 02 12 47  1.8000000  0  2G29G09                                          
  21082544.47749 110789518.14549      4436.01249        50.000  

  22407844.87549 117754019.73049      6988.77049        50.000  

 16 04 02 12 47  1.9000000  0  2G29G09                                          
  21082460.09449 110789074.73449      4432.51649        50.000  

  22407711.93049 117753321.09449      6983.70349        50.000  

 16 04 02 12 47  2.0000000  0  2G29G09                                          
  21082375.79749 110788631.69549      4428.82449        50.000  

  22407579.09449 117752623.03549      6978.03549        50.000  

 16 04 02 12 47  2.1000000  0  2G29G09                                          
  21082291.55549 110788189.00849      4425.15249        50.000  

  22407446.35249 117751925.50049      6972.60549        50.000  

 16 04 02 12 47  2.2000000  0  2G29G09                                          
  21082207.38349 110787746.67649      4421.60949        50.000  

  22407313.71949 117751228.50449      6967.21949        50.000  

 16 04 02 12 47  2.3000000  0  2G29G09                                          
  21082123.27349 110787304.67249      4418.51649        50.000  

  22407181.18049 117750532.02349      6962.23049        50.000  

 16 04 02 12 47  2.4000000  0  2G29G09                                          
  21082039.22749 110786863.00449      4415.12949        50.000  

  22407048.73449 117749836.03949      6957.28149        50.000  

 16 04 02 12 47  2.5000000  0  2G29G09                                          
  21081955.25049 110786421.69149      4411.47349        50.000  

  22406916.40649 117749140.62549      6951.39549        50.000  

 16 04 02 12 47  2.6000000  0  2G29G09                                          
  21081871.35249 110785980.78549      4407.45749        50.000  

  22406784.18049 117748445.78149      6945.65249        50.000  

 16 04 02 12 47  2.7000000  0  2G29G09                                          
  21081787.50049 110785540.17249      4404.51649        50.000  

  22406652.04749 117747751.40249      6941.04349        50.000  

 16 04 02 12 47  2.8000000  0  2G29G09                                          
  21081703.72749 110785099.90649      4400.95749        50.000  

  22406520.00849 117747057.56249      6935.56249        50.000  

 16 04 02 12 47  2.9000000  0  2G29G09                                          
  21081620.03149 110784660.06249      4396.84849        50.000  

  22406388.10249 117746364.32049      6929.73449        50.000  

 16 04 02 12 47  3.0000000  0  2G29G09                                          
  21081536.38349 110784220.48449      4394.18049        50.000  

  22406256.26649 117745671.52749      6925.32449        50.000  

 16 04 02 12 47  3.1000000  0  2G29G09                                          
  21081452.79749 110783781.23849      4390.83249        50.000  

  22406124.53149 117744979.25849      6919.96149        50.000  

 16 04 02 12 47  3.2000000  0  2G29G09                                          
  21081369.28149 110783342.40249      4386.74649        50.000  

  22405992.91449 117744287.56649      6914.15649        50.000  

 16 04 02 12 47  3.3000000  0  2G29G09                                          
  21081285.84449 110782903.91049      4383.41049        50.000  

  22405861.39149 117743596.40649      6908.96949        50.000  

 16 04 02 12 47  3.4000000  0  2G29G09                                          
  21081202.46149 110782465.73449      4380.18449        50.000  

  22405729.95349 117742905.73449      6904.02049        50.000  

 16 04 02 12 47  3.5000000  0  2G29G09                                          
  21081119.14849 110782027.91049      4376.61749        50.000  

  22405598.63349 117742215.61349      6898.60549        50.000  

 16 04 02 12 47  3.6000000  0  2G29G09                                          
  21081035.89149 110781590.42649      4373.31649        50.000  

  22405467.40649 117741526.01249      6893.49249        50.000  

 16 04 02 12 47  3.7000000  0  2G29G09                                          
