     2.10           OBSERVATION DATA    G (GPS)             RINEX VERSION / TYPE
Convert v1.8.0                          07-Jun-2016 18:55   PGM / RUN BY / DATE 
Signal Strength values S1,S2 are in dBHz                    COMMENT             
                                                            MARKER NAME         
                                                            MARKER NUMBER       
                                                            OBSERVER / AGENCY   
                    NovAtel GPSCard                         REC # / TYPE / VERS 
                                                            ANT # / TYPE        
0.0000        0.0000        0.0000                          APPROX POSITION XYZ 
        0.0000        0.0000        0.0000                  ANTENNA: DELTA H/E/N
     1     1                                                WAVELENGTH FACT L1/2
     1     1     7   G02   G05   G06   G12   G13   G19   G20WAVELENGTH FACT L1/2
     1     1     4   G24   G25   G29   G30                  WAVELENGTH FACT L1/2
                                                            COMMENT             
                                                            COMMENT             
                                                            COMMENT             
                                                            COMMENT             
                                                            COMMENT             
     8    C1    L1    D1    S1    P2    L2    D2    S2      # / TYPES OF OBSERV 
     0.100                                                  INTERVAL            
  2016    04    02    13    06     7.0000000    GPS         TIME OF FIRST OBS   
  2016    04    02    13    10    27.5000000    GPS         TIME OF LAST OBS    
Leap Seconds Unknown                                        COMMENT             
                                                            END OF HEADER       
 16 04 02 13 06  7.0000000  0  1G20                                             
  22346537.24249 117431845.37549      4774.49249        50.000  

 16 04 02 13 06  7.1000000  0  1G20                                             
  22346446.43049 117431368.15649      4769.71549        50.000  

 16 04 02 13 06  7.2000000  0  1G20                                             
  22346355.71949 117430891.46149      4764.62549        50.000  

 16 04 02 13 06  7.3000000  0  2G25G20                                          
  23601094.50049 124024587.71159     -6862.23849        49.000  

  22346265.09449 117430415.22749      4759.81649        50.000  

 16 04 02 13 06  7.4000000  0  2G25G20                                          
  23601225.10249 124025274.03149     -6864.12149        49.000  

  22346174.57049 117429939.48849      4754.95349        50.000  

 16 04 02 13 06  7.5000000  0  2G25G20                                          
  23601355.71949 124025960.50049     -6865.52749        49.000  

  22346084.12549 117429464.19549      4750.56649        50.000  

 16 04 02 13 06  7.6000000  0  2G25G20                                          
  23601486.38349 124026647.14849     -6867.42649        49.000  

  22345993.78149 117428989.40649      4745.50849        50.000  

 16 04 02 13 06  7.7000000  0  2G25G20                                          
  23601617.07849 124027333.98049     -6869.28549        49.000  

  22345903.52349 117428515.09849      4740.58649        50.000  

 16 04 02 13 06  7.8000000  0  2G25G20                                          
  23601747.82049 124028021.03149     -6871.48049        49.000  

  22345813.35949 117428041.30549      4735.41849        50.000  

 16 04 02 13 06  7.9000000  0  2G25G20                                          
  23601878.59449 124028708.24649     -6873.21549        49.000  

  22345723.28949 117427567.99649      4730.59849        50.000  

 16 04 02 13 06  8.0000000  0  2G25G20                                          
  23602009.39149 124029395.60249     -6874.64149        49.000  

  22345633.31249 117427095.12149      4726.23449        50.000  

 16 04 02 13 06  8.1000000  0  2G25G20                                          
  23602140.24249 124030083.17649     -6876.55949        49.000  

  22345543.42249 117426622.76649      4721.22349        50.000  

 16 04 02 13 06  8.2000000  0  2G25G20                                          
  23602271.11749 124030770.94549     -6878.82049        49.000  

  22345453.65649 117426150.92649      4715.81649        50.000  

 16 04 02 13 06  8.3000000  0  2G25G20                                          
  23602402.03149 124031458.93449     -6880.76249        49.000  

  22345363.96149 117425679.58649      4710.93049        50.000  

 16 04 02 13 06  8.4000000  0  2G25G20                                          
  23602532.96949 124032147.02749     -6882.10949        49.000  

  22345274.35949 117425208.68449      4706.44549        50.000  

 16 04 02 13 06  8.5000000  0  2G25G20                                          
  23602663.95349 124032835.29749     -6883.48849        49.000  

  22345184.83649 117424738.24249      4702.15249        50.000  

 16 04 02 13 06  8.6000000  0  2G25G20                                          
  23602794.96949 124033523.78549     -6885.94149        49.000  

  22345095.41449 117424268.33649      4696.63349        50.000  

 16 04 02 13 06  8.7000000  0  2G25G20                                          
  23602926.02349 124034212.51249     -6888.40249        49.000  

  22345006.10249 117423798.97749      4691.17249        50.000  

 16 04 02 13 06  8.8000000  0  2G25G20                                          
  23603057.10949 124034901.37149     -6889.57449        49.000  

  22344916.86749 117423330.03549      4686.93449        50.000  

 16 04 02 13 06  8.9000000  0  2G25G20                                          
  23603188.22749 124035590.38349     -6891.05149        49.000  

  22344827.71949 117422861.57449      4682.21949        50.000  

 16 04 02 13 06  9.0000000  0  2G25G20                                          
  23603319.37549 124036279.58249     -6892.86749        49.000  

  22344738.66449 117422393.59849      4677.39149        50.000  

 16 04 02 13 06  9.1000000  0  2G25G20                                          
  23603450.57849 124036969.00049     -6895.19149        49.000  

  22344649.71149 117421926.14849      4672.04349        50.000  

 16 04 02 13 06  9.2000000  0  2G25G20                                          
  23603581.81249 124037658.64149     -6897.41849        49.000  

  22344560.85249 117421459.21149      4666.85949        50.000  

 16 04 02 13 06  9.3000000  0  2G25G20                                          
  23603713.06249 124038348.41449     -6898.81249        49.000  

  22344472.07849 117420992.72749      4662.28949        50.000  

 16 04 02 13 06  9.4000000  0  2G25G20                                          
  23603844.35249 124039038.34449     -6900.43049        49.000  

  22344383.39849 117420526.69949      4657.75449        50.000  

 16 04 02 13 06  9.5000000  0  2G25G20                                          
  23603975.69549 124039728.52049     -6902.55949        49.000  

  22344294.82049 117420061.22349      4652.43449        50.000  

 16 04 02 13 06  9.6000000  0  2G25G20                                          
  23604107.05549 124040418.82049     -6903.95749        49.000  

  22344206.32849 117419596.19549      4647.84449        50.000  

 16 04 02 13 06  9.7000000  0  2G25G20                                          
  23604238.46149 124041109.34049     -6906.13349        49.000  

  22344117.93049 117419131.66849      4642.75049        50.000  

 16 04 02 13 06  9.8000000  0  2G25G20                                          
  23604369.88349 124041799.99249     -6907.41449        49.000  

  22344029.62549 117418667.58249      4638.56249        50.000  

 16 04 02 13 06  9.9000000  0  2G25G20                                          
  23604501.33649 124042490.80149     -6908.84849        49.000  

  22343941.39849 117418203.96149      4634.02049        50.000  

 16 04 02 13 06 10.0000000  0  2G25G20                                          
  23604632.82849 124043181.78949     -6910.75849        49.000  

  22343853.25849 117417740.81249      4629.09049        50.000  

 16 04 02 13 06 10.1000000  0  2G25G20                                          
  23604764.35249 124043872.94549     -6912.52049        49.000  

  22343765.21149 117417278.16849      4624.07049        50.000  

 16 04 02 13 06 10.2000000  0  2G25G20                                          
  23604895.91449 124044564.31649     -6914.67249        49.000  

  22343677.27349 117416816.02049      4619.03549        50.000  

 16 04 02 13 06 10.3000000  0  2G25G20                                          
  23605027.50049 124045255.84849     -6916.46149        49.000  

  22343589.42249 117416354.33249      4614.27349        50.000  

 16 04 02 13 06 10.4000000  0  2G25G20                                          
  23605159.12549 124045947.53949     -6917.88749        49.000  

  22343501.65649 117415893.13349      4609.63349        50.000  

 16 04 02 13 06 10.5000000  0  2G25G20                                          
  23605290.78149 124046639.45349     -6920.14549        49.000  

  22343413.99249 117415432.44549      4604.41049        50.000  

 16 04 02 13 06 10.6000000  0  2G25G20                                          
  23605422.48449 124047331.53149     -6921.78949        49.000  

  22343326.40649 117414972.23449      4599.64549        50.000  

 16 04 02 13 06 10.7000000  0  2G25G20                                          
  23605554.21949 124048023.79349     -6923.79349        49.000  

  22343238.93049 117414512.52049      4594.56649        50.000  

 16 04 02 13 06 10.8000000  0  2G25G20                                          
  23605686.00849 124048716.34049     -6926.61749        49.000  

  22343151.56249 117414053.37949      4588.83249        50.000  

 16 04 02 13 06 10.9000000  0  2G25G20                                          
  23605817.83649 124049409.04749     -6928.18449        49.000  

  22343064.28149 117413594.71549      4584.12949        50.000  

 16 04 02 13 06 11.0000000  0  2G25G20                                          
  23605949.68049 124050101.88749     -6929.53549        49.000  

  22342977.06249 117413136.50049      4579.62949        50.000  

 16 04 02 13 06 11.1000000  0  2G25G20                                          
  23606081.54749 124050794.87149     -6930.48849        49.000  

  22342889.94549 117412678.70349      4575.68449        50.000  

 16 04 02 13 06 11.2000000  0  2G25G20                                          
  23606213.45349 124051488.01249     -6932.20749        49.000  

  22342802.91449 117412221.39549      4570.83649        50.000  

 16 04 02 13 06 11.3000000  0  2G25G20                                          
  23606345.39149 124052181.35549     -6934.35249        49.000  

  22342715.99249 117411764.59449      4565.68849        50.000  

 16 04 02 13 06 11.4000000  0  2G25G20                                          
  23606477.35949 124052874.88749     -6936.42249        49.000  

  22342629.17249 117411308.28149      4560.63349        50.000  

 16 04 02 13 06 11.5000000  0  2G25G20                                          
  23606609.38349 124053568.61349     -6938.27349        49.000  

  22342542.43049 117410852.46549      4555.57449        50.000  

 16 04 02 13 06 11.6000000  0  2G25G20                                          
  23606741.43049 124054262.50449     -6939.95349        49.000  

  22342455.78949 117410397.12549      4550.80149        50.000  

 16 04 02 13 06 11.7000000  0  2G25G20                                          
  23606873.49249 124054956.55949     -6941.30149        49.000  

  22342369.22749 117409942.23849      4546.62549        50.000  

 16 04 02 13 06 11.8000000  0  2G25G20                                          
  23607005.60249 124055650.78549     -6943.10249        49.000  

  22342282.75049 117409487.85549      4541.48849        50.000  

 16 04 02 13 06 11.9000000  0  2G25G20                                          
  23607137.75049 124056345.18849     -6945.02749        49.000  

  22342196.37549 117409033.94549      4536.56249        50.000  

 16 04 02 13 06 12.0000000  0  2G25G20                                          
  23607269.93049 124057039.79349     -6947.11749        49.000  

  22342110.08649 117408580.53949      4531.46149        50.000  

 16 04 02 13 06 12.1000000  0  2G25G20                                          
  23607402.14149 124057734.59449     -6948.90249        49.000  

  22342023.90649 117408127.62949      4526.71949        50.000  

 16 04 02 13 06 12.2000000  0  2G25G20                                          
  23607534.37549 124058429.49649     -6950.02749        49.000  

  22341937.79749 117407675.14149      4522.47349        50.000  

 16 04 02 13 06 12.3000000  0  2G25G20                                          
  23607666.66449 124059124.61749     -6952.31249        49.000  

  22341851.78949 117407223.18449      4517.12149        50.000  

 16 04 02 13 06 12.4000000  0  2G25G20                                          
  23607798.97749 124059819.91449     -6953.87549        49.000  

  22341765.86749 117406771.68049      4512.65249        50.000  

 16 04 02 13 06 12.5000000  0  2G25G20                                          
  23607931.32849 124060515.41449     -6956.18449        49.000  

  22341680.05549 117406320.70749      4507.16849        50.000  

 16 04 02 13 06 12.6000000  0  2G25G20                                          
  23608063.71149 124061211.08249     -6957.63749        49.000  

  22341594.32849 117405870.21149      4502.55949        50.000  

 16 04 02 13 06 12.7000000  0  2G25G20                                          
  23608196.13349 124061906.94549     -6959.68049        49.000  

  22341508.68849 117405420.18849      4497.57049        50.000  

 16 04 02 13 06 12.8000000  0  2G25G20                                          
  23608328.59449 124062603.00049     -6961.34449        49.000  

  22341423.14849 117404970.68449      4492.72749        50.000  

 16 04 02 13 06 12.9000000  0  2G25G20                                          
  23608461.07049 124063299.16449     -6962.75049        49.000  

  22341337.69549 117404521.60549      4488.37549        50.000  

 16 04 02 13 06 13.0000000  0  2G25G20                                          
  23608593.57849 124063995.53149     -6964.54749        49.000  

  22341252.33649 117404073.02749      4483.39849        50.000  

 16 04 02 13 06 13.1000000  0  2G25G20                                          
  23608726.13349 124064692.07849     -6966.66449        49.000  

  22341167.06249 117403624.93449      4478.32049        50.000  

 16 04 02 13 06 13.2000000  0  2G25G20                                          
  23608858.71949 124065388.82449     -6968.41449        49.000  

  22341081.89149 117403177.34049      4473.52349        50.000  

 16 04 02 13 06 13.3000000  0  2G25G20                                          
  23608991.32849 124066085.76649     -6970.55149        49.000  

  22340996.81249 117402730.25049      4468.22349        50.000  

 16 04 02 13 06 13.4000000  0  2G25G20                                          
  23609123.97749 124066782.82449     -6971.37549        49.000  

  22340911.81249 117402283.59049      4464.32049        50.000  

 16 04 02 13 06 13.5000000  0  2G25G20                                          
  23609256.65649 124067480.04349     -6973.25049        49.000  

  22340826.90649 117401837.39149      4459.57449        50.000  

 16 04 02 13 06 13.6000000  0  2G25G20                                          
  23609389.38349 124068177.52349     -6975.62149        49.000  

  22340742.10249 117401391.76249      4453.95349        50.000  

 16 04 02 13 06 13.7000000  0  2G25G20                                          
  23609522.13349 124068875.14149     -6977.05549        49.000  

  22340657.39149 117400946.57449      4449.44949        50.000  

 16 04 02 13 06 13.8000000  0  2G25G20                                          
  23609654.91449 124069572.91049     -6978.83249        49.000  

  22340572.75849 117400501.85549      4444.63749        50.000  

 16 04 02 13 06 13.9000000  0  2G25G20                                          
  23609787.72749 124070270.88749     -6980.68449        49.000  

  22340488.23449 117400057.64849      4439.73049        50.000  

 16 04 02 13 06 14.0000000  0  2G25G20                                          
  23609920.57849 124070969.04349     -6982.41449        49.000  

  22340403.78949 117399613.91449      4434.91449        50.000  

 16 04 02 13 06 14.1000000  0  2G25G20                                          
  23610053.46149 124071667.29349     -6983.35249        49.000  

  22340319.42249 117399170.58249      4431.02349        50.000  

 16 04 02 13 06 14.2000000  0  2G25G20                                          
  23610186.37549 124072365.77749     -6985.93449        49.000  

  22340235.17249 117398727.80149      4425.38349        50.000  

 16 04 02 13 06 14.3000000  0  2G25G20                                          
  23610319.34449 124073064.45749     -6988.09849        49.000  

  22340151.00049 117398285.50849      4420.23449        50.000  

 16 04 02 13 06 14.4000000  0  2G25G20                                          
  23610452.33649 124073763.34449     -6989.77349        49.000  

  22340066.93849 117397843.74649      4415.29349        50.000  

 16 04 02 13 06 14.5000000  0  2G25G20                                          
  23610585.36749 124074462.32849     -6991.09049        49.000  

  22339982.95349 117397402.38749      4410.96949        50.000  

 16 04 02 13 06 14.6000000  0  2G25G20                                          
  23610718.43049 124075161.60249     -6993.61349        49.000  

  22339899.08649 117396961.60549      4405.43849        50.000  

 16 04 02 13 06 14.7000000  0  2G25G20                                          
  23610851.53149 124075860.98049     -6994.98049        49.000  

  22339815.28949 117396521.25449      4400.89549        50.000  

 16 04 02 13 06 14.8000000  0  2G25G20                                          
  23610984.64849 124076560.53149     -6996.25849        49.000  

  22339731.57849 117396081.38349      4396.47349        50.000  

 16 04 02 13 06 14.9000000  0  2G25G20                                          
  23611117.81249 124077260.27349     -6998.40249        49.000  

  22339647.96949 117395641.98449      4391.48049        50.000  

 16 04 02 13 06 15.0000000  0  2G25G20                                          
  23611251.00849 124077960.23049     -7000.55949        49.000  

  22339564.44549 117395203.13749      4386.02749        50.000  

 16 04 02 13 06 15.1000000  0  2G25G20                                          
  23611384.24249 124078660.35549     -7002.29349        49.000  

  22339481.02349 117394764.74649      4381.30549        50.000  

 16 04 02 13 06 15.2000000  0  2G25G20                                          
  23611517.50849 124079360.69949     -7004.52049        49.000  

  22339397.70349 117394326.88349      4376.08649        50.000  

 16 04 02 13 06 15.3000000  0  2G25G20                                          
  23611650.80549 124080061.13349     -7005.23049        49.000  

  22339314.45349 117393889.41849      4372.32049        50.000  

 16 04 02 13 06 15.4000000  0  2G25G20                                          
  23611784.11749 124080761.68849     -7006.68449        49.000  

  22339231.29749 117393452.39849      4367.73049        50.000  

 16 04 02 13 06 15.5000000  0  2G25G20                                          
  23611917.48449 124081462.52749     -7009.33249        49.000  

  22339148.24249 117393015.95349      4362.04349        50.000  

 16 04 02 13 06 15.6000000  0  2G25G20                                          
  23612050.88349 124082163.52349     -7011.06249        49.000  

  22339065.28149 117392579.97749      4357.11349        50.000  

 16 04 02 13 06 15.7000000  0  2G25G20                                          
  23612184.32049 124082864.69549     -7012.50849        49.000  

  22338982.41449 117392144.48449      4352.57849        50.000  

 16 04 02 13 06 15.8000000  0  2G25G20                                          
  23612317.78149 124083566.03149     -7014.30549        49.000  

  22338899.63349 117391709.44949      4347.91049        50.000  

 16 04 02 13 06 15.9000000  0  2G25G20                                          
  23612451.28949 124084267.58649     -7016.63749        49.000  

  22338816.95349 117391274.95749      4342.32449        50.000  

 16 04 02 13 06 16.0000000  0  2G25G20                                          
  23612584.82049 124084969.28549     -7017.92649        49.000  

  22338734.34449 117390840.90649      4338.00849        50.000  

 16 04 02 13 06 16.1000000  0  2G25G20                                          
  23612718.38349 124085671.13749     -7019.30949        49.000  

  22338651.83649 117390407.32449      4333.59849        50.000  

 16 04 02 13 06 16.2000000  0  2G25G20                                          
  23612851.96949 124086373.15649     -7021.26249        49.000  

  22338569.42249 117389974.21149      4328.60949        50.000  

 16 04 02 13 06 16.3000000  0  2G25G20                                          
  23612985.59449 124087075.34449     -7023.05549        49.000  

  22338487.09449 117389541.57449      4323.80149        50.000  

 16 04 02 13 06 16.4000000  0  2G25G20                                          
  23613119.26649 124087777.78549     -7025.31249        49.000  

  22338404.87549 117389109.50049      4318.20349        50.000  

 16 04 02 13 06 16.5000000  0  2G25G20                                          
  23613252.96149 124088480.35949     -7026.58649        49.000  

  22338322.73449 117388677.86349      4313.96949        50.000  

 16 04 02 13 06 16.6000000  0  2G25G20                                          
  23613386.68849 124089183.11349     -7028.54749        49.000  

  22338240.69549 117388246.70749      4309.13349        50.000  

 16 04 02 13 06 16.7000000  0  2G25G20                                          
  23613520.45349 124089886.05949     -7030.53949        49.000  

  22338158.74249 117387816.05949      4303.91849        50.000  

 16 04 02 13 06 16.8000000  0  2G25G20                                          
  23613654.25849 124090589.22349     -7032.85949        49.000  

  22338076.89849 117387385.92649      4298.78949        50.000  

 16 04 02 13 06 16.9000000  0  2G25G20                                          
  23613788.08649 124091292.53549     -7033.87149        49.000  

  22337995.13349 117386956.27049      4294.36349        50.000  

 16 04 02 13 06 17.0000000  0  2G25G20                                          
  23613921.95349 124091995.98849     -7035.51249        49.000  

  22337913.46149 117386527.05149      4289.67649        50.000  

 16 04 02 13 06 17.1000000  0  2G25G20                                          
  23614055.85949 124092699.64849     -7037.35549        49.000  

  22337831.87549 117386098.33649      4284.75449        50.000  

 16 04 02 13 06 17.2000000  0  2G25G20                                          
  23614189.78949 124093403.46149     -7039.08249        49.000  

  22337750.38349 117385670.08649      4280.08249        50.000  

 16 04 02 13 06 17.3000000  0  2G25G20                                          
  23614323.75849 124094107.45349     -7041.01649        49.000  

  22337668.98449 117385242.34049      4274.97749        50.000  

 16 04 02 13 06 17.4000000  0  2G25G20                                          
  23614457.75049 124094811.60949     -7042.48049        49.000  

  22337587.66449 117384815.05149      4270.42249        50.000  

 16 04 02 13 06 17.5000000  0  2G25G20                                          
  23614591.78149 124095515.91049     -7043.91049        49.000  

  22337506.44549 117384388.21149      4265.96149        50.000  

 16 04 02 13 06 17.6000000  0  2G25G20                                          
  23614725.85249 124096220.43049     -7046.15649        49.000  

  22337425.32049 117383961.90249      4260.58249        50.000  

 16 04 02 13 06 17.7000000  0  2G25G20                                          
  23614859.94549 124096925.10549     -7047.67649        49.000  

  22337344.28149 117383536.05149      4256.05149        50.000  

 16 04 02 13 06 17.8000000  0  2G25G20                                          
  23614994.06249 124097629.93449     -7049.37549        49.000  

  22337263.33649 117383110.65649      4251.39849        50.000  

 16 04 02 13 06 17.9000000  0  2G25G20                                          
  23615128.23449 124098334.94149     -7051.11749        49.000  

  22337182.47749 117382685.77049      4246.43849        50.000  

 16 04 02 13 06 18.0000000  0  2G25G20                                          
  23615262.43049 124099040.14849     -7052.97749        49.000  

  22337101.71149 117382261.36349      4241.59049        50.000  

 16 04 02 13 06 18.1000000  0  2G25G20                                          
  23615396.65649 124099745.52349     -7054.86749        49.000  

  22337021.04749 117381837.46549      4236.61349        50.000  

 16 04 02 13 06 18.2000000  0  2G25G20                                          
  23615530.91449 124100451.07049     -7056.25449        49.000  

  22336940.46949 117381414.02049      4232.14149        50.000  

 16 04 02 13 06 18.3000000  0  2G25G20                                          
  23615665.20349 124101156.79349     -7058.06649        49.000  

  22336859.98449 117380991.07049      4227.23049        50.000  

 16 04 02 13 06 18.4000000  0  2G25G20                                          
  23615799.52349 124101862.64549     -7059.40249        49.000  

  22336779.59449 117380568.55549      4222.69949        50.000  

 16 04 02 13 06 18.5000000  0  2G25G20                                          
  23615933.89849 124102568.71949     -7061.72349        49.000  

  22336699.28949 117380146.57049      4217.31249        50.000  

 16 04 02 13 06 18.6000000  0  2G25G20                                          
  23616068.28949 124103274.93849     -7063.15249        49.000  

  22336619.08649 117379725.02749      4212.97749        50.000  

 16 04 02 13 06 18.7000000  0  2G25G20                                          
  23616202.71949 124103981.34449     -7065.08249        49.000  

  22336538.96149 117379303.98849      4207.95749        50.000  

 16 04 02 13 06 18.8000000  0  2G25G20                                          
  23616337.17249 124104687.88749     -7066.53149        49.000  

  22336458.92249 117378883.40249      4203.42649        50.000  

 16 04 02 13 06 18.9000000  0  2G25G20                                          
  23616471.65649 124105394.63749     -7068.50849        49.000  

  22336378.98449 117378463.31649      4198.53149        50.000  

 16 04 02 13 06 19.0000000  0  2G25G20                                          
  23616606.18849 124106101.58649     -7070.44549        49.000  

  22336299.14149 117378043.75049      4193.17249        50.000  

 16 04 02 13 06 19.1000000  0  2G25G20                                          
  23616740.75049 124106808.71549     -7072.03149        49.000  

  22336219.39149 117377624.66849      4188.46149        50.000  

 16 04 02 13 06 19.2000000  0  2G25G20                                          
  23616875.34449 124107515.97749     -7073.51649        49.000  

  22336139.71149 117377206.02049      4184.06249        50.000  

 16 04 02 13 06 19.3000000  0  2G25G20                                          
  23617009.95349 124108223.40249     -7075.07849        49.000  

  22336060.13349 117376787.85249      4179.34849        50.000  

 16 04 02 13 06 19.4000000  0  2G25G20                                          
  23617144.60949 124108931.00049     -7077.17649        49.000  

  22335980.65649 117376370.16049      4174.35549        50.000  

 16 04 02 13 06 19.5000000  0  2G25G20                                          
  23617279.32049 124109638.86349     -7079.56649        49.000  

  22335901.28149 117375953.03149      4168.86749        50.000  

 16 04 02 13 06 19.6000000  0  2G25G20                                          
  23617414.03949 124110346.81249     -7080.55549        49.000  

  22335821.97749 117375536.31649      4164.65249        50.000  

 16 04 02 13 06 19.7000000  0  2G25G20                                          
  23617548.79749 124111054.97749     -7082.62949        49.000  

  22335742.77349 117375120.11749      4159.53549        50.000  

 16 04 02 13 06 19.8000000  0  2G25G20                                          
  23617683.60249 124111763.38749     -7084.99249        49.000  

  22335663.67249 117374704.46549      4154.10549        50.000  

 16 04 02 13 06 19.9000000  0  2G25G20                                          
  23617818.43049 124112471.91449     -7086.15249        49.000  

  22335584.65649 117374289.23849      4149.91449        50.000  

 16 04 02 13 06 20.0000000  0  2G25G20                                          
  23617953.28149 124113180.57049     -7087.73449        49.000  

  22335505.72749 117373874.46149      4145.32449        50.000  

 16 04 02 13 06 20.1000000  0  2G25G20                                          
  23618088.19549 124113889.53549     -7090.56649        49.000  

  22335426.91449 117373460.28949      4139.34049        50.000  

 16 04 02 13 06 20.2000000  0  2G25G20                                          
  23618223.13349 124114598.60549     -7091.90649        49.000  

  22335348.18049 117373046.53549      4134.84449        50.000  

 16 04 02 13 06 20.3000000  0  2G25G20                                          
  23618358.10249 124115307.86749     -7093.69549        49.000  

  22335269.53949 117372633.29349      4129.99649        50.000  

 16 04 02 13 06 20.4000000  0  2G25G20                                          
  23618493.10949 124116017.32449     -7095.44949        49.000  

  22335190.99249 117372220.54349      4124.94949        50.000  

 16 04 02 13 06 20.5000000  0  2G25G20                                          
  23618628.14849 124116726.95349     -7097.25849        49.000  

  22335112.53949 117371808.26649      4120.30949        50.000  

 16 04 02 13 06 20.6000000  0  2G25G20                                          
  23618763.21949 124117436.76649     -7099.24249        49.000  

  22335034.18049 117371396.48449      4115.25049        50.000  

 16 04 02 13 06 20.7000000  0  2G25G20                                          
  23618898.33649 124118146.78949     -7101.32449        49.000  

  22334955.91449 117370985.22349      4110.12949        50.000  

 16 04 02 13 06 20.8000000  0  2G25G20                                          
  23619033.47749 124118856.97749     -7102.68849        49.000  

  22334877.74249 117370574.43449      4105.50849        50.000  

 16 04 02 13 06 20.9000000  0  2G25G20                                          
  23619168.64149 124119567.27749     -7103.85249        49.000  

  22334799.64849 117370164.07449      4101.32449        50.000  

 16 04 02 13 06 21.0000000  0  2G25G20                                          
  23619303.83649 124120277.75849     -7105.82449        49.000  

  22334721.64849 117369754.18849      4096.25449        50.000  

 16 04 02 13 06 21.1000000  0  2G25G20                                          
  23619439.07849 124120988.44549     -7107.86749        49.000  

  22334643.75049 117369344.82449      4091.26249        50.000  

 16 04 02 13 06 21.2000000  0  2G25G20                                          
  23619574.33649 124121699.24649     -7108.84049        49.000  

  22334565.93049 117368935.89149      4087.03149        50.000  

 16 04 02 13 06 21.3000000  0  2G25G20                                          
  23619709.62549 124122410.18849     -7110.34849        49.000  

  22334488.19549 117368527.40249      4082.52349        50.000  

 16 04 02 13 06 21.4000000  0  2G25G20                                          
  23619844.96149 124123121.39849     -7112.92249        49.000  

  22334410.56249 117368119.48049      4076.84049        50.000  

 16 04 02 13 06 21.5000000  0  2G25G20                                          
  23619980.32849 124123832.73449     -7114.50049        49.000  

  22334333.02349 117367712.00849      4072.18049        50.000  

 16 04 02 13 06 21.6000000  0  2G25G20                                          
  23620115.73449 124124544.30549     -7116.56249        49.000  

  22334255.58649 117367305.06249      4067.04749        50.000  

 16 04 02 13 06 21.7000000  0  2G25G20                                          
  23620251.16449 124125256.01249     -7118.28549        49.000  

  22334178.23449 117366898.59449      4062.11749        50.000  

 16 04 02 13 06 21.8000000  0  2G25G20                                          
  23620386.64149 124125967.95349     -7120.10549        49.000  

  22334100.98449 117366492.62949      4057.34849        50.000  

 16 04 02 13 06 21.9000000  0  2G25G20                                          
  23620522.14849 124126680.00849     -7121.62149        49.000  

  22334023.81249 117366087.10549      4052.75049        50.000  

 16 04 02 13 06 22.0000000  0  2G25G20                                          
  23620657.68049 124127392.25449     -7123.42649        49.000  

  22333946.74249 117365682.09449      4047.76649        50.000  

 16 04 02 13 06 22.1000000  0  2G25G20                                          
  23620793.24249 124128104.66849     -7124.92649        49.000  

  22333869.75849 117365277.52049      4043.40649        50.000  

 16 04 02 13 06 22.2000000  0  2G25G20                                          
  23620928.84449 124128817.25849     -7126.99649        49.000  

  22333792.85949 117364873.47349      4037.97349        50.000  

 16 04 02 13 06 22.3000000  0  2G25G20                                          
  23621064.47749 124129530.02049     -7128.43449        49.000  

  22333716.06249 117364469.87949      4033.59449        50.000  

 16 04 02 13 06 22.4000000  0  2G25G20                                          
  23621200.14149 124130242.94549     -7130.33649        49.000  

  22333639.35249 117364066.78149      4028.44949        50.000  

 16 04 02 13 06 22.5000000  0  2G25G20                                          
  23621335.85249 124130956.06649     -7132.25849        49.000  

  22333562.73449 117363664.16849      4023.46549        50.000  

 16 04 02 13 06 22.6000000  0  2G25G20                                          
  23621471.57849 124131669.33249     -7133.58649        49.000  

  22333486.21149 117363262.00849      4019.21549        50.000  

 16 04 02 13 06 22.7000000  0  2G25G20                                          
  23621607.35949 124132382.77049     -7135.53549        49.000  

  22333409.77349 117362860.33649      4014.12549        50.000  

 16 04 02 13 06 22.8000000  0  2G25G20                                          
  23621743.16449 124133096.42249     -7137.39149        49.000  

  22333333.43849 117362459.19149      4009.07449        50.000  

 16 04 02 13 06 22.9000000  0  2G25G20                                          
  23621879.00049 124133810.28149     -7139.92649        49.000  

  22333257.19549 117362058.55149      4003.73049        50.000  

 16 04 02 13 06 23.0000000  0  2G25G20                                          
  23622014.88349 124134524.33649     -7141.52749        49.000  

  22333181.05549 117361658.43049      3998.70749        50.000  

 16 04 02 13 06 23.1000000  0  2G25G20                                          
  23622150.79749 124135238.55149     -7143.27049        49.000  

  22333105.00849 117361258.77349      3993.94549        50.000  

 16 04 02 13 06 23.2000000  0  2G25G20                                          
  23622286.73449 124135952.90649     -7144.41849        49.000  

  22333029.03949 117360859.55949      3989.83649        50.000  

 16 04 02 13 06 23.3000000  0  2G25G20                                          
  23622422.70349 124136667.42249     -7146.10249        49.000  

  22332953.15649 117360460.80949      3985.07849        50.000  

 16 04 02 13 06 23.4000000  0  2G25G20                                          
  23622558.70349 124137382.11749     -7147.60949        49.000  

  22332877.36749 117360062.56249      3980.18849        50.000  

 16 04 02 13 06 23.5000000  0  2G25G20                                          
  23622694.73449 124138096.91849     -7149.07449        49.000  

  22332801.66449 117359664.73449      3975.74249        50.000  

 16 04 02 13 06 23.6000000  0  2G25G20                                          
  23622830.79749 124138811.96149     -7151.12149        49.000  

  22332726.06249 117359267.43449      3970.77049        50.000  

 16 04 02 13 06 23.7000000  0  2G25G20                                          
  23622966.89849 124139527.14849     -7152.94949        49.000  

  22332650.54749 117358870.60249      3965.74649        50.000  

 16 04 02 13 06 23.8000000  0  2G25G20                                          
  23623103.02349 124140242.50049     -7154.30549        49.000  

  22332575.12549 117358474.24649      3961.24249        50.000  

 16 04 02 13 06 23.9000000  0  2G25G20                                          
  23623239.17249 124140957.98449     -7156.03949        49.000  

  22332499.78949 117358078.32449      3956.65249        50.000  

 16 04 02 13 06 24.0000000  0  2G25G20                                          
  23623375.36749 124141673.69149     -7157.91849        49.000  

  22332424.54749 117357682.94549      3951.52349        50.000  

 16 04 02 13 06 24.1000000  0  2G25G20                                          
  23623511.59449 124142389.54749     -7159.44549        49.000  

  22332349.39849 117357288.01249      3946.87149        50.000  

 16 04 02 13 06 24.2000000  0  2G25G20                                          
  23623647.84449 124143105.54749     -7161.16849        49.000  

  22332274.32849 117356893.53149      3942.31249        50.000  

 16 04 02 13 06 24.3000000  0  2G25G20                                          
  23623784.12549 124143821.72349     -7162.52749        49.000  

  22332199.35949 117356499.55549      3937.46949        50.000  

 16 04 02 13 06 24.4000000  0  2G25G20                                          
  23623920.43049 124144538.01249     -7163.66849        49.000  

  22332124.46149 117356105.98049      3933.48449        50.000  

 16 04 02 13 06 24.5000000  0  2G25G20                                          
  23624056.76649 124145254.50449     -7165.84849        49.000  

  22332049.66449 117355712.92649      3928.12149        50.000  

 16 04 02 13 06 24.6000000  0  2G25G20                                          
  23624193.15649 124145971.21549     -7168.19549        49.000  

  22331974.97749 117355320.40249      3922.79749        50.000  

 16 04 02 13 06 24.7000000  0  2G25G20                                          
  23624329.57849 124146688.09849     -7169.76649        49.000  

  22331900.37549 117354928.36749      3917.89149        50.000  

 16 04 02 13 06 24.8000000  0  2G25G20                                          
  23624466.03149 124147405.16049     -7171.60249        49.000  

  22331825.87549 117354536.79349      3913.20749        50.000  

 16 04 02 13 06 24.9000000  0  2G25G20                                          
  23624602.50849 124148122.35949     -7172.88749        49.000  

  22331751.45349 117354145.70349      3908.50449        50.000  

 16 04 02 13 06 25.0000000  0  2G25G20                                          
  23624739.01649 124148839.73049     -7174.46549        49.000  

  22331677.11749 117353755.06249      3904.09449        50.000  

 16 04 02 13 06 25.1000000  0  2G25G20                                          
  23624875.56249 124149557.29749     -7176.71549        49.000  

  22331602.87549 117353364.93449      3898.84849        50.000  

 16 04 02 13 06 25.2000000  0  2G25G20                                          
  23625012.14849 124150275.05549     -7178.41849        49.000  

  22331528.73449 117352975.32449      3893.75449        50.000  

 16 04 02 13 06 25.3000000  0  2G25G20                                          
  23625148.75049 124150992.88349     -7179.23049        49.000  

  22331454.66449 117352586.07849      3889.88349        50.000  

 16 04 02 13 06 25.4000000  0  2G25G20                                          
  23625285.39149 124151710.94149     -7181.33649        49.000  

  22331380.69549 117352197.37149      3884.87149        50.000  

 16 04 02 13 06 25.5000000  0  2G25G20                                          
  23625422.05549 124152429.12149     -7182.89849        49.000  

  22331306.80549 117351809.10949      3880.16849        50.000  

 16 04 02 13 06 25.6000000  0  3G25G30G20                                       
  23625558.75849 124153147.50049     -7184.69549        49.000  

  26250778.18849 137948769.69159      8710.69149        48.000  

  22331233.02349 117351421.33649      3875.25849        50.000  

 16 04 02 13 06 25.7000000  0  3G25G30G20                                       
  23625695.50049 124153866.03949     -7186.30149        49.000  

  26250612.44549 137947898.73049      8708.65649        48.000  

  22331159.32049 117351034.04349      3870.48849        50.000  

 16 04 02 13 06 25.8000000  0  4G25G30G20G12                                    
  23625832.26649 124154584.76249     -7188.21149        49.000  

  26250446.75049 137947027.99649      8706.20749        48.000  

  22331085.71949 117350647.24649      3865.56649        50.000  

  22371628.57849 117563700.88359     13885.78149        50.000  

 16 04 02 13 06 25.9000000  0  5G25G06G30G20G12                                 
  23625969.07049 124155303.67249     -7190.17249        49.000  

  23651161.60249 124287692.20759     -9027.62949        49.000  

  26250281.10249 137946157.46949      8703.92649        48.000  

  22331012.20349 117350260.93849      3860.45349        50.000  

  22371364.36749 117562312.42649     13883.17249        50.000  

 16 04 02 13 06 26.0000000  0  5G25G06G30G20G12                                 
  23626105.90649 124156022.75849     -7191.73449        49.000  

  23651333.40649 124288595.04749     -9029.49649        49.000  

  26250115.49249 137945287.16449      8701.87149        48.000  

  22330938.78949 117349875.12949      3855.60949        50.000  

  22371100.21949 117560924.22349     13880.77349        50.000  

 16 04 02 13 06 26.1000000  0  5G25G06G30G20G12                                 
  23626242.77349 124156741.98449     -7193.17249        49.000  

  23651505.26649 124289498.05549     -9031.31249        49.000  

  26249949.91449 137944417.02749      8700.14549        48.000  

  22330865.45349 117349489.76249      3851.19949        50.000  

  22370836.08649 117559536.21949     13878.75849        50.000  

 16 04 02 13 06 26.2000000  0  5G25G06G30G20G12                                 
  23626379.67249 124157461.40249     -7195.03149        49.000  

  23651677.14849 124290401.29749     -9033.44949        49.000  

  26249784.39149 137943547.13349      8698.00449        48.000  

  22330792.21149 117349104.89549      3846.25449        50.000  

  22370572.03149 117558148.47349     13876.28949        50.000  

 16 04 02 13 06 26.3000000  0  5G25G06G30G20G12                                 
  23626516.60949 124158180.96949     -7196.37149        49.000  

  23651849.05549 124291304.71949     -9035.28949        49.000  

  26249618.88349 137942677.41049      8696.14149        48.000  

  22330719.06249 117348720.49249      3841.64849        50.000  

  22370307.99249 117556760.94949     13874.08249        50.000  

 16 04 02 13 06 26.4000000  0  5G25G06G30G20G12                                 
  23626653.56249 124158900.68449     -7198.27349        49.000  

  23652021.00049 124292208.29349     -9037.05549        49.000  

  26249453.44549 137941807.85949      8694.34449        48.000  

  22330645.99249 117348336.52749      3837.18049        50.000  

  22370044.00049 117555373.61349     13872.07049        50.000  

 16 04 02 13 06 26.5000000  0  5G25G06G30G20G12                                 
  23626790.55549 124159620.60249     -7199.91849        49.000  

  23652193.00849 124293112.14849     -9039.45349        49.000  

  26249288.02349 137940938.58249      8691.79749        48.000  

  22330573.03149 117347953.10249      3831.99649        50.000  

  22369780.05549 117553986.58249     13869.31249        50.000  

 16 04 02 13 06 26.6000000  0  5G25G06G30G20G12                                 
  23626927.57049 124160340.62149     -7201.16449        49.000  

  23652365.03149 124294016.12949     -9040.83249        49.000  

  26249122.66449 137940069.42649      8690.42649        48.000  

  22330500.14849 117347570.08249      3827.78549        50.000  

  22369516.15649 117552599.70749     13867.57049        50.000  

 16 04 02 13 06 26.7000000  0  5G25G06G30G20G12                                 
  23627064.62549 124161060.88749     -7203.65249        49.000  

  23652537.10249 124294920.38749     -9043.81649        49.000  

  26248957.32049 137939200.55549      8687.63749        48.000  

  22330427.36749 117347187.60549      3822.26649        50.000  

  22369252.30549 117551213.13349     13864.55549        50.000  

 16 04 02 13 06 26.8000000  0  5G25G06G30G20G12                                 
  23627201.71149 124161781.25849     -7204.67649        49.000  

  23652709.20349 124295824.76249     -9044.95749        49.000  

  26248792.06249 137938331.82449      8686.33649        48.000  

  22330354.65649 117346805.55549      3818.02349        50.000  

  22368988.48449 117549826.75049     13862.74649        50.000  

 16 04 02 13 06 26.9000000  0  5G25G06G30G20G12                                 
  23627338.82849 124162501.77749     -7206.15649        49.000  

  23652881.38349 124296729.34049     -9046.91449        49.000  

  26248626.78149 137937463.27349      8684.32849        48.000  

  22330282.03949 117346423.94949      3813.57049        50.000  

  22368724.70349 117548440.56649     13860.56249        50.000  

 16 04 02 13 06 27.0000000  0  5G25G06G30G20G12                                 
  23627475.97749 124163222.51249     -7208.20349        49.000  

  23653053.56249 124297634.16849     -9049.31649        49.000  

  26248461.62549 137936594.98449      8681.91849        48.000  

  22330209.53149 117346042.89149      3808.31649        50.000  

  22368460.99249 117547054.67249     13857.78149        50.000  

 16 04 02 13 06 27.1000000  0  5G25G06G30G20G12                                 
  23627613.15649 124163943.40249     -7209.98849        49.000  

  23653225.79749 124298539.17649     -9051.39149        49.000  

  26248296.43049 137935726.87549      8679.80549        48.000  

  22330137.10949 117345662.29349      3803.28949        50.000  

  22368197.30549 117545669.00049     13855.41449        50.000  

 16 04 02 13 06 27.2000000  0  5G25G06G30G20G12                                 
  23627750.36749 124164664.44549     -7211.40249        49.000  

  23653398.05549 124299444.38749     -9053.29349        49.000  

  26248131.25849 137934858.98049      8677.79749        48.000  

  22330064.76649 117345282.16049      3798.69549        50.000  

  22367933.65649 117544283.56249     13853.13749        50.000  

 16 04 02 13 06 27.3000000  0  5G25G06G30G20G12                                 
  23627887.61749 124165385.68849     -7213.35949        49.000  

  23653570.33649 124300349.81649     -9055.46149        49.000  

  26247966.14149 137933991.30949      8675.56649        48.000  

  22329992.52349 117344902.51649      3793.98849        50.000  

  22367670.06249 117542898.36749     13850.75049        50.000  

 16 04 02 13 06 27.4000000  0  5G25G06G30G20G12                                 
  23628024.90649 124166107.16849     -7215.74649        49.000  

  23653742.68849 124301255.51649     -9058.23049        49.000  

  26247801.10249 137933123.89849      8672.76649        48.000  

  22329920.38349 117344523.42649      3788.33649        50.000  

  22367406.51649 117541513.47749     13847.46549        50.000  

 16 04 02 13 06 27.5000000  0  5G25G06G30G20G12                                 
  23628162.23449 124166828.82049     -7217.48449        49.000  

  23653915.09449 124302161.40649     -9060.19149        49.000  

  26247636.07849 137932256.70349      8670.72749        48.000  

  22329848.33649 117344144.82849      3783.44149        50.000  

  22367143.02349 117540128.83649     13845.07049        50.000  

 16 04 02 13 06 27.6000000  0  5G25G06G30G20G12                                 
  23628299.58649 124167550.59849     -7218.72349        49.000  

  23654087.51649 124303067.48849     -9061.90649        49.000  

  26247471.10949 137931389.66849      8669.04349        48.000  

  22329776.37549 117343766.66449      3779.12149        50.000  

  22366879.58649 117538744.38349     13843.21949        50.000  

 16 04 02 13 06 27.7000000  0  5G25G06G30G20G12                                 
  23628436.97749 124168272.54749     -7220.12149        49.000  

  23654259.95349 124303973.74649     -9063.41849        49.000  

  26247306.15649 137930522.84449      8667.52049        48.000  

  22329704.50049 117343388.97349      3774.86749        50.000  

  22366616.17249 117537360.16449     13841.21149        50.000  

 16 04 02 13 06 27.8000000  0  5G25G06G30G20G12                                 
  23628574.37549 124168994.61349     -7221.78949        49.000  

  23654432.44549 124304880.18449     -9065.68049        49.000  

  26247141.20349 137929656.18849      8665.38349        48.000  

  22329632.71149 117343011.72349      3769.98449        50.000  

  22366352.78949 117535976.13749     13838.94149        50.000  

 16 04 02 13 06 27.9000000  0  5G25G06G30G20G12                                 
  23628711.84449 124169716.98049     -7224.57449        49.000  

  23654605.02349 124305786.93849     -9068.55949        49.000  

  26246976.35249 137928789.85549      8662.18849        48.000  

  22329561.03949 117342635.08249      3764.05549        50.000  

  22366089.48449 117534592.48449     13835.37949        50.000  

 16 04 02 13 06 28.0000000  0  5G25G06G30G20G12                                 
  23628849.33649 124170439.48449     -7226.11749        49.000  

  23654777.60949 124306693.85549     -9070.40249        49.000  

  26246811.53949 137927923.69149      8660.37549        48.000  

  22329489.44549 117342258.86749      3759.53949        50.000  

  22365826.21949 117533209.01249     13833.28949        50.000  

 16 04 02 13 06 28.1000000  0  5G25G06G30G20G12                                 
  23628986.85249 124171162.10549     -7226.97349        49.000  

  23654950.24249 124307600.93449     -9071.89849        49.000  

  26246646.74249 137927057.68849      8659.02349        48.000  

  22329417.93849 117341883.10249      3755.28149        50.000  

  22365562.99249 117531825.73849     13831.59449        50.000  

 16 04 02 13 06 28.2000000  0  5G25G06G30G20G12                                 
  23629124.38349 124171884.86749     -7228.59449        49.000  

  23655122.88349 124308508.18849     -9073.71149        49.000  

  26246481.97749 137926191.87949      8656.98449        48.000  

  22329346.51649 117341507.78549      3750.71549        50.000  

  22365299.80549 117530442.68049     13829.42649        50.000  

 16 04 02 13 06 28.3000000  0  5G25G06G30G20G12                                 
  23629261.97749 124172607.87549     -7230.98449        49.000  

  23655295.58649 124309415.70349     -9076.25849        49.000  

  26246317.26649 137925326.31249      8654.41849        48.000  

  22329275.19549 117341133.00449      3745.37949        50.000  

  22365036.67249 117529059.90649     13826.51249        50.000  

 16 04 02 13 06 28.4000000  0  5G25G06G30G20G12                                 
  23629399.57849 124173331.00049     -7232.13349        49.000  

  23655468.31249 124310323.38749     -9077.97349        49.000  

  26246152.56249 137924460.94149      8652.66049        48.000  

  22329203.96149 117340758.67649      3740.86749        50.000  

  22364773.57049 117527677.35549     13824.42649        50.000  

 16 04 02 13 06 28.5000000  0  5G25G06G30G20G12                                 
  23629537.21949 124174054.27349     -7233.79349        49.000  

  23655641.05549 124311231.25449     -9079.87149        49.000  

  26245987.92249 137923595.73049      8650.91049        48.000  

  22329132.81249 117340384.79749      3736.29349        50.000  

  22364510.51649 117526295.00449     13822.25849        50.000  

 16 04 02 13 06 28.6000000  0  5G25G06G30G20G12                                 
  23629674.87549 124174777.69949     -7235.17249        49.000  

  23655813.85249 124312139.30949     -9081.62949        49.000  

  26245823.30549 137922730.72749      8649.05149        48.000  

  22329061.75849 117340011.38749      3731.76249        50.000  

  22364247.52349 117524912.87549     13820.17649        50.000  

 16 04 02 13 06 28.7000000  0  5G25G06G30G20G12                                 
  23629812.57849 124175501.28949     -7236.89149        49.000  

  23655986.68049 124313047.53549     -9083.46549        49.000  

  26245658.73449 137921865.90649      8646.88749        48.000  

  22328990.78949 117339638.43849      3727.04749        50.000  

  22363984.55549 117523530.96549     13817.81649        50.000  

 16 04 02 13 06 28.8000000  0  5G25G06G30G20G12                                 
  23629950.32849 124176225.15249     -7239.63349        49.000  

  23656159.57049 124313956.09449     -9086.62149        49.000  

  26245494.21949 137921001.40249      8643.87949        48.000  

  22328919.93849 117339266.08249      3721.16449        50.000  

  22363721.68049 117522149.39549     13814.38749        50.000  

 16 04 02 13 06 28.9000000  0  5G25G06G30G20G12                                 
  23630088.08649 124176949.06649     -7240.35549        49.000  

  23656332.49249 124314864.73849     -9087.59049        49.000  

  26245329.72749 137920136.99649      8642.89549        48.000  

  22328849.14849 117338894.09049      3717.37149        50.000  

  22363458.79749 117520767.96149     13813.10249        50.000  

 16 04 02 13 06 29.0000000  0  5G25G06G30G20G12                                 
  23630225.88349 124177673.18049     -7241.83649        49.000  

  23656505.44549 124315773.60949     -9089.63349        49.000  

  26245165.27349 137919272.82049      8640.89149        48.000  

  22328778.45349 117338522.60549      3712.69949        50.000  

  22363195.96149 117519386.78549     13810.82049        50.000  

 16 04 02 13 06 29.1000000  0  5G25G06G30G20G12                                 
  23630363.71149 124178397.45749     -7243.70749        49.000  

  23656678.44549 124316682.68049     -9091.83249        49.000  

  26245000.85949 137918408.85249      8638.57049        48.000  

  22328707.85249 117338151.59849      3707.64849        50.000  

  22362933.17249 117518005.84049     13808.24649        50.000  

 16 04 02 13 06 29.2000000  0  5G25G06G30G20G12                                 
  23630501.57849 124179121.93449     -7245.68449        49.000  

  23656851.47749 124317591.96549     -9093.97349        49.000  

  26244836.50849 137917545.09449      8636.41849        48.000  

  22328637.34449 117337781.08649      3702.69949        50.000  

  22362670.44549 117516625.15249     13805.71149        50.000  

 16 04 02 13 06 29.3000000  0  5G25G06G30G20G12                                 
  23630639.46949 124179846.55949     -7247.38349        49.000  

  23657024.55549 124318501.44549     -9096.11349        49.000  

  26244672.18849 137916681.55549      8634.12149        48.000  

  22328566.93049 117337411.05149      3697.75449        50.000  

  22362407.75049 117515244.69949     13803.18449        50.000  

 16 04 02 13 06 29.4000000  0  5G25G06G30G20G12                                 
  23630777.40649 124180571.41449     -7249.48049        49.000  

  23657197.67249 124319411.18449     -9098.50849        49.000  

  26244507.89849 137915818.26249      8631.80149        48.000  

  22328496.60949 117337041.54349      3692.61749        50.000  

  22362145.12549 117513864.52749     13800.44549        50.000  

 16 04 02 13 06 29.5000000  0  5G25G06G30G20G12                                 
  23630915.35949 124181296.41049     -7250.82449        49.000  

  23657370.82849 124320321.09049     -9100.19149        49.000  

  26244343.65649 137914955.14849      8629.97349        48.000  

  22328426.38349 117336672.48849      3688.17249        50.000  

  22361882.52349 117512484.55549     13798.63349        50.000  

 16 04 02 13 06 29.6000000  0  5G25G06G30G20G12                                 
  23631053.35949 124182021.59849     -7252.86749        49.000  

  23657544.02349 124321231.25049     -9102.78149        49.000  

  26244179.45349 137914092.28149      8627.39849        48.000  

  22328356.25049 117336303.94949      3682.84049        50.000  

  22361619.97749 117511104.86749     13795.61749        50.000  

 16 04 02 13 06 29.7000000  0  5G25G06G30G20G12                                 
  23631191.39149 124182746.93049     -7254.17249        49.000  

  23657717.22749 124322141.55549     -9104.08249        49.000  

  26244015.28149 137913229.57049      8626.10549        48.000  

  22328286.20349 117335935.85249      3678.59049        50.000  

  22361357.47749 117509725.38749     13793.71949        50.000  

 16 04 02 13 06 29.8000000  0  5G25G06G30G20G12                                 
  23631329.43849 124183472.36749     -7255.46149        49.000  

  23657890.48449 124323052.02349     -9105.84049        49.000  

  26243851.16449 137912367.02749      8624.23449        48.000  

